{"name": "Ackermann Janet", "sex": "F", "races": {"A travers Carouge - Run to Run": {"latitude": 46.1829674, "longitude": 6.1378539, "race": "A travers Carouge - Run to Run", "date": {"sam. 20.09.2008": {"year": 2008, "day": 20, "month": 9, "categories": {"W55/10": {"distance": 10, "rank": 8, "pace": 340000000000, "time": 3408.9}}, "weekday": "saturday", "livingplace": "Vessy"}}, "location": "Carouge GE"}, "Montreux - Les Rochers de Naye": {"latitude": 46.4312213, "longitude": 6.9106799, "race": "Montreux - Les Rochers de Naye", "date": {"dim. 11.07.2010": {"year": 2010, "day": 11, "month": 7, "categories": {"C-FemVet": {"distance": 10, "rank": 24, "pace": 629000000000, "time": 5980.4}}, "weekday": "sunday", "livingplace": "Vessy"}}, "location": "Montreux"}, "Course de l'Escalade, Gen\u00e8ve": {"latitude": 46.2043907, "longitude": 6.1431577, "race": "Course de l'Escalade, Gen\u00e8ve", "date": {"sam. 07.12.2013": {"year": 2013, "day": 7, "month": 12, "categories": {"Esc-Fem5": {"distance": 5, "rank": 56, "pace": 372000000000, "time": 1785.5}}, "weekday": "saturday", "livingplace": "Vessy"}}, "location": "Gen\u00e8ve"}, "Kerzerslauf": {"latitude": 46.97488999999999, "longitude": 7.1954365, "race": "Kerzerslauf", "date": {"sam. 19.03.2011": {"year": 2011, "day": 19, "month": 3, "categories": {"15-F60": {"distance": 15, "rank": 50, "pace": 457000000000, "time": 6869.4}}, "weekday": "saturday", "livingplace": "Vessy"}, "sam. 17.03.2012": {"year": 2012, "day": 17, "month": 3, "categories": {"15-F65": {"distance": 15, "rank": 24, "pace": 434000000000, "time": 6516.6}}, "weekday": "saturday", "livingplace": "Vessy"}}, "location": "Kerzers"}, "ASICS Bremgarter Reusslauf": {"latitude": 47.34917739999999, "longitude": 8.3397905, "race": "ASICS Bremgarter Reusslauf", "date": {"sam. 25.02.2012": {"year": 2012, "day": 25, "month": 2, "categories": {"F60": {"distance": 11, "rank": 26, "pace": 364000000000, "time": 4010.2}}, "weekday": "saturday", "livingplace": "Vessy"}}, "location": "Bremgarten AG"}}, "birth": 1947}