{"name": "Aebi Gr\u00e9goire", "sex": "M", "races": {"Tour du Pays de Vaud #3 - Chavornay": {"latitude": 46.7784736, "longitude": 6.641183, "race": "Tour du Pays de Vaud #3 - Chavornay", "date": {"mer. 28.08.2013": {"year": 2013, "day": 28, "month": 8, "categories": {"H-Sen1": {"distance": 9, "rank": 125, "pace": 315000000000, "time": 2805.3}}, "weekday": "wednesday", "livingplace": "Curtilles"}}, "location": "Yverdon-les-Bains"}, "Tour du Pays de Vaud printanier #2 Yverdon-les-Bains": {"latitude": 46.6698891, "longitude": 6.7975224, "race": "Tour du Pays de Vaud printanier #2 Yverdon-les-Bains", "date": {"mer. 11.06.2014": {"year": 2014, "day": 11, "month": 6, "categories": {"H-Sen1": {"distance": 9, "rank": 80, "pace": 341000000000, "time": 3105.7}}, "weekday": "wednesday", "livingplace": "Curtilles"}, "mer. 05.06.2013": {"year": 2013, "day": 5, "month": 6, "categories": {"H-Sen1": {"distance": 9, "rank": 76, "pace": 333000000000, "time": 3031.9}}, "weekday": "wednesday", "livingplace": "Curtilles"}}, "location": "Moudon"}, "Morat-Fribourg": {"latitude": 46.92922110000001, "longitude": 7.120184, "race": "Morat-Fribourg", "date": {"sam. 04.10.2014": {"year": 2014, "day": 4, "month": 10, "categories": {"17-M20": {"distance": 17, "rank": 1938, "pace": 359000000000, "time": 6175.4}}, "weekday": "saturday", "livingplace": "Curtilles"}}, "location": "Murten"}, "Tour du Pays de Vaud #3 - Mezi\u00e8res": {"latitude": 46.7784736, "longitude": 6.641183, "race": "Tour du Pays de Vaud #3 - Mezi\u00e8res", "date": {"mer. 22.08.2012": {"year": 2012, "day": 22, "month": 8, "categories": {"H-Sen1": {"distance": 8, "rank": 150, "pace": 355000000000, "time": 2986.7}}, "weekday": "wednesday", "livingplace": "Mezieres"}}, "location": "Yverdon-les-Bains"}, "20km de Lausanne": {"latitude": 46.5196535, "longitude": 6.6322734, "race": "20km de Lausanne", "date": {"sam. 30.04.2011": {"year": 2011, "day": 30, "month": 4, "categories": {"10-H20": {"distance": 10, "rank": 673, "pace": 369000000000, "time": 3699.4}}, "weekday": "saturday", "livingplace": "Club"}, "sam. 27.04.2013": {"year": 2013, "day": 27, "month": 4, "categories": {"10-H30": {"distance": 10, "rank": 761, "pace": 318000000000, "time": 3188.0}}, "weekday": "saturday", "livingplace": "Curtilles"}, "sam. 28.04.2012": {"year": 2012, "day": 28, "month": 4, "categories": {"10-H30": {"distance": 10, "rank": 801, "pace": 351000000000, "time": 3513.8}}, "weekday": "saturday", "livingplace": "Mezieres"}, "sam. 25.04.2015": {"year": 2015, "day": 25, "month": 4, "categories": {"10-H30": {"distance": 10, "rank": 647, "pace": 314000000000, "time": 3147.1}}, "weekday": "saturday", "livingplace": "Savigny"}}, "location": "Lausanne"}, "Tour du Pays de Vaud printanier #1 Moudon": {"latitude": 46.3832683, "longitude": 6.2347852, "race": "Tour du Pays de Vaud printanier #1 Moudon", "date": {"mer. 29.05.2013": {"year": 2013, "day": 29, "month": 5, "categories": {"H-Sen1": {"distance": 8, "rank": 57, "pace": 310000000000, "time": 2658.1}}, "weekday": "wednesday", "livingplace": "Curtilles"}, "mer. 04.06.2014": {"year": 2014, "day": 4, "month": 6, "categories": {"H-Sen1": {"distance": 8, "rank": 79, "pace": 311000000000, "time": 2616.5}}, "weekday": "wednesday", "livingplace": "Curtilles"}}, "location": "Nyon"}, "Tour du Pays de Vaud #4, La Sarraz": {"latitude": 46.7088129, "longitude": 6.5707689, "race": "Tour du Pays de Vaud #4, La Sarraz", "date": {"mer. 03.09.2014": {"year": 2014, "day": 3, "month": 9, "categories": {"H-Sen1": {"distance": 9, "rank": 135, "pace": 330000000000, "time": 2811.0}}, "weekday": "wednesday", "livingplace": "Curtilles"}}, "location": "Chavornay"}, "Tour du Pays de Vaud #3, Chavornay": {"latitude": 46.7784736, "longitude": 6.641183, "race": "Tour du Pays de Vaud #3, Chavornay", "date": {"mer. 27.08.2014": {"year": 2014, "day": 27, "month": 8, "categories": {"H-Sen1": {"distance": 9, "rank": 104, "pace": 315000000000, "time": 2715.7}}, "weekday": "wednesday", "livingplace": "Curtilles"}}, "location": "Yverdon-les-Bains"}, "Tour du Pays de Vaud #1, Penthaz": {"latitude": 46.5993131, "longitude": 6.539251200000001, "race": "Tour du Pays de Vaud #1, Penthaz", "date": {"mer. 13.08.2014": {"year": 2014, "day": 13, "month": 8, "categories": {"H-Sen1": {"distance": 9, "rank": 82, "pace": 293000000000, "time": 2502.0}}, "weekday": "wednesday", "livingplace": "Curtilles"}}, "location": "Penthaz"}, "Tour du Pays de Vaud printanier #3 - Yens": {"latitude": 46.7829756, "longitude": 6.5728678, "race": "Tour du Pays de Vaud printanier #3 - Yens", "date": {"mer. 12.06.2013": {"year": 2013, "day": 12, "month": 6, "categories": {"H-Sen1": {"distance": 9, "rank": 72, "pace": 318000000000, "time": 2894.4}}, "weekday": "wednesday", "livingplace": "Curtilles"}, "mer. 18.06.2014": {"year": 2014, "day": 18, "month": 6, "categories": {"H-Sen1": {"distance": 9, "rank": 75, "pace": 306000000000, "time": 2785.0}}, "weekday": "wednesday", "livingplace": "Curtilles"}}, "location": "Champvent"}, "Tour du Pays de Vaud #2, Mezi\u00e8res": {"latitude": 46.5955273, "longitude": 6.7702883, "race": "Tour du Pays de Vaud #2, Mezi\u00e8res", "date": {"mer. 20.08.2014": {"year": 2014, "day": 20, "month": 8, "categories": {"H-Sen1": {"distance": 8, "rank": 91, "pace": 327000000000, "time": 2656.3}}, "weekday": "wednesday", "livingplace": "Curtilles"}}, "location": "M\u00e9zi\u00e8res VD"}, "Tour du Pays de Vaud #2 - Mezi\u00e8res": {"latitude": 46.5955273, "longitude": 6.7702883, "race": "Tour du Pays de Vaud #2 - Mezi\u00e8res", "date": {"mer. 21.08.2013": {"year": 2013, "day": 21, "month": 8, "categories": {"H-Sen1": {"distance": 8, "rank": 104, "pace": 332000000000, "time": 2692.1}}, "weekday": "wednesday", "livingplace": "Curtilles"}}, "location": "M\u00e9zi\u00e8res VD"}, "Tour du Pays de Vaud #4 - La Sarraz": {"latitude": 46.7088129, "longitude": 6.5707689, "race": "Tour du Pays de Vaud #4 - La Sarraz", "date": {"mer. 04.09.2013": {"year": 2013, "day": 4, "month": 9, "categories": {"H-Sen1": {"distance": 9, "rank": 126, "pace": 334000000000, "time": 2839.7}}, "weekday": "wednesday", "livingplace": "Curtilles"}}, "location": "Chavornay"}, "Tour du pays de Vaud #1 - Penthaz": {"latitude": 46.5993131, "longitude": 6.539251200000001, "race": "Tour du pays de Vaud #1 - Penthaz", "date": {"mer. 14.08.2013": {"year": 2013, "day": 14, "month": 8, "categories": {"H-Sen1": {"distance": 9, "rank": 118, "pace": 307000000000, "time": 2619.2}}, "weekday": "wednesday", "livingplace": "Curtilles"}}, "location": "Penthaz"}}, "birth": 1982}