{"name": "Aecherli Corinne", "sex": "F", "races": {"Tour du pays de Vaud #1 - Penthaz": {"latitude": 46.5993131, "longitude": 6.539251200000001, "race": "Tour du pays de Vaud #1 - Penthaz", "date": {"mer. 14.08.2013": {"year": 2013, "day": 14, "month": 8, "categories": {"D-Sen1": {"distance": 9, "rank": 51, "pace": 345000000000, "time": 2943.8}}, "weekday": "wednesday", "livingplace": "Le Vaud"}}, "location": "Penthaz"}, "Corrida Bulloise, Bulle": {"latitude": 46.6154512, "longitude": 7.057726799999999, "race": "Corrida Bulloise, Bulle", "date": {"sam. 17.11.2012": {"year": 2012, "day": 17, "month": 11, "categories": {"DJ-U20": {"distance": 3, "rank": 10, "pace": 316000000000, "time": 997.7}}, "weekday": "saturday", "livingplace": "Le Vaud"}}, "location": "Bulle"}, "Tour du Pays de Vaud #2 - Mezi\u00e8res": {"latitude": 46.5955273, "longitude": 6.7702883, "race": "Tour du Pays de Vaud #2 - Mezi\u00e8res", "date": {"mer. 21.08.2013": {"year": 2013, "day": 21, "month": 8, "categories": {"D-Sen1": {"distance": 8, "rank": 34, "pace": 356000000000, "time": 2889.9}}, "weekday": "wednesday", "livingplace": "Le Vaud"}}, "location": "M\u00e9zi\u00e8res VD"}, "20km de Lausanne": {"latitude": 46.5196535, "longitude": 6.6322734, "race": "20km de Lausanne", "date": {"sam. 27.04.2013": {"year": 2013, "day": 27, "month": 4, "categories": {"10-F30": {"distance": 10, "rank": 127, "pace": 312000000000, "time": 3128.5}}, "weekday": "saturday", "livingplace": "Le Vaud"}}, "location": "Lausanne"}, "Tour du Pays de Vaud #3 - Chavornay": {"latitude": 46.7784736, "longitude": 6.641183, "race": "Tour du Pays de Vaud #3 - Chavornay", "date": {"mer. 28.08.2013": {"year": 2013, "day": 28, "month": 8, "categories": {"D-Sen1": {"distance": 9, "rank": 37, "pace": 323000000000, "time": 2879.9}}, "weekday": "wednesday", "livingplace": "Le Vaud"}}, "location": "Yverdon-les-Bains"}, "Les Traine-Savates, Cheseaux-sur-Lausanne": {"latitude": 46.585452, "longitude": 6.6047712, "race": "Les Traine-Savates, Cheseaux-sur-Lausanne", "date": {"sam. 13.04.2013": {"year": 2013, "day": 13, "month": 4, "categories": {"10-W20": {"distance": 10, "rank": 61, "pace": 329000000000, "time": 3398.2}}, "weekday": "saturday", "livingplace": "Le Vaud"}}, "location": "Cheseaux-sur-Lausanne"}, "Tour du Pays de Vaud #4 - La Sarraz": {"latitude": 46.7088129, "longitude": 6.5707689, "race": "Tour du Pays de Vaud #4 - La Sarraz", "date": {"mer. 04.09.2013": {"year": 2013, "day": 4, "month": 9, "categories": {"D-Sen1": {"distance": 9, "rank": 36, "pace": 333000000000, "time": 2832.6}}, "weekday": "wednesday", "livingplace": "Le Vaud"}}, "location": "Chavornay"}}, "birth": 1974}