{"name": "Aeschlimann Neo", "sex": "M", "races": {"Groupe E Tour Fribourg #4 Montagny": {"latitude": 46.6585092, "longitude": 6.877722, "race": "Groupe E Tour Fribourg #4 Montagny", "date": {"mer. 11.09.2013": {"year": 2013, "day": 11, "month": 9, "categories": {"KG1": {"distance": 1, "rank": 6, "pace": 253000000000, "time": 304.3}}, "weekday": "wednesday", "livingplace": "Mannens"}}, "location": "Siviriez"}, "Groupe E Tour Fribourg #5, Givisiez": {"latitude": 46.8128615, "longitude": 7.131657799999999, "race": "Groupe E Tour Fribourg #5, Givisiez", "date": {"mer. 17.09.2014": {"year": 2014, "day": 17, "month": 9, "categories": {"EcolC-M": {"distance": 2, "rank": 4, "pace": 231000000000, "time": 370.5}}, "weekday": "wednesday", "livingplace": "Mannens"}}, "location": "Givisiez"}, "Morat-Fribourg": {"latitude": 46.92922110000001, "longitude": 7.120184, "race": "Morat-Fribourg", "date": {"sam. 05.10.2013": {"year": 2013, "day": 5, "month": 10, "categories": {"EcolMC": {"distance": 1, "rank": 60, "pace": 243000000000, "time": 340.9}}, "weekday": "saturday", "livingplace": "Mannens"}, "sam. 03.10.2015": {"year": 2015, "day": 3, "month": 10, "categories": {"EcolMB": {"distance": 2, "rank": 28, "pace": 227000000000, "time": 477.2}}, "weekday": "saturday", "livingplace": "Mannens"}}, "location": "Murten"}, "Corrida Bulloise, Bulle": {"latitude": 46.6154512, "longitude": 7.057726799999999, "race": "Corrida Bulloise, Bulle", "date": {"sam. 21.11.2015": {"year": 2015, "day": 21, "month": 11, "categories": {"G-U12": {"distance": 2, "rank": 24, "pace": 259000000000, "time": 453.8}}, "weekday": "saturday", "livingplace": "Mannens"}}, "location": "Bulle"}, "Groupe E Tour Fribourg #1, Cousset": {"latitude": 46.81832, "longitude": 6.977279999999999, "race": "Groupe E Tour Fribourg #1, Cousset", "date": {"mer. 20.08.2014": {"year": 2014, "day": 20, "month": 8, "categories": {"EcolC-M": {"distance": 1, "rank": 4, "pace": 245000000000, "time": 294.9}}, "weekday": "wednesday", "livingplace": "Mannens"}}, "location": "Cousset"}}, "birth": 2005}