{"name": "Aeschlimann Gilles", "sex": "M", "races": {"Morat-Fribourg": {"latitude": 46.92922110000001, "longitude": 7.120184, "race": "Morat-Fribourg", "date": {"sam. 03.10.2015": {"year": 2015, "day": 3, "month": 10, "categories": {"17-M20": {"distance": 17, "rank": 32, "pace": 223000000000, "time": 3834.6}}, "weekday": "saturday", "livingplace": "Le Locle"}, "dim. 05.10.2003": {"year": 2003, "day": 5, "month": 10, "categories": {"M20": {"distance": 17, "rank": 99, "pace": 232000000000, "time": 3992.4}}, "weekday": "sunday", "livingplace": "Le Locle"}, "dim. 06.10.2002": {"year": 2002, "day": 6, "month": 10, "categories": {"M20": {"distance": 17, "rank": 126, "pace": 233000000000, "time": 4002.9}}, "weekday": "sunday", "livingplace": "Le Locle"}, "sam. 04.10.2014": {"year": 2014, "day": 4, "month": 10, "categories": {"17-M20": {"distance": 17, "rank": 54, "pace": 225000000000, "time": 3875.6}}, "weekday": "saturday", "livingplace": "Le Locle"}}, "location": "Murten"}, "BCN Tour Les Ponts-de-Martel": {"latitude": 46.999113, "longitude": 6.733554799999999, "race": "BCN Tour Les Ponts-de-Martel", "date": {"mer. 09.05.2012": {"year": 2012, "day": 9, "month": 5, "categories": {"HS1": {"distance": 10, "rank": 6, "pace": 225000000000, "time": 2318.3}}, "weekday": "wednesday", "livingplace": "Le Locle"}}, "location": "Les Ponts-de-Martel"}, "Corrida Bulloise, Bulle": {"latitude": 46.6154512, "longitude": 7.057726799999999, "race": "Corrida Bulloise, Bulle", "date": {"sam. 21.11.2015": {"year": 2015, "day": 21, "month": 11, "categories": {"8-M20": {"distance": 8, "rank": 11, "pace": 216000000000, "time": 1761.4}}, "weekday": "saturday", "livingplace": "Le Locle"}}, "location": "Bulle"}, "BCN Tour Le Landeron": {"latitude": 46.9668714, "longitude": 6.8589727, "race": "BCN Tour Le Landeron", "date": {"mer. 22.04.2009": {"year": 2009, "day": 22, "month": 4, "categories": {"HS1": {"distance": 11, "rank": 11, "pace": 228000000000, "time": 2533.2}}, "weekday": "wednesday", "livingplace": "Les Rugueux"}}, "location": "Colombier NE"}, "BCN Tour Ponts-de-Martel": {"latitude": 47.0624261, "longitude": 6.9175754, "race": "BCN Tour Ponts-de-Martel", "date": {"mer. 28.04.2010": {"year": 2010, "day": 28, "month": 4, "categories": {"HS1": {"distance": 11, "rank": 5, "pace": 223000000000, "time": 2501.0}}, "weekday": "wednesday", "livingplace": "Le Locle"}}, "location": "Ch\u00e9zard-St-Martin"}, "BCN Tour Auvernier": {"latitude": 46.9668714, "longitude": 6.8589727, "race": "BCN Tour Auvernier", "date": {"mer. 20.04.2011": {"year": 2011, "day": 20, "month": 4, "categories": {"HS1": {"distance": 11, "rank": 1, "pace": 225000000000, "time": 2430.7}}, "weekday": "wednesday", "livingplace": "Le Locle"}}, "location": "Colombier NE"}, "BCN Tour La Chaux-de-fonds": {"latitude": 47.1034892, "longitude": 6.832783800000001, "race": "BCN Tour La Chaux-de-fonds", "date": {"mer. 12.05.2010": {"year": 2010, "day": 12, "month": 5, "categories": {"HS1": {"distance": 11, "rank": 4, "pace": 266000000000, "time": 2851.1}}, "weekday": "wednesday", "livingplace": "Le Locle"}}, "location": "La Chaux-de-Fonds"}, "BCN Tour La Chaux-de-Fonds": {"latitude": 47.1034892, "longitude": 6.832783800000001, "race": "BCN Tour La Chaux-de-Fonds", "date": {"mer. 23.05.2012": {"year": 2012, "day": 23, "month": 5, "categories": {"HS1": {"distance": 11, "rank": 5, "pace": 221000000000, "time": 2388.0}}, "weekday": "wednesday", "livingplace": "Le Locle"}, "mer. 11.05.2011": {"year": 2011, "day": 11, "month": 5, "categories": {"HS1": {"distance": 11, "rank": 3, "pace": 256000000000, "time": 2741.3}}, "weekday": "wednesday", "livingplace": "Le Locle"}}, "location": "La Chaux-de-Fonds"}, "La Trotteuse-Tissot, La Chaux-de-Fonds": {"latitude": 47.1034892, "longitude": 6.832783800000001, "race": "La Trotteuse-Tissot, La Chaux-de-Fonds", "date": {"sam. 14.12.2013": {"year": 2013, "day": 14, "month": 12, "categories": {"GC-H30": {"distance": 8, "rank": 11, "pace": 216000000000, "time": 1729.2}}, "weekday": "saturday", "livingplace": "La vache m'emeuhh"}, "sam. 17.12.2011": {"year": 2011, "day": 17, "month": 12, "categories": {"GC-H30": {"distance": 8, "rank": 7, "pace": 225000000000, "time": 1801.7}}, "weekday": "saturday", "livingplace": "Le Locle"}, "sam. 13.12.2014": {"year": 2014, "day": 13, "month": 12, "categories": {"GC-H30": {"distance": 8, "rank": 164, "pace": 301000000000, "time": 2414.8}}, "weekday": "saturday", "livingplace": "La vache m'emeuh"}, "sam. 12.12.2015": {"year": 2015, "day": 12, "month": 12, "categories": {"GC-H30": {"distance": 8, "rank": 9, "pace": 215000000000, "time": 1720.8}}, "weekday": "saturday", "livingplace": "L'amicale du velo"}}, "location": "La Chaux-de-Fonds"}, "BCN Tour Neuch\u00e2tel": {"latitude": 46.9899874, "longitude": 6.9292732, "race": "BCN Tour Neuch\u00e2tel", "date": {"mer. 26.05.2010": {"year": 2010, "day": 26, "month": 5, "categories": {"HS1": {"distance": 10, "rank": 5, "pace": 231000000000, "time": 2248.5}}, "weekday": "wednesday", "livingplace": "Le Locle"}, "mer. 30.05.2012": {"year": 2012, "day": 30, "month": 5, "categories": {"HS1": {"distance": 11, "rank": 4, "pace": 229000000000, "time": 2567.0}}, "weekday": "wednesday", "livingplace": "Le Locle"}, "mer. 25.05.2011": {"year": 2011, "day": 25, "month": 5, "categories": {"HS1": {"distance": 11, "rank": 3, "pace": 223000000000, "time": 2552.2}}, "weekday": "wednesday", "livingplace": "Le Locle"}}, "location": "Neuch\u00e2tel"}, "Groupe E Tour Fribourg #5, Givisiez": {"latitude": 46.8128615, "longitude": 7.131657799999999, "race": "Groupe E Tour Fribourg #5, Givisiez", "date": {"mer. 17.09.2014": {"year": 2014, "day": 17, "month": 9, "categories": {"H-Sen1": {"distance": 10, "rank": 3, "pace": 227000000000, "time": 2335.8}}, "weekday": "wednesday", "livingplace": "Le Locle"}}, "location": "Givisiez"}, "BCN Tour Cornaux": {"latitude": 46.9668714, "longitude": 6.8589727, "race": "BCN Tour Cornaux", "date": {"mer. 25.04.2012": {"year": 2012, "day": 25, "month": 4, "categories": {"HS1": {"distance": 11, "rank": 6, "pace": 240000000000, "time": 2646.5}}, "weekday": "wednesday", "livingplace": "Le Locle"}}, "location": "Colombier NE"}, "BCN Tour M\u00f4tier": {"latitude": 46.9262933, "longitude": 6.6324944, "race": "BCN Tour M\u00f4tier", "date": {"mer. 19.05.2010": {"year": 2010, "day": 19, "month": 5, "categories": {"HS1": {"distance": 10, "rank": 6, "pace": 213000000000, "time": 2114.0}}, "weekday": "wednesday", "livingplace": "Le Locle"}}, "location": "Couvet"}, "BCN Tour Fontaine Cernier": {"latitude": 47.0624261, "longitude": 6.9175754, "race": "BCN Tour Fontaine Cernier", "date": {"mer. 27.04.2011": {"year": 2011, "day": 27, "month": 4, "categories": {"HS1": {"distance": 10, "rank": 3, "pace": 218000000000, "time": 2248.7}}, "weekday": "wednesday", "livingplace": "Le Locle"}}, "location": "Ch\u00e9zard-St-Martin"}, "Sierre-Zinal, Sierre": {"latitude": 46.29413110000001, "longitude": 7.533536199999999, "race": "Sierre-Zinal, Sierre", "date": {"dim. 12.08.2012": {"year": 2012, "day": 12, "month": 8, "categories": {"Elites": {"distance": 31, "rank": 59, "pace": 369000000000, "time": 11466.9}}, "weekday": "sunday", "livingplace": "Le Locle"}, "dim. 09.08.2015": {"year": 2015, "day": 9, "month": 8, "categories": {"ElitesHo": {"distance": 31, "rank": 47, "pace": 364000000000, "time": 11308.8}}, "weekday": "sunday", "livingplace": "Le Locle"}}, "location": "Sierre"}, "BCN Tour Le Locle": {"latitude": 46.999113, "longitude": 6.733554799999999, "race": "BCN Tour Le Locle", "date": {"mer. 05.05.2010": {"year": 2010, "day": 5, "month": 5, "categories": {"HS1": {"distance": 11, "rank": 5, "pace": 218000000000, "time": 2385.2}}, "weekday": "wednesday", "livingplace": "Le Locle"}}, "location": "Les Ponts-de-Martel"}, "BCN Tour Couvet": {"latitude": 47.0624261, "longitude": 6.9175754, "race": "BCN Tour Couvet", "date": {"mer. 02.05.2012": {"year": 2012, "day": 2, "month": 5, "categories": {"HS1": {"distance": 11, "rank": 6, "pace": 227000000000, "time": 2532.8}}, "weekday": "wednesday", "livingplace": "Le Locle"}}, "location": "Ch\u00e9zard-St-Martin"}, "Aletsch-Halbmarathon, Bettmeralp": {"latitude": NaN, "longitude": NaN, "race": "Aletsch-Halbmarathon, Bettmeralp", "date": {"dim. 28.06.2015": {"year": 2015, "day": 28, "month": 6, "categories": {"M35": {"distance": 21, "rank": 4, "pace": 322000000000, "time": 6800.1}}, "weekday": "sunday", "livingplace": "Le Locle"}}, "location": "Bettmeralp"}, "BCN Tour La Br\u00e9vine": {"latitude": 46.999113, "longitude": 6.733554799999999, "race": "BCN Tour La Br\u00e9vine", "date": {"mer. 04.05.2011": {"year": 2011, "day": 4, "month": 5, "categories": {"HS1": {"distance": 10, "rank": 3, "pace": 227000000000, "time": 2278.5}}, "weekday": "wednesday", "livingplace": "Le Locle"}}, "location": "Les Ponts-de-Martel"}, "BCN Tour Les Ponts de Martel": {"latitude": 46.9262933, "longitude": 6.6324944, "race": "BCN Tour Les Ponts de Martel", "date": {"mer. 18.05.2011": {"year": 2011, "day": 18, "month": 5, "categories": {"HS1": {"distance": 13, "rank": 2, "pace": 230000000000, "time": 2947.9}}, "weekday": "wednesday", "livingplace": "Le Locle"}}, "location": "Couvet"}, "D\u00e9fi Val-de-Travers, Couvet": {"latitude": 46.9262933, "longitude": 6.6324944, "race": "D\u00e9fi Val-de-Travers, Couvet", "date": {"sam. 20.06.2009": {"year": 2009, "day": 20, "month": 6, "categories": {"SH": {"distance": 20, "rank": 1, "pace": 247000000000, "time": 4874.5}}, "weekday": "saturday", "livingplace": "Le Locle"}}, "location": "Couvet"}, "BCN Tour Colombier": {"latitude": 46.9668714, "longitude": 6.8589727, "race": "BCN Tour Colombier", "date": {"mer. 16.05.2012": {"year": 2012, "day": 16, "month": 5, "categories": {"HS1": {"distance": 11, "rank": 5, "pace": 223000000000, "time": 2418.0}}, "weekday": "wednesday", "livingplace": "Le Locle"}, "mer. 23.04.2008": {"year": 2008, "day": 23, "month": 4, "categories": {"HE": {"distance": 10, "rank": 3, "pace": 226000000000, "time": 2307.0}}, "weekday": "wednesday", "livingplace": "Les rugueux"}, "mer. 21.04.2010": {"year": 2010, "day": 21, "month": 4, "categories": {"HS1": {"distance": 10, "rank": 17, "pace": 259000000000, "time": 2597.6}}, "weekday": "wednesday", "livingplace": "Le Locle"}}, "location": "Colombier NE"}}, "birth": 1979}