{"name": "Aeschlimann Josef", "sex": "M", "races": {"Gippinger Stauseelauf": {"latitude": 47.5810513, "longitude": 8.2152586, "race": "Gippinger Stauseelauf", "date": {"mar. 31.12.2002": {"year": 2002, "day": 31, "month": 12, "categories": {"M50": {"distance": 8, "rank": 201, "pace": 351000000000, "time": 2635.5}}, "weekday": "tuesday", "livingplace": "Wiggen"}}, "location": "Leuggern"}, "Luzerner Stadtlauf": {"latitude": 47.05016819999999, "longitude": 8.3093072, "race": "Luzerner Stadtlauf", "date": {"sam. 27.04.2002": {"year": 2002, "day": 27, "month": 4, "categories": {"K/29": {"distance": 6, "rank": 128, "pace": 338000000000, "time": 1860.1}}, "weekday": "saturday", "livingplace": "Wiggen"}}, "location": "Luzern"}, "Morat-Fribourg": {"latitude": 46.92922110000001, "longitude": 7.120184, "race": "Morat-Fribourg", "date": {"dim. 07.10.2001": {"year": 2001, "day": 7, "month": 10, "categories": {"M55": {"distance": 17, "rank": 262, "pace": 364000000000, "time": 6263.5}}, "weekday": "sunday", "livingplace": "Wiggen"}, "dim. 06.10.2002": {"year": 2002, "day": 6, "month": 10, "categories": {"M55": {"distance": 17, "rank": 308, "pace": 405000000000, "time": 6970.9}}, "weekday": "sunday", "livingplace": "Wiggen"}}, "location": "Murten"}, "Basler Stadtlauf": {"latitude": 47.5595986, "longitude": 7.5885761, "race": "Basler Stadtlauf", "date": {"sam. 24.11.2001": {"year": 2001, "day": 24, "month": 11, "categories": {"U": {"distance": 6, "rank": 293, "pace": 326000000000, "time": 1798.0}}, "weekday": "saturday", "livingplace": "Wiggen"}}, "location": "Basel"}, "Course de l'Escalade, Gen\u00e8ve": {"latitude": 46.2043907, "longitude": 6.1431577, "race": "Course de l'Escalade, Gen\u00e8ve", "date": {"sam. 07.12.2002": {"year": 2002, "day": 7, "month": 12, "categories": {"Hommes4": {"distance": 7, "rank": 647, "pace": 346000000000, "time": 2511.1}}, "weekday": "saturday", "livingplace": "Wiggen"}}, "location": "Gen\u00e8ve"}, "Kerzerslauf": {"latitude": 46.97488999999999, "longitude": 7.1954365, "race": "Kerzerslauf", "date": {"sam. 18.03.2000": {"year": 2000, "day": 18, "month": 3, "categories": {"M55": {"distance": 15, "rank": 160, "pace": 345000000000, "time": 5186.4}}, "weekday": "saturday", "livingplace": "Wiggen"}, "sam. 17.03.2001": {"year": 2001, "day": 17, "month": 3, "categories": {"M55": {"distance": 15, "rank": 178, "pace": 354000000000, "time": 5317.8}}, "weekday": "saturday", "livingplace": "Wiggen"}}, "location": "Kerzers"}}, "birth": 1945}