{"name": "Ahr Volker", "sex": "M", "races": {"SwissCityMarathon - Lucerne, Luzern": {"latitude": 47.05016819999999, "longitude": 8.3093072, "race": "SwissCityMarathon - Lucerne, Luzern", "date": {"dim. 26.10.2014": {"year": 2014, "day": 26, "month": 10, "categories": {"M-M40": {"distance": 42, "rank": 334, "pace": 361000000000, "time": 15253.0}}, "weekday": "sunday", "livingplace": "Wabern"}}, "location": "Luzern"}, "Lausanne Marathon": {"latitude": 46.5196535, "longitude": 6.6322734, "race": "Lausanne Marathon", "date": {"dim. 30.10.2011": {"year": 2011, "day": 30, "month": 10, "categories": {"42-H3": {"distance": 42, "rank": 369, "pace": 395000000000, "time": 16679.3}}, "weekday": "sunday", "livingplace": "Wabern"}, "dim. 28.10.2012": {"year": 2012, "day": 28, "month": 10, "categories": {"42-H3": {"distance": 42, "rank": 332, "pace": 382000000000, "time": 16143.8}}, "weekday": "sunday", "livingplace": "Wabern"}}, "location": "Lausanne"}, "Steinh\u00f6lzlilauf, Liebefeld": {"latitude": 46.933331, "longitude": 7.416668, "race": "Steinh\u00f6lzlilauf, Liebefeld", "date": {"dim. 05.12.2010": {"year": 2010, "day": 5, "month": 12, "categories": {"L_S2M": {"distance": 11, "rank": 38, "pace": 345000000000, "time": 3624.3}}, "weekday": "sunday", "livingplace": "Wabern"}, "dim. 06.12.2009": {"year": 2009, "day": 6, "month": 12, "categories": {"SenIIM": {"distance": 11, "rank": 37, "pace": 293000000000, "time": 3077.8}}, "weekday": "sunday", "livingplace": "Wabern"}}, "location": "Liebefeld"}, "Gurtenclassic, Wabern": {"latitude": 46.92901639999999, "longitude": 7.448973199999999, "race": "Gurtenclassic, Wabern", "date": {"dim. 02.11.2008": {"year": 2008, "day": 2, "month": 11, "categories": {"KM20": {"distance": 8, "rank": 98, "pace": 373000000000, "time": 3137.1}}, "weekday": "sunday", "livingplace": "Wabern"}, "dim. 01.11.2009": {"year": 2009, "day": 1, "month": 11, "categories": {"KM20": {"distance": 8, "rank": 71, "pace": 338000000000, "time": 2847.2}}, "weekday": "sunday", "livingplace": "Wabern"}}, "location": "Wabern"}, "Kerzerslauf": {"latitude": 46.97488999999999, "longitude": 7.1954365, "race": "Kerzerslauf", "date": {"sam. 20.03.2010": {"year": 2010, "day": 20, "month": 3, "categories": {"15-M40": {"distance": 15, "rank": 330, "pace": 298000000000, "time": 4477.5}}, "weekday": "saturday", "livingplace": "Wabern"}}, "location": "Kerzers"}, "Bieler Lauftage, Biel Bienne": {"latitude": 47.1367785, "longitude": 7.2467909, "race": "Bieler Lauftage, Biel Bienne", "date": {"jeu. 11.06.2015": {"year": 2015, "day": 11, "month": 6, "categories": {"TS1-M45": {"distance": 38, "rank": 4, "pace": 456000000000, "time": 17328.7}}, "weekday": "thursday", "livingplace": "Wabern"}}, "location": "Biel/Bienne"}}, "birth": 1966}