{"name": "Akdesir Ezgi", "sex": "F", "races": {"Glacier 3000 Run, Gstaad": {"latitude": 46.4717588, "longitude": 7.2865728, "race": "Glacier 3000 Run, Gstaad", "date": {"sam. 08.08.2015": {"year": 2015, "day": 8, "month": 8, "categories": {"F30": {"distance": 26, "rank": 3, "pace": 450000000000, "time": 11707.6}}, "weekday": "saturday", "livingplace": "Tvl"}}, "location": "Gstaad"}, "SwissCityMarathon - Lucerne, Luzern": {"latitude": 47.05016819999999, "longitude": 8.3093072, "race": "SwissCityMarathon - Lucerne, Luzern", "date": {"dim. 27.10.2013": {"year": 2013, "day": 27, "month": 10, "categories": {"M-F20": {"distance": 42, "rank": 5, "pace": 265000000000, "time": 11186.6}}, "weekday": "sunday", "livingplace": "Bern"}}, "location": "Luzern"}, "ASICS Bremgarter Reusslauf": {"latitude": 47.34917739999999, "longitude": 8.3397905, "race": "ASICS Bremgarter Reusslauf", "date": {"sam. 22.02.2014": {"year": 2014, "day": 22, "month": 2, "categories": {"11-F20": {"distance": 11, "rank": 8, "pace": 231000000000, "time": 2545.7}}, "weekday": "saturday", "livingplace": "Tvl"}}, "location": "Bremgarten AG"}, "Basler Stadtlauf": {"latitude": 47.5595986, "longitude": 7.5885761, "race": "Basler Stadtlauf", "date": {"sam. 29.11.2014": {"year": 2014, "day": 29, "month": 11, "categories": {"F20": {"distance": 6, "rank": 15, "pace": 231000000000, "time": 1271.0}}, "weekday": "saturday", "livingplace": "Bern"}}, "location": "Basel"}, "20km de Lausanne": {"latitude": 46.5196535, "longitude": 6.6322734, "race": "20km de Lausanne", "date": {"sam. 25.04.2015": {"year": 2015, "day": 25, "month": 4, "categories": {"20-F30": {"distance": 20, "rank": 7, "pace": 244000000000, "time": 4892.6}}, "weekday": "saturday", "livingplace": "Bern"}}, "location": "Lausanne"}, "Z\u00fcrcher Silvesterlauf, Z\u00fcrich": {"latitude": 47.3768866, "longitude": 8.541694, "race": "Z\u00fcrcher Silvesterlauf, Z\u00fcrich", "date": {"dim. 14.12.2014": {"year": 2014, "day": 14, "month": 12, "categories": {"10-F20": {"distance": 10, "rank": 7, "pace": 233000000000, "time": 2337.2}}, "weekday": "sunday", "livingplace": "Bern"}}, "location": "Z\u00fcrich"}, "Emmenlauf Utzenstorf": {"latitude": 47.12816670000001, "longitude": 7.5588034, "race": "Emmenlauf Utzenstorf", "date": {"mer. 20.08.2014": {"year": 2014, "day": 20, "month": 8, "categories": {"Damen1": {"distance": 11, "rank": 4, "pace": 235000000000, "time": 2468.0}}, "weekday": "wednesday", "livingplace": "Bern"}}, "location": "Utzenstorf"}, "Z\u00fcrich Marathon, Teamrun und Cityrun": {"latitude": 47.3768866, "longitude": 8.541694, "race": "Z\u00fcrich Marathon, Teamrun und Cityrun", "date": {"dim. 06.04.2014": {"year": 2014, "day": 6, "month": 4, "categories": {"42-W20": {"distance": 42, "rank": 1, "pace": 244000000000, "time": 10301.7}}, "weekday": "sunday", "livingplace": "Bern"}}, "location": "Z\u00fcrich"}, "Derendinger Abendlauf, Derendingen": {"latitude": 47.1952433, "longitude": 7.585593099999999, "race": "Derendinger Abendlauf, Derendingen", "date": {"ven. 27.06.2014": {"year": 2014, "day": 27, "month": 6, "categories": {"10-F20": {"distance": 10, "rank": 2, "pace": 239000000000, "time": 2442.6}}, "weekday": "friday", "livingplace": "Bern"}}, "location": "Derendingen"}, "Zermatt Marathon, Zermatt": {"latitude": NaN, "longitude": NaN, "race": "Zermatt Marathon, Zermatt", "date": {"sam. 04.07.2015": {"year": 2015, "day": 4, "month": 7, "categories": {"M-F30": {"distance": 42, "rank": 17, "pace": 373000000000, "time": 15746.3}}, "weekday": "saturday", "livingplace": "Tvl"}}, "location": "Zermatt"}, "Bieler Lauftage, Biel Bienne": {"latitude": 47.1367785, "longitude": 7.2467909, "race": "Bieler Lauftage, Biel Bienne", "date": {"jeu. 11.06.2015": {"year": 2015, "day": 11, "month": 6, "categories": {"100-W30": {"distance": 100, "rank": 1, "pace": 328000000000, "time": 32835.3}}, "weekday": "thursday", "livingplace": "Bern"}}, "location": "Biel/Bienne"}, "Montreux - Les Rochers de Naye": {"latitude": 46.4312213, "longitude": 6.9106799, "race": "Montreux - Les Rochers de Naye", "date": {"dim. 06.07.2014": {"year": 2014, "day": 6, "month": 7, "categories": {"M-EliteF": {"distance": 19, "rank": 7, "pace": 406000000000, "time": 7648.8}}, "weekday": "sunday", "livingplace": "Bern"}}, "location": "Montreux"}, "Gurtenclassic, Wabern": {"latitude": 46.92901639999999, "longitude": 7.448973199999999, "race": "Gurtenclassic, Wabern", "date": {"dim. 03.11.2013": {"year": 2013, "day": 3, "month": 11, "categories": {"W20": {"distance": 15, "rank": 2, "pace": 279000000000, "time": 4199.3}}, "weekday": "sunday", "livingplace": "Bern"}, "dim. 02.11.2014": {"year": 2014, "day": 2, "month": 11, "categories": {"W20": {"distance": 15, "rank": 1, "pace": 280000000000, "time": 4205.5}}, "weekday": "sunday", "livingplace": "Bern"}}, "location": "Wabern"}, "Kerzerslauf": {"latitude": 46.97488999999999, "longitude": 7.1954365, "race": "Kerzerslauf", "date": {"sam. 21.03.2015": {"year": 2015, "day": 21, "month": 3, "categories": {"15-F20": {"distance": 15, "rank": 17, "pace": 249000000000, "time": 3744.4}}, "weekday": "saturday", "livingplace": "Jegenstorf"}}, "location": "Kerzers"}}, "birth": 1985}