{"name": "Akkaya Ismael", "sex": "M", "races": {"BCN Tour Colombier": {"latitude": 47.1034892, "longitude": 6.832783800000001, "race": "BCN Tour Colombier", "date": {"mer. 16.05.2012": {"year": 2012, "day": 16, "month": 5, "categories": {"HE": {"distance": 11, "rank": 48, "pace": 262000000000, "time": 2837.0}}, "weekday": "wednesday", "livingplace": "Corcelles"}}, "location": "La Chaux-de-Fonds"}, "BCN Tour Couvet": {"latitude": 47.0624261, "longitude": 6.9175754, "race": "BCN Tour Couvet", "date": {"mer. 02.05.2012": {"year": 2012, "day": 2, "month": 5, "categories": {"HE": {"distance": 11, "rank": 44, "pace": 274000000000, "time": 3058.0}}, "weekday": "wednesday", "livingplace": "Corcelles"}}, "location": "Ch\u00e9zard-St-Martin"}, "BCN Tour Cornaux": {"latitude": 46.9668714, "longitude": 6.8589727, "race": "BCN Tour Cornaux", "date": {"mer. 25.04.2012": {"year": 2012, "day": 25, "month": 4, "categories": {"HE": {"distance": 11, "rank": 45, "pace": 294000000000, "time": 3239.4}}, "weekday": "wednesday", "livingplace": "Corcelles"}}, "location": "Colombier NE"}, "BCN Tour Les Ponts-de-Martel": {"latitude": 46.999113, "longitude": 6.733554799999999, "race": "BCN Tour Les Ponts-de-Martel", "date": {"mer. 09.05.2012": {"year": 2012, "day": 9, "month": 5, "categories": {"HE": {"distance": 10, "rank": 56, "pace": 272000000000, "time": 2810.6}}, "weekday": "wednesday", "livingplace": "Corcelles"}}, "location": "Les Ponts-de-Martel"}, "BCN Tour Neuch\u00e2tel": {"latitude": 46.9899874, "longitude": 6.9292732, "race": "BCN Tour Neuch\u00e2tel", "date": {"mer. 30.05.2012": {"year": 2012, "day": 30, "month": 5, "categories": {"HE": {"distance": 11, "rank": 66, "pace": 286000000000, "time": 3212.2}}, "weekday": "wednesday", "livingplace": "Corcelles"}}, "location": "Neuch\u00e2tel"}}, "birth": 1983}