{"name": "Alessandri Sergio", "sex": "M", "races": {"Morat-Fribourg": {"latitude": 46.92922110000001, "longitude": 7.120184, "race": "Morat-Fribourg", "date": {"sam. 05.10.2013": {"year": 2013, "day": 5, "month": 10, "categories": {"17-M50": {"distance": 17, "rank": 53, "pace": 267000000000, "time": 4673.6}}, "weekday": "saturday", "livingplace": "La Chaux de Fonds"}, "sam. 03.10.2009": {"year": 2009, "day": 3, "month": 10, "categories": {"C-M45": {"distance": 17, "rank": 186, "pace": 286000000000, "time": 4916.9}}, "weekday": "saturday", "livingplace": "La Chaux de Fonds"}, "sam. 06.10.2007": {"year": 2007, "day": 6, "month": 10, "categories": {"C/M40": {"distance": 17, "rank": 276, "pace": 286000000000, "time": 4927.4}}, "weekday": "saturday", "livingplace": "La Chaux de Fonds"}}, "location": "Murten"}, "BCN Tour Les Ponts-de-Martel": {"latitude": 46.999113, "longitude": 6.733554799999999, "race": "BCN Tour Les Ponts-de-Martel", "date": {"mer. 09.05.2012": {"year": 2012, "day": 9, "month": 5, "categories": {"HS2": {"distance": 10, "rank": 53, "pace": 271000000000, "time": 2798.0}}, "weekday": "wednesday", "livingplace": "La Chaux de Fonds"}}, "location": "Les Ponts-de-Martel"}, "Corrida Bulloise, Bulle": {"latitude": 46.6154512, "longitude": 7.057726799999999, "race": "Corrida Bulloise, Bulle", "date": {"sam. 16.11.2013": {"year": 2013, "day": 16, "month": 11, "categories": {"M50": {"distance": 8, "rank": 16, "pace": 243000000000, "time": 1983.3}}, "weekday": "saturday", "livingplace": "La Chaux de Fonds"}}, "location": "Bulle"}, "BCN Tour Le Landeron": {"latitude": 46.9668714, "longitude": 6.8589727, "race": "BCN Tour Le Landeron", "date": {"mer. 22.04.2009": {"year": 2009, "day": 22, "month": 4, "categories": {"HS2": {"distance": 11, "rank": 67, "pace": 281000000000, "time": 3124.9}}, "weekday": "wednesday", "livingplace": "La Chaux de Fonds"}}, "location": "Colombier NE"}, "20km de Lausanne": {"latitude": 46.5196535, "longitude": 6.6322734, "race": "20km de Lausanne", "date": {"sam. 24.04.2010": {"year": 2010, "day": 24, "month": 4, "categories": {"20-H45": {"distance": 20, "rank": 92, "pace": 282000000000, "time": 5648.1}}, "weekday": "saturday", "livingplace": "La Chaux de Fonds"}, "sam. 27.04.2013": {"year": 2013, "day": 27, "month": 4, "categories": {"20-H50": {"distance": 20, "rank": 51, "pace": 271000000000, "time": 5433.1}}, "weekday": "saturday", "livingplace": "La Chaux de Fonds"}, "sam. 28.04.2012": {"year": 2012, "day": 28, "month": 4, "categories": {"20-H45": {"distance": 20, "rank": 52, "pace": 267000000000, "time": 5340.9}}, "weekday": "saturday", "livingplace": "La Chaux de Fonds"}, "sam. 26.04.2014": {"year": 2014, "day": 26, "month": 4, "categories": {"10-H50": {"distance": 10, "rank": 7, "pace": 252000000000, "time": 2528.8}}, "weekday": "saturday", "livingplace": "Cross club La Chaux de Fo"}}, "location": "Lausanne"}, "BCN Tour Ponts-de-Martel": {"latitude": 47.0624261, "longitude": 6.9175754, "race": "BCN Tour Ponts-de-Martel", "date": {"mer. 28.04.2010": {"year": 2010, "day": 28, "month": 4, "categories": {"HS2": {"distance": 11, "rank": 82, "pace": 287000000000, "time": 3216.9}}, "weekday": "wednesday", "livingplace": "La Chaux de Fonds"}}, "location": "Ch\u00e9zard-St-Martin"}, "BCN Tour La Chaux-de-Fonds": {"latitude": 46.9262933, "longitude": 6.6324944, "race": "BCN Tour La Chaux-de-Fonds", "date": {"mer. 23.05.2012": {"year": 2012, "day": 23, "month": 5, "categories": {"HS2": {"distance": 11, "rank": 69, "pace": 276000000000, "time": 2986.1}}, "weekday": "wednesday", "livingplace": "La Chaux de Fonds"}}, "location": "Couvet"}, "La Trotteuse-Tissot, La Chaux-de-Fonds": {"latitude": 47.1034892, "longitude": 6.832783800000001, "race": "La Trotteuse-Tissot, La Chaux-de-Fonds", "date": {"sam. 17.12.2011": {"year": 2011, "day": 17, "month": 12, "categories": {"GC-H40": {"distance": 8, "rank": 34, "pace": 268000000000, "time": 2150.2}}, "weekday": "saturday", "livingplace": "Ch"}}, "location": "La Chaux-de-Fonds"}, "BCN Tour Neuch\u00e2tel": {"latitude": 46.9899874, "longitude": 6.9292732, "race": "BCN Tour Neuch\u00e2tel", "date": {"mer. 26.05.2010": {"year": 2010, "day": 26, "month": 5, "categories": {"HS2": {"distance": 10, "rank": 69, "pace": 296000000000, "time": 2880.5}}, "weekday": "wednesday", "livingplace": "La Chaux de Fonds"}, "mer. 30.05.2012": {"year": 2012, "day": 30, "month": 5, "categories": {"HS2": {"distance": 11, "rank": 63, "pace": 287000000000, "time": 3214.5}}, "weekday": "wednesday", "livingplace": "La Chaux de Fonds"}}, "location": "Neuch\u00e2tel"}, "Langenthaler Stadtlauf": {"latitude": 47.2120786, "longitude": 7.790562299999999, "race": "Langenthaler Stadtlauf", "date": {"sam. 23.11.2013": {"year": 2013, "day": 23, "month": 11, "categories": {"M50": {"distance": 8, "rank": 8, "pace": 232000000000, "time": 1744.7}}, "weekday": "saturday", "livingplace": "La Chaux de Fonds"}}, "location": "Langenthal"}, "BCN Tour M\u00f4tier": {"latitude": 46.9262933, "longitude": 6.6324944, "race": "BCN Tour M\u00f4tier", "date": {"mer. 19.05.2010": {"year": 2010, "day": 19, "month": 5, "categories": {"HS2": {"distance": 10, "rank": 61, "pace": 263000000000, "time": 2611.4}}, "weekday": "wednesday", "livingplace": "La Chaux de Fonds"}}, "location": "Couvet"}, "BCN Tour Cornaux": {"latitude": 46.9668714, "longitude": 6.8589727, "race": "BCN Tour Cornaux", "date": {"mer. 25.04.2012": {"year": 2012, "day": 25, "month": 4, "categories": {"HS2": {"distance": 11, "rank": 48, "pace": 293000000000, "time": 3227.8}}, "weekday": "wednesday", "livingplace": "La Chaux de Fonds"}}, "location": "Colombier NE"}, "Course de l'Escalade, Gen\u00e8ve": {"latitude": 46.2043907, "longitude": 6.1431577, "race": "Course de l'Escalade, Gen\u00e8ve", "date": {"sam. 01.12.2012": {"year": 2012, "day": 1, "month": 12, "categories": {"Esc-Hom3": {"distance": 7, "rank": 564, "pace": 296000000000, "time": 2150.9}}, "weekday": "saturday", "livingplace": "La Chaux de Fonds"}}, "location": "Gen\u00e8ve"}, "ASICS Bremgarter Reusslauf": {"latitude": 47.34917739999999, "longitude": 8.3397905, "race": "ASICS Bremgarter Reusslauf", "date": {"sam. 26.02.2011": {"year": 2011, "day": 26, "month": 2, "categories": {"M40": {"distance": 11, "rank": 254, "pace": 258000000000, "time": 2843.6}}, "weekday": "saturday", "livingplace": "La Chaux de Fonds"}}, "location": "Bremgarten AG"}, "Int  Bieler Cross, Biel-Bienne": {"latitude": 47.1367785, "longitude": 7.2467909, "race": "Int  Bieler Cross, Biel-Bienne", "date": {"dim. 14.11.2010": {"year": 2010, "day": 14, "month": 11, "categories": {"M40": {"distance": 6, "rank": 23, "pace": 264000000000, "time": 1695.9}}, "weekday": "sunday", "livingplace": "La Chaux de Fonds"}, "dim. 13.11.2011": {"year": 2011, "day": 13, "month": 11, "categories": {"M40": {"distance": 6, "rank": 12, "pace": 239000000000, "time": 1535.9}}, "weekday": "sunday", "livingplace": "La Chaux de Fonds"}}, "location": "Biel/Bienne"}, "BCN Tour La Chaux-de-fonds": {"latitude": 47.1034892, "longitude": 6.832783800000001, "race": "BCN Tour La Chaux-de-fonds", "date": {"mer. 12.05.2010": {"year": 2010, "day": 12, "month": 5, "categories": {"HS2": {"distance": 11, "rank": 78, "pace": 344000000000, "time": 3689.5}}, "weekday": "wednesday", "livingplace": "La Chaux de Fonds"}}, "location": "La Chaux-de-Fonds"}, "BCN Tour Le Locle": {"latitude": 46.999113, "longitude": 6.733554799999999, "race": "BCN Tour Le Locle", "date": {"mer. 05.05.2010": {"year": 2010, "day": 5, "month": 5, "categories": {"HS2": {"distance": 11, "rank": 59, "pace": 272000000000, "time": 2970.6}}, "weekday": "wednesday", "livingplace": "La Chaux de Fonds"}}, "location": "Les Ponts-de-Martel"}, "BCN Tour Couvet": {"latitude": 47.0624261, "longitude": 6.9175754, "race": "BCN Tour Couvet", "date": {"mer. 02.05.2012": {"year": 2012, "day": 2, "month": 5, "categories": {"HS2": {"distance": 11, "rank": 63, "pace": 276000000000, "time": 3083.8}}, "weekday": "wednesday", "livingplace": "La Chaux de Fonds"}}, "location": "Ch\u00e9zard-St-Martin"}, "Kerzerslauf": {"latitude": 46.97488999999999, "longitude": 7.1954365, "race": "Kerzerslauf", "date": {"sam. 15.03.2014": {"year": 2014, "day": 15, "month": 3, "categories": {"15-M50": {"distance": 15, "rank": 67, "pace": 258000000000, "time": 3883.4}}, "weekday": "saturday", "livingplace": "La Chaux de Fonds"}, "sam. 19.03.2011": {"year": 2011, "day": 19, "month": 3, "categories": {"15-M45": {"distance": 15, "rank": 118, "pace": 260000000000, "time": 3906.6}}, "weekday": "saturday", "livingplace": "La Chaux de Fonds"}, "sam. 21.03.2009": {"year": 2009, "day": 21, "month": 3, "categories": {"15-M45": {"distance": 15, "rank": 176, "pace": 271000000000, "time": 4066.6}}, "weekday": "saturday", "livingplace": "La Chaux de Fonds"}, "sam. 15.03.2008": {"year": 2008, "day": 15, "month": 3, "categories": {"15/M45": {"distance": 15, "rank": 278, "pace": 288000000000, "time": 4329.7}}, "weekday": "saturday", "livingplace": "La Chaux de Fonds"}, "sam. 17.03.2007": {"year": 2007, "day": 17, "month": 3, "categories": {"M40": {"distance": 15, "rank": 292, "pace": 278000000000, "time": 4179.2}}, "weekday": "saturday", "livingplace": "La Chaux de Fonds"}}, "location": "Kerzers"}, "Les Traine-Savates, Cheseaux-sur-Lausanne": {"latitude": 46.585452, "longitude": 6.6047712, "race": "Les Traine-Savates, Cheseaux-sur-Lausanne", "date": {"sam. 13.04.2013": {"year": 2013, "day": 13, "month": 4, "categories": {"10-M50": {"distance": 10, "rank": 52, "pace": 283000000000, "time": 2922.6}}, "weekday": "saturday", "livingplace": "La Chaux de Fonds"}}, "location": "Cheseaux-sur-Lausanne"}, "BCN Tour Les Ponts de Martel": {"latitude": 46.9262933, "longitude": 6.6324944, "race": "BCN Tour Les Ponts de Martel", "date": {"mer. 18.05.2011": {"year": 2011, "day": 18, "month": 5, "categories": {"HS2": {"distance": 13, "rank": 78, "pace": 287000000000, "time": 3679.6}}, "weekday": "wednesday", "livingplace": "La Chaux de Fonds"}}, "location": "Couvet"}, "BCN Tour Boudry": {"latitude": 46.9668714, "longitude": 6.8589727, "race": "BCN Tour Boudry", "date": {"mer. 26.04.2006": {"year": 2006, "day": 26, "month": 4, "categories": {"HE": {"distance": 10, "rank": 108, "pace": 353000000000, "time": 3600.8}}, "weekday": "wednesday", "livingplace": "La Chaux de Fonds"}}, "location": "Colombier NE"}, "D\u00e9fi Val-de-Travers, Couvet": {"latitude": 46.9262933, "longitude": 6.6324944, "race": "D\u00e9fi Val-de-Travers, Couvet", "date": {"sam. 20.06.2009": {"year": 2009, "day": 20, "month": 6, "categories": {"SHS2": {"distance": 20, "rank": 14, "pace": 315000000000, "time": 6207.7}}, "weekday": "saturday", "livingplace": "La Chaux de Fonds"}}, "location": "Couvet"}, "BCN Tour Colombier": {"latitude": 46.9668714, "longitude": 6.8589727, "race": "BCN Tour Colombier", "date": {"mer. 16.05.2012": {"year": 2012, "day": 16, "month": 5, "categories": {"HS2": {"distance": 11, "rank": 51, "pace": 264000000000, "time": 2860.4}}, "weekday": "wednesday", "livingplace": "La Chaux de Fonds"}, "mer. 23.04.2008": {"year": 2008, "day": 23, "month": 4, "categories": {"HS2": {"distance": 10, "rank": 77, "pace": 293000000000, "time": 2998.1}}, "weekday": "wednesday", "livingplace": "La Chaux de Fonds"}, "mer. 21.04.2010": {"year": 2010, "day": 21, "month": 4, "categories": {"HS2": {"distance": 10, "rank": 92, "pace": 308000000000, "time": 3081.2}}, "weekday": "wednesday", "livingplace": "La Chaux de Fonds"}}, "location": "Colombier NE"}}, "birth": 1963}