{"name": "Allemann Jonas", "sex": "M", "races": {"Luzerner Stadtlauf": {"latitude": 47.05016819999999, "longitude": 8.3093072, "race": "Luzerner Stadtlauf", "date": {"sam. 28.04.2007": {"year": 2007, "day": 28, "month": 4, "categories": {"K/35": {"distance": 4, "rank": 10, "pace": 203000000000, "time": 864.7}}, "weekday": "saturday", "livingplace": "Basel"}}, "location": "Luzern"}, "ASICS Bremgarter Reusslauf": {"latitude": 47.34917739999999, "longitude": 8.3397905, "race": "ASICS Bremgarter Reusslauf", "date": {"sam. 17.02.2007": {"year": 2007, "day": 17, "month": 2, "categories": {"33": {"distance": 6, "rank": 1, "pace": 221000000000, "time": 1241.2}}, "weekday": "saturday", "livingplace": "Breitenbach"}, "sam. 23.02.2008": {"year": 2008, "day": 23, "month": 2, "categories": {"33": {"distance": 7, "rank": 2, "pace": 210000000000, "time": 1365.1}}, "weekday": "saturday", "livingplace": "Breitenbach"}}, "location": "Bremgarten AG"}, "Course Titz\u00e9 de no\u00ebl Sion": {"latitude": 46.2331221, "longitude": 7.360625999999999, "race": "Course Titz\u00e9 de no\u00ebl Sion", "date": {"sam. 08.12.2007": {"year": 2007, "day": 8, "month": 12, "categories": {"CMA": {"distance": 4, "rank": 7, "pace": 203000000000, "time": 812.6}}, "weekday": "saturday", "livingplace": "Terra Nova Running Team"}}, "location": "Sion"}, "Birslauf Basel": {"latitude": 47.5595986, "longitude": 7.5885761, "race": "Birslauf Basel", "date": {"sam. 24.03.2007": {"year": 2007, "day": 24, "month": 3, "categories": {"M\u00e4nner": {"distance": 10, "rank": 19, "pace": 220000000000, "time": 2201.5}}, "weekday": "saturday", "livingplace": "Breitenbach"}}, "location": "Basel"}, "Z\u00fcrcher Silvesterlauf, Z\u00fcrich": {"latitude": 47.3768866, "longitude": 8.541694, "race": "Z\u00fcrcher Silvesterlauf, Z\u00fcrich", "date": {"dim. 10.12.2006": {"year": 2006, "day": 10, "month": 12, "categories": {"Knaben A": {"distance": 3, "rank": 3, "pace": 186000000000, "time": 485.2}}, "weekday": "sunday", "livingplace": "Breitenbach"}}, "location": "Z\u00fcrich"}, "Campionati Svizzeri di Cross, Tenero": {"latitude": NaN, "longitude": NaN, "race": "Campionati Svizzeri di Cross, Tenero", "date": {"sam. 08.03.2008": {"year": 2008, "day": 8, "month": 3, "categories": {"U18M": {"distance": 5, "rank": 32, "pace": 217000000000, "time": 1089.3}}, "weekday": "saturday", "livingplace": "Breitenbach"}}, "location": "Tenero"}, "Int Greifenseelauf, Uster": {"latitude": 47.3482747, "longitude": 8.717873899999999, "race": "Int Greifenseelauf, Uster", "date": {"sam. 17.09.2005": {"year": 2005, "day": 17, "month": 9, "categories": {"K/MJA": {"distance": 6, "rank": 5, "pace": 227000000000, "time": 1412.0}}, "weekday": "saturday", "livingplace": "Breitenbach"}, "sam. 20.09.2008": {"year": 2008, "day": 20, "month": 9, "categories": {"K-MJA": {"distance": 10, "rank": 5, "pace": 232000000000, "time": 2328.2}}, "weekday": "saturday", "livingplace": "Breitenbach"}}, "location": "Uster"}}, "birth": 1991}