{"name": "Allemann Mathieu", "sex": "M", "races": {"Groupe E Tour Fribourg #4, Siviriez": {"latitude": 46.6585092, "longitude": 6.877722, "race": "Groupe E Tour Fribourg #4, Siviriez", "date": {"mer. 10.09.2014": {"year": 2014, "day": 10, "month": 9, "categories": {"H-Elite": {"distance": 11, "rank": 25, "pace": 303000000000, "time": 3277.1}}, "weekday": "wednesday", "livingplace": "Broc"}}, "location": "Siviriez"}, "Morat-Fribourg": {"latitude": 46.92922110000001, "longitude": 7.120184, "race": "Morat-Fribourg", "date": {"sam. 03.10.2015": {"year": 2015, "day": 3, "month": 10, "categories": {"17-M20": {"distance": 17, "rank": 239, "pace": 259000000000, "time": 4452.4}}, "weekday": "saturday", "livingplace": "Broc"}, "sam. 04.10.2014": {"year": 2014, "day": 4, "month": 10, "categories": {"17-M20": {"distance": 17, "rank": 341, "pace": 266000000000, "time": 4576.7}}, "weekday": "saturday", "livingplace": "Broc"}}, "location": "Murten"}, "Corrida Bulloise, Bulle": {"latitude": 46.6154512, "longitude": 7.057726799999999, "race": "Corrida Bulloise, Bulle", "date": {"sam. 15.11.2014": {"year": 2014, "day": 15, "month": 11, "categories": {"Pop-Hom": {"distance": 6, "rank": 33, "pace": 233000000000, "time": 1438.0}}, "weekday": "saturday", "livingplace": "Broc"}}, "location": "Bulle"}, "Groupe E Tour Fribourg #2, Charmey": {"latitude": 46.6175845, "longitude": 7.1654493, "race": "Groupe E Tour Fribourg #2, Charmey", "date": {"mer. 27.08.2014": {"year": 2014, "day": 27, "month": 8, "categories": {"H-Elite": {"distance": 10, "rank": 44, "pace": 315000000000, "time": 3047.4}}, "weekday": "wednesday", "livingplace": "Broc"}}, "location": "Charmey (Gruy\u00e8re)"}, "Groupe E Tour Fribourg #3, Kerzers": {"latitude": 46.97488999999999, "longitude": 7.1954365, "race": "Groupe E Tour Fribourg #3, Kerzers", "date": {"mer. 03.09.2014": {"year": 2014, "day": 3, "month": 9, "categories": {"H-Ellite": {"distance": 10, "rank": 22, "pace": 254000000000, "time": 2591.3}}, "weekday": "wednesday", "livingplace": "Broc"}}, "location": "Kerzers"}, "20km de Lausanne": {"latitude": 46.5196535, "longitude": 6.6322734, "race": "20km de Lausanne", "date": {"sam. 25.04.2015": {"year": 2015, "day": 25, "month": 4, "categories": {"10-H20": {"distance": 10, "rank": 65, "pace": 241000000000, "time": 2418.3}}, "weekday": "saturday", "livingplace": "Rlfs"}}, "location": "Lausanne"}, "Groupe E Tour Fribourg #5, Givisiez": {"latitude": 46.8128615, "longitude": 7.131657799999999, "race": "Groupe E Tour Fribourg #5, Givisiez", "date": {"mer. 17.09.2014": {"year": 2014, "day": 17, "month": 9, "categories": {"H-Elite": {"distance": 10, "rank": 22, "pace": 269000000000, "time": 2763.6}}, "weekday": "wednesday", "livingplace": "Broc"}}, "location": "Givisiez"}, "Groupe E Tour Fribourg #1, Cousset": {"latitude": 46.81832, "longitude": 6.977279999999999, "race": "Groupe E Tour Fribourg #1, Cousset", "date": {"mer. 20.08.2014": {"year": 2014, "day": 20, "month": 8, "categories": {"H-Elite": {"distance": 9, "rank": 31, "pace": 275000000000, "time": 2592.5}}, "weekday": "wednesday", "livingplace": "Broc"}}, "location": "Cousset"}}, "birth": 1989}