{"name": "Allenspach Nadine", "sex": "F", "races": {"Luzerner Stadtlauf": {"latitude": 47.05016819999999, "longitude": 8.3093072, "race": "Luzerner Stadtlauf", "date": {"sam. 25.04.2015": {"year": 2015, "day": 25, "month": 4, "categories": {"K-26": {"distance": 4, "rank": 6, "pace": 229000000000, "time": 887.6}}, "weekday": "saturday", "livingplace": "Winterthur"}}, "location": "Luzern"}, "SwissCityMarathon - Lucerne, Luzern": {"latitude": 47.05016819999999, "longitude": 8.3093072, "race": "SwissCityMarathon - Lucerne, Luzern", "date": {"dim. 26.10.2014": {"year": 2014, "day": 26, "month": 10, "categories": {"H-F20": {"distance": 21, "rank": 7, "pace": 261000000000, "time": 5508.8}}, "weekday": "sunday", "livingplace": "Winterthur"}}, "location": "Luzern"}, "ASICS Bremgarter Reusslauf": {"latitude": 47.34917739999999, "longitude": 8.3397905, "race": "ASICS Bremgarter Reusslauf", "date": {"sam. 28.02.2015": {"year": 2015, "day": 28, "month": 2, "categories": {"11-F30": {"distance": 11, "rank": 12, "pace": 244000000000, "time": 2693.1}}, "weekday": "saturday", "livingplace": "Winterthur"}}, "location": "Bremgarten AG"}, "Rheinfall-Lauf, Neuhausen": {"latitude": 47.6837423, "longitude": 8.6126098, "race": "Rheinfall-Lauf, Neuhausen", "date": {"dim. 18.08.2013": {"year": 2013, "day": 18, "month": 8, "categories": {"R-W20": {"distance": 7, "rank": 2, "pace": 243000000000, "time": 1705.4}}, "weekday": "sunday", "livingplace": "Winterthur"}}, "location": "Neuhausen am Rheinfall"}, "Z\u00fcrcher Silvesterlauf, Z\u00fcrich": {"latitude": 47.3768866, "longitude": 8.541694, "race": "Z\u00fcrcher Silvesterlauf, Z\u00fcrich", "date": {"dim. 15.12.2013": {"year": 2013, "day": 15, "month": 12, "categories": {"10-F20": {"distance": 10, "rank": 19, "pace": 247000000000, "time": 2478.0}}, "weekday": "sunday", "livingplace": "Winterthur"}, "dim. 16.12.2012": {"year": 2012, "day": 16, "month": 12, "categories": {"8-DaHK": {"distance": 9, "rank": 37, "pace": 275000000000, "time": 2372.8}}, "weekday": "sunday", "livingplace": "Winterthur"}}, "location": "Z\u00fcrich"}, "Schweizer Frauenlauf Bern": {"latitude": 46.9479739, "longitude": 7.4474468, "race": "Schweizer Frauenlauf Bern", "date": {"dim. 10.06.2012": {"year": 2012, "day": 10, "month": 6, "categories": {"5-W20": {"distance": 5, "rank": 64, "pace": 283000000000, "time": 1419.7}}, "weekday": "sunday", "livingplace": "Zurich"}, "dim. 09.06.2013": {"year": 2013, "day": 9, "month": 6, "categories": {"5-W20": {"distance": 5, "rank": 19, "pace": 256000000000, "time": 1281.8}}, "weekday": "sunday", "livingplace": "Winterthur"}}, "location": "Bern"}, "Winterthur Marathon": {"latitude": 39.8088766, "longitude": -75.6037351, "race": "Winterthur Marathon", "date": {"dim. 01.06.2014": {"year": 2014, "day": 1, "month": 6, "categories": {"10-F20": {"distance": 10, "rank": 1, "pace": 246000000000, "time": 2460.0}}, "weekday": "sunday", "livingplace": "Winterthur"}, "dim. 26.05.2013": {"year": 2013, "day": 26, "month": 5, "categories": {"10-F20": {"distance": 10, "rank": 2, "pace": 271000000000, "time": 2712.1}}, "weekday": "sunday", "livingplace": "Winterthur"}}, "location": "Winterthur"}, "Z\u00fcrich Marathon, Teamrun und Cityrun": {"latitude": 47.3768866, "longitude": 8.541694, "race": "Z\u00fcrich Marathon, Teamrun und Cityrun", "date": {"dim. 07.04.2013": {"year": 2013, "day": 7, "month": 4, "categories": {"10-W20": {"distance": 10, "rank": 8, "pace": 271000000000, "time": 2715.3}}, "weekday": "sunday", "livingplace": "Winterthur"}}, "location": "Z\u00fcrich"}}, "birth": 1985}