{"name": "Alvarez Dominique", "sex": "M", "races": {"20km de Lausanne": {"latitude": 46.5196535, "longitude": 6.6322734, "race": "20km de Lausanne", "date": {"sam. 30.04.2011": {"year": 2011, "day": 30, "month": 4, "categories": {"10-H30": {"distance": 10, "rank": 221, "pace": 282000000000, "time": 2829.1}}, "weekday": "saturday", "livingplace": "Orion renforcee III"}, "sam. 25.04.2009": {"year": 2009, "day": 25, "month": 4, "categories": {"10-H30": {"distance": 10, "rank": 113, "pace": 267000000000, "time": 2677.5}}, "weekday": "saturday", "livingplace": "Orion renforcee"}, "sam. 28.04.2007": {"year": 2007, "day": 28, "month": 4, "categories": {"20H20": {"distance": 20, "rank": 218, "pace": 316000000000, "time": 6332.8}}, "weekday": "saturday", "livingplace": "Blonay"}}, "location": "Lausanne"}, "BCN Tour Couvet": {"latitude": 47.0624261, "longitude": 6.9175754, "race": "BCN Tour Couvet", "date": {"mer. 02.05.2012": {"year": 2012, "day": 2, "month": 5, "categories": {"HS1": {"distance": 11, "rank": 120, "pace": 302000000000, "time": 3378.2}}, "weekday": "wednesday", "livingplace": "St Legier"}}, "location": "Ch\u00e9zard-St-Martin"}, "Morat-Fribourg": {"latitude": 46.92922110000001, "longitude": 7.120184, "race": "Morat-Fribourg", "date": {"sam. 02.10.2010": {"year": 2010, "day": 2, "month": 10, "categories": {"17-M20": {"distance": 17, "rank": 1059, "pace": 309000000000, "time": 5320.6}}, "weekday": "saturday", "livingplace": "St Legier"}}, "location": "Murten"}, "BCN Tour Cornaux": {"latitude": 46.9668714, "longitude": 6.8589727, "race": "BCN Tour Cornaux", "date": {"mer. 25.04.2012": {"year": 2012, "day": 25, "month": 4, "categories": {"HS1": {"distance": 11, "rank": 141, "pace": 343000000000, "time": 3781.3}}, "weekday": "wednesday", "livingplace": "St Legier"}}, "location": "Colombier NE"}, "BCN Tour Colombier": {"latitude": 47.1034892, "longitude": 6.832783800000001, "race": "BCN Tour Colombier", "date": {"mer. 16.05.2012": {"year": 2012, "day": 16, "month": 5, "categories": {"HS1": {"distance": 11, "rank": 135, "pace": 299000000000, "time": 3234.5}}, "weekday": "wednesday", "livingplace": "St Legier"}}, "location": "La Chaux-de-Fonds"}}, "birth": 1979}