{"name": "Alvarez Vanessa", "sex": "F", "races": {"Tour du Chablais #1 Martigny": {"latitude": 46.2957462, "longitude": 6.9916269, "race": "Tour du Chablais #1 Martigny", "date": {"mer. 23.04.2014": {"year": 2014, "day": 23, "month": 4, "categories": {"F-F20": {"distance": 9, "rank": 54, "pace": 302000000000, "time": 2569.3}}, "weekday": "wednesday", "livingplace": "Pully"}}, "location": "Ollon VD"}, "Tour du Pays de Vaud #1, Penthaz": {"latitude": 46.5993131, "longitude": 6.539251200000001, "race": "Tour du Pays de Vaud #1, Penthaz", "date": {"mer. 13.08.2014": {"year": 2014, "day": 13, "month": 8, "categories": {"D-Dam": {"distance": 9, "rank": 7, "pace": 288000000000, "time": 2464.6}}, "weekday": "wednesday", "livingplace": "Pully"}}, "location": "Penthaz"}, "Morat-Fribourg": {"latitude": 46.92922110000001, "longitude": 7.120184, "race": "Morat-Fribourg", "date": {"sam. 03.10.2015": {"year": 2015, "day": 3, "month": 10, "categories": {"17-W20": {"distance": 17, "rank": 164, "pace": 326000000000, "time": 5605.9}}, "weekday": "saturday", "livingplace": "Pully"}}, "location": "Murten"}, "Semi-Marathon de la C\u00f4te, Allaman-Nyon": {"latitude": 46.3832683, "longitude": 6.2347852, "race": "Semi-Marathon de la C\u00f4te, Allaman-Nyon", "date": {"dim. 14.09.2014": {"year": 2014, "day": 14, "month": 9, "categories": {"21-F20": {"distance": 21, "rank": 17, "pace": 313000000000, "time": 6608.3}}, "weekday": "sunday", "livingplace": "Pully"}}, "location": "Nyon"}, "Tour du Pays de Vaud #2, Mezi\u00e8res": {"latitude": 46.5955273, "longitude": 6.7702883, "race": "Tour du Pays de Vaud #2, Mezi\u00e8res", "date": {"mer. 20.08.2014": {"year": 2014, "day": 20, "month": 8, "categories": {"D-Dam": {"distance": 8, "rank": 8, "pace": 318000000000, "time": 2576.0}}, "weekday": "wednesday", "livingplace": "Pully"}}, "location": "M\u00e9zi\u00e8res VD"}, "20km de Lausanne": {"latitude": 46.5196535, "longitude": 6.6322734, "race": "20km de Lausanne", "date": {"sam. 25.04.2015": {"year": 2015, "day": 25, "month": 4, "categories": {"10-F30": {"distance": 10, "rank": 71, "pace": 299000000000, "time": 2990.9}}, "weekday": "saturday", "livingplace": "Pully"}, "sam. 28.04.2012": {"year": 2012, "day": 28, "month": 4, "categories": {"10-F20": {"distance": 10, "rank": 314, "pace": 356000000000, "time": 3560.9}}, "weekday": "saturday", "livingplace": "Lutry"}, "sam. 26.04.2014": {"year": 2014, "day": 26, "month": 4, "categories": {"10-F20": {"distance": 10, "rank": 113, "pace": 312000000000, "time": 3120.5}}, "weekday": "saturday", "livingplace": "Pully"}}, "location": "Lausanne"}, "Tour du Pays de Vaud #4, La Sarraz": {"latitude": 46.7088129, "longitude": 6.5707689, "race": "Tour du Pays de Vaud #4, La Sarraz", "date": {"mer. 03.09.2014": {"year": 2014, "day": 3, "month": 9, "categories": {"D-Dam": {"distance": 9, "rank": 10, "pace": 295000000000, "time": 2511.1}}, "weekday": "wednesday", "livingplace": "Pully"}}, "location": "Chavornay"}, "Tour du Pays de Vaud #3, Chavornay": {"latitude": 46.7784736, "longitude": 6.641183, "race": "Tour du Pays de Vaud #3, Chavornay", "date": {"mer. 27.08.2014": {"year": 2014, "day": 27, "month": 8, "categories": {"D-Dam": {"distance": 9, "rank": 10, "pace": 307000000000, "time": 2646.9}}, "weekday": "wednesday", "livingplace": "Pully"}}, "location": "Yverdon-les-Bains"}}, "birth": 1985}