{"name": "Amiet Pascal", "sex": "M", "races": {"Groupe E Tour Fribourg #1 Gurmels": {"latitude": 46.81832, "longitude": 6.977279999999999, "race": "Groupe E Tour Fribourg #1 Gurmels", "date": {"mer. 29.08.2012": {"year": 2012, "day": 29, "month": 8, "categories": {"HE": {"distance": 8, "rank": 33, "pace": 367000000000, "time": 3090.6}}, "weekday": "wednesday", "livingplace": "Mur Vully"}}, "location": "Cousset"}, "Morat-Fribourg": {"latitude": 46.92922110000001, "longitude": 7.120184, "race": "Morat-Fribourg", "date": {"sam. 06.10.2012": {"year": 2012, "day": 6, "month": 10, "categories": {"17-M20": {"distance": 17, "rank": 1450, "pace": 328000000000, "time": 5738.2}}, "weekday": "saturday", "livingplace": "Mur Vully"}, "sam. 04.10.2014": {"year": 2014, "day": 4, "month": 10, "categories": {"17-M20": {"distance": 17, "rank": 1806, "pace": 347000000000, "time": 5969.7}}, "weekday": "saturday", "livingplace": "Mur Vully"}}, "location": "Murten"}, "Groupe E Tour Fribourg #5 Fribourg": {"latitude": 46.8128615, "longitude": 7.131657799999999, "race": "Groupe E Tour Fribourg #5 Fribourg", "date": {"mer. 26.09.2012": {"year": 2012, "day": 26, "month": 9, "categories": {"HE": {"distance": 11, "rank": 32, "pace": 317000000000, "time": 3392.2}}, "weekday": "wednesday", "livingplace": "Mur Vully"}}, "location": "Givisiez"}, "Groupe E Tour Fribourg #3 Estavayer-le-Lac": {"latitude": 46.97488999999999, "longitude": 7.1954365, "race": "Groupe E Tour Fribourg #3 Estavayer-le-Lac", "date": {"mer. 12.09.2012": {"year": 2012, "day": 12, "month": 9, "categories": {"HE": {"distance": 10, "rank": 32, "pace": 303000000000, "time": 2995.3}}, "weekday": "wednesday", "livingplace": "Mur Vully"}}, "location": "Kerzers"}, "20km de Lausanne": {"latitude": 46.5196535, "longitude": 6.6322734, "race": "20km de Lausanne", "date": {"sam. 24.04.2010": {"year": 2010, "day": 24, "month": 4, "categories": {"20-H20": {"distance": 20, "rank": 350, "pace": 330000000000, "time": 6601.6}}, "weekday": "saturday", "livingplace": "Puidoux Gare"}}, "location": "Lausanne"}, "Groupe E Tour Fribourg #2 Plafayon": {"latitude": 46.6175845, "longitude": 7.1654493, "race": "Groupe E Tour Fribourg #2 Plafayon", "date": {"mer. 05.09.2012": {"year": 2012, "day": 5, "month": 9, "categories": {"HE": {"distance": 9, "rank": 21, "pace": 309000000000, "time": 2891.3}}, "weekday": "wednesday", "livingplace": "Mur Vully"}}, "location": "Charmey (Gruy\u00e8re)"}, "Groupe E Tour Fribourg #4 Siviriez": {"latitude": 46.6585092, "longitude": 6.877722, "race": "Groupe E Tour Fribourg #4 Siviriez", "date": {"mer. 19.09.2012": {"year": 2012, "day": 19, "month": 9, "categories": {"HE": {"distance": 9, "rank": 28, "pace": 316000000000, "time": 2979.7}}, "weekday": "wednesday", "livingplace": "Mur Vully"}}, "location": "Siviriez"}, "Kerzerslauf": {"latitude": 46.97488999999999, "longitude": 7.1954365, "race": "Kerzerslauf", "date": {"sam. 19.03.2011": {"year": 2011, "day": 19, "month": 3, "categories": {"15-M20": {"distance": 15, "rank": 449, "pace": 329000000000, "time": 4949.5}}, "weekday": "saturday", "livingplace": "Mur Vully"}}, "location": "Kerzers"}}, "birth": 1991}