{"name": "Amrein Ivo", "sex": "M", "races": {"crossrun, Therwil": {"latitude": 47.4990611, "longitude": 7.5532808, "race": "crossrun, Therwil", "date": {"dim. 31.08.2014": {"year": 2014, "day": 31, "month": 8, "categories": {"M30": {"distance": 10, "rank": 7, "pace": 250000000000, "time": 2508.2}}, "weekday": "sunday", "livingplace": "Muttenz"}}, "location": "Therwil"}, "SwissCityMarathon - Lucerne, Luzern": {"latitude": 47.05016819999999, "longitude": 8.3093072, "race": "SwissCityMarathon - Lucerne, Luzern", "date": {"dim. 27.10.2013": {"year": 2013, "day": 27, "month": 10, "categories": {"M-M30": {"distance": 42, "rank": 35, "pace": 267000000000, "time": 11290.5}}, "weekday": "sunday", "livingplace": "Muttenz"}}, "location": "Luzern"}, "ASICS Bremgarter Reusslauf": {"latitude": 47.34917739999999, "longitude": 8.3397905, "race": "ASICS Bremgarter Reusslauf", "date": {"sam. 23.02.2013": {"year": 2013, "day": 23, "month": 2, "categories": {"11-M30": {"distance": 11, "rank": 125, "pace": 251000000000, "time": 2766.4}}, "weekday": "saturday", "livingplace": "Muttenz"}, "sam. 22.02.2014": {"year": 2014, "day": 22, "month": 2, "categories": {"11-M30": {"distance": 11, "rank": 97, "pace": 236000000000, "time": 2601.1}}, "weekday": "saturday", "livingplace": "Lsvb"}}, "location": "Bremgarten AG"}, "Basler Stadtlauf": {"latitude": 47.5595986, "longitude": 7.5885761, "race": "Basler Stadtlauf", "date": {"sam. 30.11.2013": {"year": 2013, "day": 30, "month": 11, "categories": {"M35": {"distance": 6, "rank": 18, "pace": 218000000000, "time": 1199.4}}, "weekday": "saturday", "livingplace": "Muttenz"}, "sam. 27.11.2010": {"year": 2010, "day": 27, "month": 11, "categories": {"N": {"distance": 6, "rank": 235, "pace": 300000000000, "time": 1652.2}}, "weekday": "saturday", "livingplace": "Basel"}, "sam. 24.11.2012": {"year": 2012, "day": 24, "month": 11, "categories": {"M35": {"distance": 6, "rank": 43, "pace": 233000000000, "time": 1284.1}}, "weekday": "saturday", "livingplace": "Muttenz"}}, "location": "Basel"}, "Dreil\u00e4nder-Lauf, Basel": {"latitude": 47.5595986, "longitude": 7.5885761, "race": "Dreil\u00e4nder-Lauf, Basel", "date": {"dim. 22.05.2011": {"year": 2011, "day": 22, "month": 5, "categories": {"21M30": {"distance": 21, "rank": 83, "pace": 310000000000, "time": 6562.0}}, "weekday": "sunday", "livingplace": "Basel"}, "dim. 20.05.2012": {"year": 2012, "day": 20, "month": 5, "categories": {"21M30": {"distance": 21, "rank": 30, "pace": 280000000000, "time": 5910.1}}, "weekday": "sunday", "livingplace": "Muttenz"}}, "location": "Basel"}, "Winterthur Marathon": {"latitude": 39.8088766, "longitude": -75.6037351, "race": "Winterthur Marathon", "date": {"dim. 06.05.2012": {"year": 2012, "day": 6, "month": 5, "categories": {"10-M30": {"distance": 10, "rank": 8, "pace": 259000000000, "time": 2593.8}}, "weekday": "sunday", "livingplace": "Muttenz"}}, "location": "Winterthur"}, "Burgdorfer Stadtlauf, Burgdorf": {"latitude": 45.277123, "longitude": -115.9129022, "race": "Burgdorfer Stadtlauf, Burgdorf", "date": {"sam. 13.09.2014": {"year": 2014, "day": 13, "month": 9, "categories": {"10-M30": {"distance": 10, "rank": 9, "pace": 247000000000, "time": 2474.5}}, "weekday": "saturday", "livingplace": "Basel"}}, "location": "Burgdorf"}, "Brienzerseelauf, B\u00f6nigen": {"latitude": NaN, "longitude": NaN, "race": "Brienzerseelauf, B\u00f6nigen", "date": {"sam. 10.10.2015": {"year": 2015, "day": 10, "month": 10, "categories": {"1-M20": {"distance": 35, "rank": 7, "pace": 267000000000, "time": 9368.0}}, "weekday": "saturday", "livingplace": "Basel"}}, "location": "B\u00f6nigen b. Interlaken"}, "IWB Basel Marathon": {"latitude": 47.5595986, "longitude": 7.5885761, "race": "IWB Basel Marathon", "date": {"dim. 11.09.2011": {"year": 2011, "day": 11, "month": 9, "categories": {"M-42-M30": {"distance": 42, "rank": 76, "pace": 378000000000, "time": 15974.4}}, "weekday": "sunday", "livingplace": "Basel"}, "dim. 23.09.2012": {"year": 2012, "day": 23, "month": 9, "categories": {"M-42-M30": {"distance": 42, "rank": 29, "pace": 307000000000, "time": 12968.4}}, "weekday": "sunday", "livingplace": "Muttenz"}}, "location": "Basel"}, "Birslauf Basel": {"latitude": 47.5595986, "longitude": 7.5885761, "race": "Birslauf Basel", "date": {"sam. 06.04.2013": {"year": 2013, "day": 6, "month": 4, "categories": {"M\u00e4nner": {"distance": 10, "rank": 82, "pace": 242000000000, "time": 2427.5}}, "weekday": "saturday", "livingplace": "Muttenz"}}, "location": "Basel"}, "Eiger Ultra Trail, Grindelwald": {"latitude": 46.624164, "longitude": 8.0413962, "race": "Eiger Ultra Trail, Grindelwald", "date": {"sam. 18.07.2015": {"year": 2015, "day": 18, "month": 7, "categories": {"A-H": {"distance": 101, "rank": 93, "pace": 720000000000, "time": 72739.3}}, "weekday": "saturday", "livingplace": "Muttenz"}}, "location": "Grindelwald"}, "Basel City Marathon": {"latitude": 47.5595986, "longitude": 7.5885761, "race": "Basel City Marathon", "date": {"dim. 03.09.2006": {"year": 2006, "day": 3, "month": 9, "categories": {"H-M30": {"distance": 21, "rank": 116, "pace": 314000000000, "time": 6634.7}}, "weekday": "sunday", "livingplace": "Basel"}}, "location": "Basel"}, "Kerzerslauf": {"latitude": 46.97488999999999, "longitude": 7.1954365, "race": "Kerzerslauf", "date": {"sam. 21.03.2015": {"year": 2015, "day": 21, "month": 3, "categories": {"15-M35": {"distance": 15, "rank": 391, "pace": 392000000000, "time": 5888.1}}, "weekday": "saturday", "livingplace": "Muttenz"}, "sam. 17.03.2012": {"year": 2012, "day": 17, "month": 3, "categories": {"15-M35": {"distance": 15, "rank": 141, "pace": 273000000000, "time": 4107.9}}, "weekday": "saturday", "livingplace": "Muttenz"}, "sam. 16.03.2013": {"year": 2013, "day": 16, "month": 3, "categories": {"15-M35": {"distance": 15, "rank": 63, "pace": 249000000000, "time": 3735.1}}, "weekday": "saturday", "livingplace": "Muttenz"}}, "location": "Kerzers"}}, "birth": 1976}