{"name": "Amrein Alfred", "sex": "M", "races": {"ASICS Bremgarter Reusslauf": {"latitude": 47.34917739999999, "longitude": 8.3397905, "race": "ASICS Bremgarter Reusslauf", "date": {"sam. 22.02.2014": {"year": 2014, "day": 22, "month": 2, "categories": {"11-M50": {"distance": 11, "rank": 460, "pace": 372000000000, "time": 4101.5}}, "weekday": "saturday", "livingplace": "Stettlen"}}, "location": "Bremgarten AG"}, "Ch\u00e4sitzerlouf, Kehrsatz": {"latitude": NaN, "longitude": NaN, "race": "Ch\u00e4sitzerlouf, Kehrsatz", "date": {"sam. 28.04.2012": {"year": 2012, "day": 28, "month": 4, "categories": {"12-M50": {"distance": 12, "rank": 99, "pace": 404000000000, "time": 4852.1}}, "weekday": "saturday", "livingplace": "Stettlen"}, "sam. 26.04.2014": {"year": 2014, "day": 26, "month": 4, "categories": {"12-M50": {"distance": 12, "rank": 123, "pace": 365000000000, "time": 4386.8}}, "weekday": "saturday", "livingplace": "Stettlen"}, "sam. 04.05.2013": {"year": 2013, "day": 4, "month": 5, "categories": {"12-M50": {"distance": 12, "rank": 113, "pace": 340000000000, "time": 4088.7}}, "weekday": "saturday", "livingplace": "Stettlen"}}, "location": "Kehrsatz"}, "Badener Limmat-Lauf, Baden": {"latitude": 48.5699281, "longitude": 8.5303972, "race": "Badener Limmat-Lauf, Baden", "date": {"sam. 29.03.2014": {"year": 2014, "day": 29, "month": 3, "categories": {"M50": {"distance": 13, "rank": 164, "pace": 357000000000, "time": 4702.3}}, "weekday": "saturday", "livingplace": "Stettlen"}}, "location": "Baden"}, "Steinh\u00f6lzlilauf, Liebefeld": {"latitude": 46.933331, "longitude": 7.416668, "race": "Steinh\u00f6lzlilauf, Liebefeld", "date": {"dim. 04.12.2011": {"year": 2011, "day": 4, "month": 12, "categories": {"K-M2": {"distance": 4, "rank": 12, "pace": 361000000000, "time": 1589.7}}, "weekday": "sunday", "livingplace": "Stettlen"}}, "location": "Liebefeld"}, "Gurtenclassic, Wabern": {"latitude": 46.92901639999999, "longitude": 7.448973199999999, "race": "Gurtenclassic, Wabern", "date": {"dim. 03.11.2013": {"year": 2013, "day": 3, "month": 11, "categories": {"M50": {"distance": 15, "rank": 71, "pace": 385000000000, "time": 5779.4}}, "weekday": "sunday", "livingplace": "Stettlen"}}, "location": "Wabern"}, "Kerzerslauf": {"latitude": 46.97488999999999, "longitude": 7.1954365, "race": "Kerzerslauf", "date": {"sam. 17.03.2012": {"year": 2012, "day": 17, "month": 3, "categories": {"5-M20": {"distance": 5, "rank": 181, "pace": 366000000000, "time": 1832.5}}, "weekday": "saturday", "livingplace": "Stettlen"}}, "location": "Kerzers"}, "Emmenlauf Utzenstorf": {"latitude": 47.12816670000001, "longitude": 7.5588034, "race": "Emmenlauf Utzenstorf", "date": {"mer. 21.08.2013": {"year": 2013, "day": 21, "month": 8, "categories": {"Herren4": {"distance": 11, "rank": 60, "pace": 335000000000, "time": 3522.1}}, "weekday": "wednesday", "livingplace": "Stettlen"}}, "location": "Utzenstorf"}}, "birth": 1959}