{"name": "Amstutz Sylvain", "sex": "M", "races": {"BCN Tour Couvet": {"latitude": 47.0624261, "longitude": 6.9175754, "race": "BCN Tour Couvet", "date": {"mer. 02.05.2012": {"year": 2012, "day": 2, "month": 5, "categories": {"HE": {"distance": 11, "rank": 7, "pace": 237000000000, "time": 2648.3}}, "weekday": "wednesday", "livingplace": "Les Sagnettes"}}, "location": "Ch\u00e9zard-St-Martin"}, "Morat-Fribourg": {"latitude": 46.92922110000001, "longitude": 7.120184, "race": "Morat-Fribourg", "date": {"sam. 03.10.2009": {"year": 2009, "day": 3, "month": 10, "categories": {"C-JunH": {"distance": 17, "rank": 3, "pace": 236000000000, "time": 4060.7}}, "weekday": "saturday", "livingplace": "Les Sagnettes"}, "sam. 01.10.2011": {"year": 2011, "day": 1, "month": 10, "categories": {"17-M20": {"distance": 17, "rank": 145, "pace": 246000000000, "time": 4227.9}}, "weekday": "saturday", "livingplace": "Les Sagnettes"}, "sam. 02.10.2010": {"year": 2010, "day": 2, "month": 10, "categories": {"17-JunH": {"distance": 17, "rank": 4, "pace": 241000000000, "time": 4147.2}}, "weekday": "saturday", "livingplace": "Les Sagnettes"}}, "location": "Murten"}, "BCN Tour La Br\u00e9vine": {"latitude": 46.999113, "longitude": 6.733554799999999, "race": "BCN Tour La Br\u00e9vine", "date": {"mer. 04.05.2011": {"year": 2011, "day": 4, "month": 5, "categories": {"HE": {"distance": 10, "rank": 4, "pace": 232000000000, "time": 2324.8}}, "weekday": "wednesday", "livingplace": "Les Sagnettes"}}, "location": "Les Ponts-de-Martel"}, "BCN Tour Fontaine Cernier": {"latitude": 47.0624261, "longitude": 6.9175754, "race": "BCN Tour Fontaine Cernier", "date": {"mer. 27.04.2011": {"year": 2011, "day": 27, "month": 4, "categories": {"HE": {"distance": 10, "rank": 6, "pace": 222000000000, "time": 2290.4}}, "weekday": "wednesday", "livingplace": "Les Sagnettes"}}, "location": "Ch\u00e9zard-St-Martin"}, "BCN Tour Le Landeron": {"latitude": 46.9668714, "longitude": 6.8589727, "race": "BCN Tour Le Landeron", "date": {"mer. 22.04.2009": {"year": 2009, "day": 22, "month": 4, "categories": {"HJ": {"distance": 11, "rank": 1, "pace": 244000000000, "time": 2712.3}}, "weekday": "wednesday", "livingplace": "L'Ile aux Fleurs"}}, "location": "Colombier NE"}, "BCN Tour Cornaux": {"latitude": 46.9668714, "longitude": 6.8589727, "race": "BCN Tour Cornaux", "date": {"mer. 25.04.2012": {"year": 2012, "day": 25, "month": 4, "categories": {"HE": {"distance": 11, "rank": 10, "pace": 251000000000, "time": 2763.5}}, "weekday": "wednesday", "livingplace": "Les Sagnettes"}}, "location": "Colombier NE"}, "BCN Tour Le Locle": {"latitude": 46.999113, "longitude": 6.733554799999999, "race": "BCN Tour Le Locle", "date": {"mer. 05.05.2010": {"year": 2010, "day": 5, "month": 5, "categories": {"HJ": {"distance": 11, "rank": 2, "pace": 230000000000, "time": 2510.2}}, "weekday": "wednesday", "livingplace": "Les Sagnettes"}}, "location": "Les Ponts-de-Martel"}, "BCN Tour Neuch\u00e2tel": {"latitude": 46.9899874, "longitude": 6.9292732, "race": "BCN Tour Neuch\u00e2tel", "date": {"mer. 26.05.2010": {"year": 2010, "day": 26, "month": 5, "categories": {"HJ": {"distance": 10, "rank": 2, "pace": 243000000000, "time": 2366.2}}, "weekday": "wednesday", "livingplace": "Les Sagnettes"}, "mer. 30.05.2012": {"year": 2012, "day": 30, "month": 5, "categories": {"HE": {"distance": 11, "rank": 13, "pace": 242000000000, "time": 2720.6}}, "weekday": "wednesday", "livingplace": "Les Sagnettes"}, "mer. 25.05.2011": {"year": 2011, "day": 25, "month": 5, "categories": {"HE": {"distance": 11, "rank": 5, "pace": 236000000000, "time": 2692.2}}, "weekday": "wednesday", "livingplace": "Les Sagnettes"}}, "location": "Neuch\u00e2tel"}, "BCN Tour Auvernier": {"latitude": 46.9668714, "longitude": 6.8589727, "race": "BCN Tour Auvernier", "date": {"mer. 20.04.2011": {"year": 2011, "day": 20, "month": 4, "categories": {"HE": {"distance": 11, "rank": 5, "pace": 234000000000, "time": 2537.5}}, "weekday": "wednesday", "livingplace": "Les Sagnettes"}}, "location": "Colombier NE"}, "BCN Tour Colombier": {"latitude": 46.9668714, "longitude": 6.8589727, "race": "BCN Tour Colombier", "date": {"mer. 16.05.2012": {"year": 2012, "day": 16, "month": 5, "categories": {"HE": {"distance": 11, "rank": 9, "pace": 231000000000, "time": 2496.4}}, "weekday": "wednesday", "livingplace": "Les Sagnettes"}, "mer. 23.04.2008": {"year": 2008, "day": 23, "month": 4, "categories": {"HJ": {"distance": 10, "rank": 4, "pace": 248000000000, "time": 2536.5}}, "weekday": "wednesday", "livingplace": "Ch"}, "mer. 21.04.2010": {"year": 2010, "day": 21, "month": 4, "categories": {"HJ": {"distance": 10, "rank": 1, "pace": 254000000000, "time": 2549.7}}, "weekday": "wednesday", "livingplace": "Les Sagnettes"}}, "location": "Colombier NE"}, "Corrida Bulloise, Bulle": {"latitude": 46.6154512, "longitude": 7.057726799999999, "race": "Corrida Bulloise, Bulle", "date": {"sam. 19.11.2011": {"year": 2011, "day": 19, "month": 11, "categories": {"M20": {"distance": 8, "rank": 29, "pace": 226000000000, "time": 1847.3}}, "weekday": "saturday", "livingplace": "Les Sagnettes"}}, "location": "Bulle"}, "BCN Tour Les Ponts-de-Martel": {"latitude": 46.999113, "longitude": 6.733554799999999, "race": "BCN Tour Les Ponts-de-Martel", "date": {"mer. 09.05.2012": {"year": 2012, "day": 9, "month": 5, "categories": {"HE": {"distance": 10, "rank": 5, "pace": 233000000000, "time": 2408.0}}, "weekday": "wednesday", "livingplace": "Les Sagnettes"}}, "location": "Les Ponts-de-Martel"}, "BCN Tour La Chaux-de-Fonds": {"latitude": 47.1034892, "longitude": 6.832783800000001, "race": "BCN Tour La Chaux-de-Fonds", "date": {"mer. 23.05.2012": {"year": 2012, "day": 23, "month": 5, "categories": {"HE": {"distance": 11, "rank": 11, "pace": 233000000000, "time": 2520.9}}, "weekday": "wednesday", "livingplace": "Les Sagnettes"}, "mer. 11.05.2011": {"year": 2011, "day": 11, "month": 5, "categories": {"HE": {"distance": 11, "rank": 4, "pace": 268000000000, "time": 2876.3}}, "weekday": "wednesday", "livingplace": "Les Sagnettes"}}, "location": "La Chaux-de-Fonds"}, "D\u00e9fi Val-de-Travers, Couvet": {"latitude": 46.9262933, "longitude": 6.6324944, "race": "D\u00e9fi Val-de-Travers, Couvet", "date": {"sam. 21.06.2008": {"year": 2008, "day": 21, "month": 6, "categories": {"EHJ": {"distance": 12, "rank": 1, "pace": 292000000000, "time": 3567.3}}, "weekday": "saturday", "livingplace": "Les Sagnettes"}}, "location": "Couvet"}, "BCN Tour Ponts-de-Martel": {"latitude": 47.0624261, "longitude": 6.9175754, "race": "BCN Tour Ponts-de-Martel", "date": {"mer. 28.04.2010": {"year": 2010, "day": 28, "month": 4, "categories": {"HJ": {"distance": 11, "rank": 1, "pace": 241000000000, "time": 2701.8}}, "weekday": "wednesday", "livingplace": "Les Sagnettes"}}, "location": "Ch\u00e9zard-St-Martin"}, "BCN Tour Les Ponts de Martel": {"latitude": 46.9262933, "longitude": 6.6324944, "race": "BCN Tour Les Ponts de Martel", "date": {"mer. 18.05.2011": {"year": 2011, "day": 18, "month": 5, "categories": {"HE": {"distance": 13, "rank": 6, "pace": 238000000000, "time": 3054.6}}, "weekday": "wednesday", "livingplace": "Les Sagnettes"}}, "location": "Couvet"}, "BCN Tour M\u00f4tier": {"latitude": 46.9262933, "longitude": 6.6324944, "race": "BCN Tour M\u00f4tier", "date": {"mer. 19.05.2010": {"year": 2010, "day": 19, "month": 5, "categories": {"HJ": {"distance": 10, "rank": 2, "pace": 220000000000, "time": 2187.3}}, "weekday": "wednesday", "livingplace": "Les Sagnettes"}}, "location": "Couvet"}, "BCN Tour La Chaux-de-fonds": {"latitude": 47.1034892, "longitude": 6.832783800000001, "race": "BCN Tour La Chaux-de-fonds", "date": {"mer. 12.05.2010": {"year": 2010, "day": 12, "month": 5, "categories": {"HJ": {"distance": 11, "rank": 2, "pace": 278000000000, "time": 2982.7}}, "weekday": "wednesday", "livingplace": "Les Sagnettes"}}, "location": "La Chaux-de-Fonds"}, "Les Traine-Savates, Cheseaux-sur-Lausanne": {"latitude": 46.585452, "longitude": 6.6047712, "race": "Les Traine-Savates, Cheseaux-sur-Lausanne", "date": {"sam. 10.04.2010": {"year": 2010, "day": 10, "month": 4, "categories": {"JunHom": {"distance": 10, "rank": 2, "pace": 223000000000, "time": 2328.9}}, "weekday": "saturday", "livingplace": "Les Sagnettes"}, "sam. 14.04.2012": {"year": 2012, "day": 14, "month": 4, "categories": {"10-M20": {"distance": 10, "rank": 15, "pace": 218000000000, "time": 2276.6}}, "weekday": "saturday", "livingplace": "Les Sagnettes"}}, "location": "Cheseaux-sur-Lausanne"}, "Course p\u00e9destre Thyon-Dixence, Thyon": {"latitude": NaN, "longitude": NaN, "race": "Course p\u00e9destre Thyon-Dixence, Thyon", "date": {"dim. 02.08.2009": {"year": 2009, "day": 2, "month": 8, "categories": {"JH": {"distance": 16, "rank": 4, "pace": 329000000000, "time": 5389.3}}, "weekday": "sunday", "livingplace": "Les Sagnettes"}}, "location": "Thyon-Les Collons"}}, "birth": 1991}