{"name": "Amurgo Pacheco Albert", "sex": "M", "races": {"Lausanne Marathon": {"latitude": 46.5196535, "longitude": 6.6322734, "race": "Lausanne Marathon", "date": {"sam. 24.10.2015": {"year": 2015, "day": 24, "month": 10, "categories": {"42-H30": {"distance": 42, "rank": 165, "pace": 334000000000, "time": 14124.0}}, "weekday": "saturday", "livingplace": "Geneve"}}, "location": "Lausanne"}, "Eiger Ultra Trail, Grindelwald": {"latitude": 46.624164, "longitude": 8.0413962, "race": "Eiger Ultra Trail, Grindelwald", "date": {"sam. 18.07.2015": {"year": 2015, "day": 18, "month": 7, "categories": {"C-H": {"distance": 16, "rank": 101, "pace": 588000000000, "time": 9419.3}}, "weekday": "saturday", "livingplace": "Geneve"}, "sam. 19.07.2014": {"year": 2014, "day": 19, "month": 7, "categories": {"C-H": {"distance": 16, "rank": 105, "pace": 563000000000, "time": 9020.1}}, "weekday": "saturday", "livingplace": "Geneve"}}, "location": "Grindelwald"}, "Run to Run de Carouge": {"latitude": 46.1829674, "longitude": 6.1378539, "race": "Run to Run de Carouge", "date": {"sam. 27.09.2014": {"year": 2014, "day": 27, "month": 9, "categories": {"10-Hom1": {"distance": 10, "rank": 138, "pace": 294000000000, "time": 2948.6}}, "weekday": "saturday", "livingplace": "Geneve"}}, "location": "Carouge GE"}, "Course de l'Escalade, Gen\u00e8ve": {"latitude": 46.2043907, "longitude": 6.1431577, "race": "Course de l'Escalade, Gen\u00e8ve", "date": {"sam. 07.12.2013": {"year": 2013, "day": 7, "month": 12, "categories": {"Esc-Hom2": {"distance": 7, "rank": 917, "pace": 291000000000, "time": 2111.6}}, "weekday": "saturday", "livingplace": "Geneve"}, "sam. 05.12.2015": {"year": 2015, "day": 5, "month": 12, "categories": {"Esc-Hom2": {"distance": 7, "rank": 1244, "pace": 290000000000, "time": 2130.9}}, "weekday": "saturday", "livingplace": "Geneve"}, "sam. 06.12.2014": {"year": 2014, "day": 6, "month": 12, "categories": {"Esc-Hom2": {"distance": 7, "rank": 1175, "pace": 302000000000, "time": 2217.8}}, "weekday": "saturday", "livingplace": "Geneve"}}, "location": "Gen\u00e8ve"}, "Morat-Fribourg": {"latitude": 46.92922110000001, "longitude": 7.120184, "race": "Morat-Fribourg", "date": {"sam. 04.10.2014": {"year": 2014, "day": 4, "month": 10, "categories": {"17-M20": {"distance": 17, "rank": 1294, "pace": 316000000000, "time": 5432.4}}, "weekday": "saturday", "livingplace": "Geneve"}}, "location": "Murten"}}, "birth": 1977}