{"name": "An\u00e7ay Philippe", "sex": "M", "races": {"Tour du Chablais #1 Roche": {"latitude": 46.2957462, "longitude": 6.9916269, "race": "Tour du Chablais #1 Roche", "date": {"mer. 07.04.2010": {"year": 2010, "day": 7, "month": 4, "categories": {"M-M60": {"distance": 9, "rank": 14, "pace": 282000000000, "time": 2528.8}}, "weekday": "wednesday", "livingplace": "Fully"}, "mer. 03.04.2013": {"year": 2013, "day": 3, "month": 4, "categories": {"M-M60": {"distance": 9, "rank": 12, "pace": 288000000000, "time": 2553.8}}, "weekday": "wednesday", "livingplace": "Fully"}}, "location": "Ollon VD"}, "Tour du Chablais #6 Monthey": {"latitude": 46.3190253, "longitude": 6.970566, "race": "Tour du Chablais #6 Monthey", "date": {"mer. 08.05.2013": {"year": 2013, "day": 8, "month": 5, "categories": {"M-M60": {"distance": 9, "rank": 12, "pace": 287000000000, "time": 2681.8}}, "weekday": "wednesday", "livingplace": "Fully"}}, "location": "Aigle"}, "Tour du Chablais #5 Morgins": {"latitude": 46.3603257, "longitude": 6.931504599999999, "race": "Tour du Chablais #5 Morgins", "date": {"mer. 01.05.2013": {"year": 2013, "day": 1, "month": 5, "categories": {"M-M60": {"distance": 8, "rank": 11, "pace": 305000000000, "time": 2324.1}}, "weekday": "wednesday", "livingplace": "Fully"}}, "location": "Roche VD"}, "Course Titz\u00e9 de no\u00ebl Sion": {"latitude": 46.2331221, "longitude": 7.360625999999999, "race": "Course Titz\u00e9 de no\u00ebl Sion", "date": {"sam. 15.12.2001": {"year": 2001, "day": 15, "month": 12, "categories": {"53": {"distance": 7, "rank": 28, "pace": 265000000000, "time": 1950.2}}, "weekday": "saturday", "livingplace": "Fully"}}, "location": "Sion"}, "Tour du Chablais #1 Martigny": {"latitude": 46.2957462, "longitude": 6.9916269, "race": "Tour du Chablais #1 Martigny", "date": {"mer. 23.04.2014": {"year": 2014, "day": 23, "month": 4, "categories": {"M-M60": {"distance": 9, "rank": 17, "pace": 292000000000, "time": 2487.6}}, "weekday": "wednesday", "livingplace": "Fully"}}, "location": "Ollon VD"}, "Morat-Fribourg": {"latitude": 46.92922110000001, "longitude": 7.120184, "race": "Morat-Fribourg", "date": {"sam. 03.10.2015": {"year": 2015, "day": 3, "month": 10, "categories": {"17-M65": {"distance": 17, "rank": 34, "pace": 326000000000, "time": 5598.5}}, "weekday": "saturday", "livingplace": "Fully"}, "sam. 04.10.2014": {"year": 2014, "day": 4, "month": 10, "categories": {"17-M60": {"distance": 17, "rank": 60, "pace": 325000000000, "time": 5591.1}}, "weekday": "saturday", "livingplace": "Fully"}}, "location": "Murten"}, "Tour du Chablais #4 St  Maurice": {"latitude": NaN, "longitude": NaN, "race": "Tour du Chablais #4 St  Maurice", "date": {"mer. 24.04.2013": {"year": 2013, "day": 24, "month": 4, "categories": {"M-M60": {"distance": 10, "rank": 11, "pace": 292000000000, "time": 2921.6}}, "weekday": "wednesday", "livingplace": "Fully"}}, "location": "Les Mosses"}, "Tour du Chablais #2 Yvorne": {"latitude": 46.3835529, "longitude": 6.854975199999999, "race": "Tour du Chablais #2 Yvorne", "date": {"mer. 10.04.2013": {"year": 2013, "day": 10, "month": 4, "categories": {"M-M60": {"distance": 8, "rank": 10, "pace": 315000000000, "time": 2527.1}}, "weekday": "wednesday", "livingplace": "Fully"}}, "location": "Bouveret"}, "Tour du Chablais #3 Bouveret": {"latitude": 46.1782231, "longitude": 7.0223787, "race": "Tour du Chablais #3 Bouveret", "date": {"mer. 17.04.2013": {"year": 2013, "day": 17, "month": 4, "categories": {"M-M60": {"distance": 10, "rank": 11, "pace": 294000000000, "time": 2943.4}}, "weekday": "wednesday", "livingplace": "Fully"}}, "location": "Evionnaz"}, "Tour du Chablais #2 St-Gingolph": {"latitude": 46.3835529, "longitude": 6.854975199999999, "race": "Tour du Chablais #2 St-Gingolph", "date": {"mer. 14.04.2010": {"year": 2010, "day": 14, "month": 4, "categories": {"M-M60": {"distance": 8, "rank": 11, "pace": 296000000000, "time": 2474.0}}, "weekday": "wednesday", "livingplace": "Fully"}}, "location": "Bouveret"}}, "birth": 1950}