{"name": "Andrey Constant", "sex": "M", "races": {"Groupe E Tour Fribourg #3 Charmey": {"latitude": 46.97488999999999, "longitude": 7.1954365, "race": "Groupe E Tour Fribourg #3 Charmey", "date": {"mer. 04.09.2013": {"year": 2013, "day": 4, "month": 9, "categories": {"HV2": {"distance": 11, "rank": 6, "pace": 312000000000, "time": 3394.4}}, "weekday": "wednesday", "livingplace": "Charmey Gruyere"}}, "location": "Kerzers"}, "Morat-Fribourg": {"latitude": 46.92922110000001, "longitude": 7.120184, "race": "Morat-Fribourg", "date": {"sam. 05.10.2013": {"year": 2013, "day": 5, "month": 10, "categories": {"17-M65": {"distance": 17, "rank": 10, "pace": 289000000000, "time": 5053.3}}, "weekday": "saturday", "livingplace": "Charmey Gruyere"}, "sam. 01.10.2011": {"year": 2011, "day": 1, "month": 10, "categories": {"17-M60": {"distance": 17, "rank": 17, "pace": 286000000000, "time": 4912.8}}, "weekday": "saturday", "livingplace": "Charmey Gruyere"}, "sam. 04.10.2014": {"year": 2014, "day": 4, "month": 10, "categories": {"17-M65": {"distance": 17, "rank": 7, "pace": 301000000000, "time": 5170.7}}, "weekday": "saturday", "livingplace": "Charmey Gruyere"}}, "location": "Murten"}, "Groupe E Tour Fribourg #2, Charmey": {"latitude": 46.6175845, "longitude": 7.1654493, "race": "Groupe E Tour Fribourg #2, Charmey", "date": {"mer. 27.08.2014": {"year": 2014, "day": 27, "month": 8, "categories": {"H-Vet2": {"distance": 10, "rank": 7, "pace": 321000000000, "time": 3100.4}}, "weekday": "wednesday", "livingplace": "Charmey Gruyere"}}, "location": "Charmey (Gruy\u00e8re)"}, "Groupe E Tour Fribourg #4 Montagny": {"latitude": 46.6585092, "longitude": 6.877722, "race": "Groupe E Tour Fribourg #4 Montagny", "date": {"mer. 11.09.2013": {"year": 2013, "day": 11, "month": 9, "categories": {"HV2": {"distance": 10, "rank": 2, "pace": 278000000000, "time": 2730.7}}, "weekday": "wednesday", "livingplace": "Charmey Gruyere"}}, "location": "Siviriez"}, "Groupe E Tour Fribourg #1 Siviriez": {"latitude": 46.81832, "longitude": 6.977279999999999, "race": "Groupe E Tour Fribourg #1 Siviriez", "date": {"mer. 21.08.2013": {"year": 2013, "day": 21, "month": 8, "categories": {"HV2": {"distance": 10, "rank": 5, "pace": 291000000000, "time": 2857.0}}, "weekday": "wednesday", "livingplace": "Charmey Gruyere"}}, "location": "Cousset"}, "Groupe E Tour Fribourg #2 Kerzers": {"latitude": 46.6175845, "longitude": 7.1654493, "race": "Groupe E Tour Fribourg #2 Kerzers", "date": {"mer. 28.08.2013": {"year": 2013, "day": 28, "month": 8, "categories": {"HV2": {"distance": 12, "rank": 4, "pace": 280000000000, "time": 3319.5}}, "weekday": "wednesday", "livingplace": "Charmey Gruyere"}}, "location": "Charmey (Gruy\u00e8re)"}, "Groupe E Tour Fribourg #5 Fribourg": {"latitude": 46.8128615, "longitude": 7.131657799999999, "race": "Groupe E Tour Fribourg #5 Fribourg", "date": {"mer. 18.09.2013": {"year": 2013, "day": 18, "month": 9, "categories": {"HV2": {"distance": 10, "rank": 4, "pace": 277000000000, "time": 2774.6}}, "weekday": "wednesday", "livingplace": "Charmey Gruyere"}}, "location": "Givisiez"}}, "birth": 1947}