{"name": "Andrey Maurice", "sex": "M", "races": {"Groupe E Tour Fribourg #1 Gurmels": {"latitude": 46.81832, "longitude": 6.977279999999999, "race": "Groupe E Tour Fribourg #1 Gurmels", "date": {"mer. 29.08.2012": {"year": 2012, "day": 29, "month": 8, "categories": {"HE": {"distance": 8, "rank": 22, "pace": 311000000000, "time": 2614.0}}, "weekday": "wednesday", "livingplace": "Ependes"}}, "location": "Cousset"}, "Groupe E Tour Fribourg #4 Montagny": {"latitude": 46.6585092, "longitude": 6.877722, "race": "Groupe E Tour Fribourg #4 Montagny", "date": {"mer. 11.09.2013": {"year": 2013, "day": 11, "month": 9, "categories": {"HE": {"distance": 10, "rank": 14, "pace": 255000000000, "time": 2499.0}}, "weekday": "wednesday", "livingplace": "Ependes"}}, "location": "Siviriez"}, "Groupe E Tour Fribourg #3, Kerzers": {"latitude": 46.97488999999999, "longitude": 7.1954365, "race": "Groupe E Tour Fribourg #3, Kerzers", "date": {"mer. 03.09.2014": {"year": 2014, "day": 3, "month": 9, "categories": {"H-Ellite": {"distance": 10, "rank": 29, "pace": 262000000000, "time": 2666.5}}, "weekday": "wednesday", "livingplace": "Ependes"}}, "location": "Kerzers"}, "Morat-Fribourg": {"latitude": 46.92922110000001, "longitude": 7.120184, "race": "Morat-Fribourg", "date": {"sam. 01.10.2011": {"year": 2011, "day": 1, "month": 10, "categories": {"17-M20": {"distance": 17, "rank": 812, "pace": 294000000000, "time": 5054.3}}, "weekday": "saturday", "livingplace": "Ependes"}, "sam. 06.10.2012": {"year": 2012, "day": 6, "month": 10, "categories": {"17-M20": {"distance": 17, "rank": 787, "pace": 290000000000, "time": 5074.0}}, "weekday": "saturday", "livingplace": "Ependes"}, "sam. 04.10.2014": {"year": 2014, "day": 4, "month": 10, "categories": {"17-M20": {"distance": 17, "rank": 568, "pace": 280000000000, "time": 4816.3}}, "weekday": "saturday", "livingplace": "Ependes"}}, "location": "Murten"}, "Corrida Bulloise, Bulle": {"latitude": 46.6154512, "longitude": 7.057726799999999, "race": "Corrida Bulloise, Bulle", "date": {"sam. 16.11.2013": {"year": 2013, "day": 16, "month": 11, "categories": {"PopHomm": {"distance": 6, "rank": 449, "pace": 383000000000, "time": 2356.9}}, "weekday": "saturday", "livingplace": "Ependes"}, "sam. 17.11.2012": {"year": 2012, "day": 17, "month": 11, "categories": {"PopHomm": {"distance": 6, "rank": 234, "pace": 277000000000, "time": 1707.8}}, "weekday": "saturday", "livingplace": "Ependes"}}, "location": "Bulle"}, "Groupe E Tour Fribourg #1 Siviriez": {"latitude": 46.81832, "longitude": 6.977279999999999, "race": "Groupe E Tour Fribourg #1 Siviriez", "date": {"mer. 21.08.2013": {"year": 2013, "day": 21, "month": 8, "categories": {"HE": {"distance": 10, "rank": 14, "pace": 263000000000, "time": 2580.0}}, "weekday": "wednesday", "livingplace": "Ependes"}}, "location": "Cousset"}, "Groupe E Tour Fribourg #3 Charmey": {"latitude": 46.97488999999999, "longitude": 7.1954365, "race": "Groupe E Tour Fribourg #3 Charmey", "date": {"mer. 04.09.2013": {"year": 2013, "day": 4, "month": 9, "categories": {"HE": {"distance": 11, "rank": 18, "pace": 279000000000, "time": 3035.5}}, "weekday": "wednesday", "livingplace": "Ependes"}}, "location": "Kerzers"}, "Groupe E Tour Fribourg #2 Kerzers": {"latitude": 46.6175845, "longitude": 7.1654493, "race": "Groupe E Tour Fribourg #2 Kerzers", "date": {"mer. 28.08.2013": {"year": 2013, "day": 28, "month": 8, "categories": {"HE": {"distance": 12, "rank": 14, "pace": 263000000000, "time": 3116.3}}, "weekday": "wednesday", "livingplace": "Ependes"}}, "location": "Charmey (Gruy\u00e8re)"}, "Groupe E Tour Fribourg #5 Fribourg": {"latitude": 46.8128615, "longitude": 7.131657799999999, "race": "Groupe E Tour Fribourg #5 Fribourg", "date": {"mer. 18.09.2013": {"year": 2013, "day": 18, "month": 9, "categories": {"HE": {"distance": 10, "rank": 21, "pace": 260000000000, "time": 2601.3}}, "weekday": "wednesday", "livingplace": "Ependes"}}, "location": "Givisiez"}, "Groupe E Tour Fribourg #2 Plafayon": {"latitude": 46.6175845, "longitude": 7.1654493, "race": "Groupe E Tour Fribourg #2 Plafayon", "date": {"mer. 05.09.2012": {"year": 2012, "day": 5, "month": 9, "categories": {"HE": {"distance": 9, "rank": 14, "pace": 273000000000, "time": 2560.9}}, "weekday": "wednesday", "livingplace": "Ependes"}}, "location": "Charmey (Gruy\u00e8re)"}, "Groupe E Tour Fribourg #4 Siviriez": {"latitude": 46.6585092, "longitude": 6.877722, "race": "Groupe E Tour Fribourg #4 Siviriez", "date": {"mer. 19.09.2012": {"year": 2012, "day": 19, "month": 9, "categories": {"HE": {"distance": 9, "rank": 19, "pace": 288000000000, "time": 2712.7}}, "weekday": "wednesday", "livingplace": "Ependes"}}, "location": "Siviriez"}}, "birth": 1991}