{"name": "Antelmi Osvaldo", "sex": "M", "races": {"BCN Tour Fontaine Cernier": {"latitude": 47.0624261, "longitude": 6.9175754, "race": "BCN Tour Fontaine Cernier", "date": {"mer. 27.04.2011": {"year": 2011, "day": 27, "month": 4, "categories": {"HV2": {"distance": 10, "rank": 43, "pace": 447000000000, "time": 4609.7}}, "weekday": "wednesday", "livingplace": "Neuchatel"}}, "location": "Ch\u00e9zard-St-Martin"}, "BCN Tour Le Landeron": {"latitude": 46.9668714, "longitude": 6.8589727, "race": "BCN Tour Le Landeron", "date": {"mer. 22.04.2009": {"year": 2009, "day": 22, "month": 4, "categories": {"HV2": {"distance": 11, "rank": 42, "pace": 472000000000, "time": 5250.0}}, "weekday": "wednesday", "livingplace": "Neuchatel"}}, "location": "Colombier NE"}, "BCN Tour Neuch\u00e2tel": {"latitude": 46.9899874, "longitude": 6.9292732, "race": "BCN Tour Neuch\u00e2tel", "date": {"mer. 26.05.2010": {"year": 2010, "day": 26, "month": 5, "categories": {"HV2": {"distance": 10, "rank": 19, "pace": 403000000000, "time": 3917.1}}, "weekday": "wednesday", "livingplace": "Neuchatel"}, "mer. 25.05.2011": {"year": 2011, "day": 25, "month": 5, "categories": {"HV2": {"distance": 11, "rank": 43, "pace": 471000000000, "time": 5373.5}}, "weekday": "wednesday", "livingplace": "Neuchatel"}}, "location": "Neuch\u00e2tel"}, "BCN Tour Auvernier": {"latitude": 46.9668714, "longitude": 6.8589727, "race": "BCN Tour Auvernier", "date": {"mer. 20.04.2011": {"year": 2011, "day": 20, "month": 4, "categories": {"HV2": {"distance": 11, "rank": 45, "pace": 501000000000, "time": 5411.9}}, "weekday": "wednesday", "livingplace": "Neuchatel"}}, "location": "Colombier NE"}, "BCN Tour La Chaux-de-Fonds": {"latitude": 47.1034892, "longitude": 6.832783800000001, "race": "BCN Tour La Chaux-de-Fonds", "date": {"mer. 11.05.2011": {"year": 2011, "day": 11, "month": 5, "categories": {"HV2": {"distance": 11, "rank": 47, "pace": 556000000000, "time": 5955.9}}, "weekday": "wednesday", "livingplace": "Neuchatel"}}, "location": "La Chaux-de-Fonds"}, "BCN Tour #6 Neuch\u00e2tel": {"latitude": 46.9899874, "longitude": 6.9292732, "race": "BCN Tour #6 Neuch\u00e2tel", "date": {"mer. 29.05.2013": {"year": 2013, "day": 29, "month": 5, "categories": {"HV2": {"distance": 11, "rank": 52, "pace": 524000000000, "time": 5768.0}}, "weekday": "wednesday", "livingplace": "Neuchatel"}}, "location": "Neuch\u00e2tel"}, "BCN Tour La Br\u00e9vine": {"latitude": 46.999113, "longitude": 6.733554799999999, "race": "BCN Tour La Br\u00e9vine", "date": {"mer. 04.05.2011": {"year": 2011, "day": 4, "month": 5, "categories": {"HV2": {"distance": 10, "rank": 41, "pace": 446000000000, "time": 4464.9}}, "weekday": "wednesday", "livingplace": "Neuchatel"}}, "location": "Les Ponts-de-Martel"}, "BCN Tour Ponts-de-Martel": {"latitude": 47.0624261, "longitude": 6.9175754, "race": "BCN Tour Ponts-de-Martel", "date": {"mer. 28.04.2010": {"year": 2010, "day": 28, "month": 4, "categories": {"HV2": {"distance": 11, "rank": 40, "pace": 504000000000, "time": 5654.2}}, "weekday": "wednesday", "livingplace": "Neuchatel"}}, "location": "Ch\u00e9zard-St-Martin"}, "BCN Tour Les Ponts de Martel": {"latitude": 46.9262933, "longitude": 6.6324944, "race": "BCN Tour Les Ponts de Martel", "date": {"mer. 18.05.2011": {"year": 2011, "day": 18, "month": 5, "categories": {"HV2": {"distance": 13, "rank": 37, "pace": 486000000000, "time": 6221.1}}, "weekday": "wednesday", "livingplace": "Neuchatel"}}, "location": "Couvet"}, "BCN Tour #5 Colombier": {"latitude": 46.9262933, "longitude": 6.6324944, "race": "BCN Tour #5 Colombier", "date": {"mer. 22.05.2013": {"year": 2013, "day": 22, "month": 5, "categories": {"HV2": {"distance": 11, "rank": 57, "pace": 466000000000, "time": 4899.2}}, "weekday": "wednesday", "livingplace": "Neuchatel"}}, "location": "Couvet"}, "BCN Tour Boudry": {"latitude": 46.9668714, "longitude": 6.8589727, "race": "BCN Tour Boudry", "date": {"mer. 26.04.2006": {"year": 2006, "day": 26, "month": 4, "categories": {"HV2": {"distance": 10, "rank": 41, "pace": 419000000000, "time": 4278.1}}, "weekday": "wednesday", "livingplace": "Neuchatel"}}, "location": "Colombier NE"}, "BCN Tour Colombier": {"latitude": 46.9668714, "longitude": 6.8589727, "race": "BCN Tour Colombier", "date": {"mer. 23.04.2008": {"year": 2008, "day": 23, "month": 4, "categories": {"HV2": {"distance": 10, "rank": 34, "pace": 488000000000, "time": 4986.7}}, "weekday": "wednesday", "livingplace": "Neuchatel"}, "mer. 21.04.2010": {"year": 2010, "day": 21, "month": 4, "categories": {"HV2": {"distance": 10, "rank": 49, "pace": 550000000000, "time": 5503.6}}, "weekday": "wednesday", "livingplace": "Neuchatel"}}, "location": "Colombier NE"}}, "birth": 1940}