{"name": "Arborino Tony", "sex": "M", "races": {"Tour du Chablais #1 Roche": {"latitude": 46.2957462, "longitude": 6.9916269, "race": "Tour du Chablais #1 Roche", "date": {"mer. 03.04.2013": {"year": 2013, "day": 3, "month": 4, "categories": {"M-M40": {"distance": 9, "rank": 83, "pace": 282000000000, "time": 2504.1}}, "weekday": "wednesday", "livingplace": "Saxon"}}, "location": "Ollon VD"}, "Tour du Chablais #6 Monthey": {"latitude": 46.3190253, "longitude": 6.970566, "race": "Tour du Chablais #6 Monthey", "date": {"mer. 08.05.2013": {"year": 2013, "day": 8, "month": 5, "categories": {"M-M40": {"distance": 9, "rank": 95, "pace": 285000000000, "time": 2661.3}}, "weekday": "wednesday", "livingplace": "Saxon"}}, "location": "Aigle"}, "Morat-Fribourg": {"latitude": 46.92922110000001, "longitude": 7.120184, "race": "Morat-Fribourg", "date": {"sam. 06.10.2012": {"year": 2012, "day": 6, "month": 10, "categories": {"17-M40": {"distance": 17, "rank": 628, "pace": 342000000000, "time": 5981.8}}, "weekday": "saturday", "livingplace": "Saxon"}}, "location": "Murten"}, "Tour du Chablais #2 Yvorne": {"latitude": 46.3835529, "longitude": 6.854975199999999, "race": "Tour du Chablais #2 Yvorne", "date": {"mer. 10.04.2013": {"year": 2013, "day": 10, "month": 4, "categories": {"M-M40": {"distance": 8, "rank": 89, "pace": 317000000000, "time": 2543.5}}, "weekday": "wednesday", "livingplace": "Saxon"}}, "location": "Bouveret"}, "Tour du Chablais #5 Bex": {"latitude": 46.3603257, "longitude": 6.931504599999999, "race": "Tour du Chablais #5 Bex", "date": {"mer. 09.05.2012": {"year": 2012, "day": 9, "month": 5, "categories": {"M-M40": {"distance": 9, "rank": 116, "pace": 316000000000, "time": 2807.6}}, "weekday": "wednesday", "livingplace": "Saxon"}}, "location": "Roche VD"}, "Tour du Chablais #4 Champ\u00e9ry": {"latitude": NaN, "longitude": NaN, "race": "Tour du Chablais #4 Champ\u00e9ry", "date": {"mer. 02.05.2012": {"year": 2012, "day": 2, "month": 5, "categories": {"M-M40": {"distance": 8, "rank": 117, "pace": 310000000000, "time": 2578.6}}, "weekday": "wednesday", "livingplace": "Saxon"}}, "location": "Les Mosses"}, "Tour du Chablais #1 Montreux": {"latitude": 46.2957462, "longitude": 6.9916269, "race": "Tour du Chablais #1 Montreux", "date": {"mer. 11.04.2012": {"year": 2012, "day": 11, "month": 4, "categories": {"M-M40": {"distance": 8, "rank": 149, "pace": 337000000000, "time": 2561.2}}, "weekday": "wednesday", "livingplace": "Saxon"}}, "location": "Ollon VD"}, "Tour du Chablais #6 Montreux": {"latitude": 46.3190253, "longitude": 6.970566, "race": "Tour du Chablais #6 Montreux", "date": {"mer. 16.05.2012": {"year": 2012, "day": 16, "month": 5, "categories": {"M-M40": {"distance": 9, "rank": 145, "pace": 303000000000, "time": 2809.2}}, "weekday": "wednesday", "livingplace": "Saxon"}}, "location": "Aigle"}, "Tour du Chablais #3 Collombey-Muraz": {"latitude": 46.1782231, "longitude": 7.0223787, "race": "Tour du Chablais #3 Collombey-Muraz", "date": {"mer. 25.04.2012": {"year": 2012, "day": 25, "month": 4, "categories": {"M-M40": {"distance": 9, "rank": 116, "pace": 308000000000, "time": 2770.4}}, "weekday": "wednesday", "livingplace": "Saxon"}}, "location": "Evionnaz"}, "Lausanne Marathon": {"latitude": 46.5196535, "longitude": 6.6322734, "race": "Lausanne Marathon", "date": {"dim. 28.10.2012": {"year": 2012, "day": 28, "month": 10, "categories": {"10-H3": {"distance": 10, "rank": 233, "pace": 296000000000, "time": 2966.4}}, "weekday": "sunday", "livingplace": "Saxon"}}, "location": "Lausanne"}, "Course p\u00e9destre Thyon-Dixence, Thyon": {"latitude": NaN, "longitude": NaN, "race": "Course p\u00e9destre Thyon-Dixence, Thyon", "date": {"dim. 04.08.2013": {"year": 2013, "day": 4, "month": 8, "categories": {"V\u00e9ter 1": {"distance": 16, "rank": 76, "pace": 485000000000, "time": 7930.8}}, "weekday": "sunday", "livingplace": "Saxon"}}, "location": "Thyon-Les Collons"}, "Tour du Chablais #4 St  Maurice": {"latitude": NaN, "longitude": NaN, "race": "Tour du Chablais #4 St  Maurice", "date": {"mer. 24.04.2013": {"year": 2013, "day": 24, "month": 4, "categories": {"M-M40": {"distance": 10, "rank": 98, "pace": 295000000000, "time": 2956.1}}, "weekday": "wednesday", "livingplace": "Saxon"}}, "location": "Les Mosses"}, "Tour du Chablais #2 Bex": {"latitude": 46.3835529, "longitude": 6.854975199999999, "race": "Tour du Chablais #2 Bex", "date": {"mer. 18.04.2012": {"year": 2012, "day": 18, "month": 4, "categories": {"M-M40": {"distance": 8, "rank": 134, "pace": 318000000000, "time": 2551.5}}, "weekday": "wednesday", "livingplace": "Saxon"}}, "location": "Bouveret"}, "Tour du Chablais #3 Bouveret": {"latitude": 46.1782231, "longitude": 7.0223787, "race": "Tour du Chablais #3 Bouveret", "date": {"mer. 17.04.2013": {"year": 2013, "day": 17, "month": 4, "categories": {"M-M40": {"distance": 10, "rank": 103, "pace": 295000000000, "time": 2954.9}}, "weekday": "wednesday", "livingplace": "Saxon"}}, "location": "Evionnaz"}}, "birth": 1970}