{"name": "Argiles Isidro", "sex": "M", "races": {"Kerzerslauf": {"latitude": 46.97488999999999, "longitude": 7.1954365, "race": "Kerzerslauf", "date": {"sam. 15.03.2014": {"year": 2014, "day": 15, "month": 3, "categories": {"15-M20": {"distance": 15, "rank": 307, "pace": 279000000000, "time": 4196.0}}, "weekday": "saturday", "livingplace": "Boudry"}}, "location": "Kerzers"}, "20km de Lausanne": {"latitude": 46.5196535, "longitude": 6.6322734, "race": "20km de Lausanne", "date": {"sam. 25.04.2015": {"year": 2015, "day": 25, "month": 4, "categories": {"20-H30": {"distance": 20, "rank": 404, "pace": 281000000000, "time": 5638.1}}, "weekday": "saturday", "livingplace": "Boudry"}}, "location": "Lausanne"}, "Morat-Fribourg": {"latitude": 46.92922110000001, "longitude": 7.120184, "race": "Morat-Fribourg", "date": {"sam. 05.10.2013": {"year": 2013, "day": 5, "month": 10, "categories": {"17-M20": {"distance": 17, "rank": 893, "pace": 288000000000, "time": 5031.0}}, "weekday": "saturday", "livingplace": "Boudry"}}, "location": "Murten"}, "BCN Tour Cornaux": {"latitude": 46.9668714, "longitude": 6.8589727, "race": "BCN Tour Cornaux", "date": {"mer. 25.04.2012": {"year": 2012, "day": 25, "month": 4, "categories": {"HE": {"distance": 11, "rank": 124, "pace": 337000000000, "time": 3713.9}}, "weekday": "wednesday", "livingplace": "Boudry"}}, "location": "Colombier NE"}, "Tour du pays de Vaud #1 - Penthaz": {"latitude": 46.5993131, "longitude": 6.539251200000001, "race": "Tour du pays de Vaud #1 - Penthaz", "date": {"mer. 14.08.2013": {"year": 2013, "day": 14, "month": 8, "categories": {"H-Hom": {"distance": 9, "rank": 49, "pace": 280000000000, "time": 2394.2}}, "weekday": "wednesday", "livingplace": "Boudry"}}, "location": "Penthaz"}, "BCN Tour #1 Corcelles": {"latitude": 46.9668714, "longitude": 6.8589727, "race": "BCN Tour #1 Corcelles", "date": {"mer. 24.04.2013": {"year": 2013, "day": 24, "month": 4, "categories": {"HE": {"distance": 10, "rank": 137, "pace": 289000000000, "time": 2841.8}}, "weekday": "wednesday", "livingplace": "Boudry"}}, "location": "Colombier NE"}, "BCN Tour #4 Fleurier": {"latitude": 47.1034892, "longitude": 6.832783800000001, "race": "BCN Tour #4 Fleurier", "date": {"mer. 15.05.2013": {"year": 2013, "day": 15, "month": 5, "categories": {"HE": {"distance": 9, "rank": 148, "pace": 286000000000, "time": 2479.3}}, "weekday": "wednesday", "livingplace": "Boudry"}}, "location": "La Chaux-de-Fonds"}, "BCN Tour #2 La Chaux-de-Fonds": {"latitude": 47.0624261, "longitude": 6.9175754, "race": "BCN Tour #2 La Chaux-de-Fonds", "date": {"mer. 01.05.2013": {"year": 2013, "day": 1, "month": 5, "categories": {"HE": {"distance": 11, "rank": 177, "pace": 290000000000, "time": 3110.5}}, "weekday": "wednesday", "livingplace": "Boudry"}}, "location": "Ch\u00e9zard-St-Martin"}, "Tour du Pays de Vaud #1, Penthaz": {"latitude": 46.5993131, "longitude": 6.539251200000001, "race": "Tour du Pays de Vaud #1, Penthaz", "date": {"mer. 13.08.2014": {"year": 2014, "day": 13, "month": 8, "categories": {"H-Sen1": {"distance": 9, "rank": 50, "pace": 258000000000, "time": 2205.5}}, "weekday": "wednesday", "livingplace": "Boudry"}}, "location": "Penthaz"}, "BCN Tour #6 Neuch\u00e2tel": {"latitude": 46.9899874, "longitude": 6.9292732, "race": "BCN Tour #6 Neuch\u00e2tel", "date": {"mer. 29.05.2013": {"year": 2013, "day": 29, "month": 5, "categories": {"HE": {"distance": 11, "rank": 132, "pace": 291000000000, "time": 3210.5}}, "weekday": "wednesday", "livingplace": "Boudry"}}, "location": "Neuch\u00e2tel"}, "La Trotteuse-Tissot, La Chaux-de-Fonds": {"latitude": 47.1034892, "longitude": 6.832783800000001, "race": "La Trotteuse-Tissot, La Chaux-de-Fonds", "date": {"sam. 13.12.2014": {"year": 2014, "day": 13, "month": 12, "categories": {"GC-H30": {"distance": 8, "rank": 91, "pace": 269000000000, "time": 2157.7}}, "weekday": "saturday", "livingplace": "Boudry"}}, "location": "La Chaux-de-Fonds"}, "BCN Tour Neuch\u00e2tel": {"latitude": 46.9899874, "longitude": 6.9292732, "race": "BCN Tour Neuch\u00e2tel", "date": {"mer. 30.05.2012": {"year": 2012, "day": 30, "month": 5, "categories": {"HE": {"distance": 11, "rank": 168, "pace": 322000000000, "time": 3616.9}}, "weekday": "wednesday", "livingplace": "Boudry"}}, "location": "Neuch\u00e2tel"}, "BCN Tour #5 Colombier": {"latitude": 46.9262933, "longitude": 6.6324944, "race": "BCN Tour #5 Colombier", "date": {"mer. 22.05.2013": {"year": 2013, "day": 22, "month": 5, "categories": {"HE": {"distance": 11, "rank": 121, "pace": 261000000000, "time": 2742.9}}, "weekday": "wednesday", "livingplace": "Boudry"}}, "location": "Couvet"}, "BCN Tour Colombier": {"latitude": 47.1034892, "longitude": 6.832783800000001, "race": "BCN Tour Colombier", "date": {"mer. 16.05.2012": {"year": 2012, "day": 16, "month": 5, "categories": {"HE": {"distance": 11, "rank": 147, "pace": 299000000000, "time": 3239.9}}, "weekday": "wednesday", "livingplace": "Boudry"}}, "location": "La Chaux-de-Fonds"}, "BCN Tour #3 Dombresson": {"latitude": 46.999113, "longitude": 6.733554799999999, "race": "BCN Tour #3 Dombresson", "date": {"mer. 08.05.2013": {"year": 2013, "day": 8, "month": 5, "categories": {"HE": {"distance": 10, "rank": 148, "pace": 279000000000, "time": 2768.8}}, "weekday": "wednesday", "livingplace": "Boudry"}}, "location": "Les Ponts-de-Martel"}}, "birth": 1984}