{"name": "Argilli Elsa", "sex": "F", "races": {"BCN Tour La Chaux-de-Fonds": {"latitude": 47.1034892, "longitude": 6.832783800000001, "race": "BCN Tour La Chaux-de-Fonds", "date": {"mer. 11.05.2011": {"year": 2011, "day": 11, "month": 5, "categories": {"DJ": {"distance": 11, "rank": 13, "pace": 386000000000, "time": 4138.3}}, "weekday": "wednesday", "livingplace": "La Chaux de Fonds"}}, "location": "La Chaux-de-Fonds"}, "Morat-Fribourg": {"latitude": 46.92922110000001, "longitude": 7.120184, "race": "Morat-Fribourg", "date": {"sam. 04.10.2008": {"year": 2008, "day": 4, "month": 10, "categories": {"K-EFA": {"distance": 3, "rank": 14, "pace": 235000000000, "time": 658.9}}, "weekday": "saturday", "livingplace": "La Sagne"}, "sam. 06.10.2007": {"year": 2007, "day": 6, "month": 10, "categories": {"K/EFA": {"distance": 3, "rank": 14, "pace": 236000000000, "time": 662.5}}, "weekday": "saturday", "livingplace": "La Sagne"}}, "location": "Murten"}, "D\u00e9fi Val-de-Travers, Couvet": {"latitude": 46.9262933, "longitude": 6.6324944, "race": "D\u00e9fi Val-de-Travers, Couvet", "date": {"sam. 20.06.2009": {"year": 2009, "day": 20, "month": 6, "categories": {"FCB": {"distance": 3, "rank": 4, "pace": 264000000000, "time": 781.3}}, "weekday": "saturday", "livingplace": "La Sagne"}}, "location": "Couvet"}, "BCN Tour Neuch\u00e2tel": {"latitude": 46.9899874, "longitude": 6.9292732, "race": "BCN Tour Neuch\u00e2tel", "date": {"mer. 26.05.2010": {"year": 2010, "day": 26, "month": 5, "categories": {"DJ": {"distance": 10, "rank": 12, "pace": 400000000000, "time": 3880.5}}, "weekday": "wednesday", "livingplace": "La Chaux de Fonds"}}, "location": "Neuch\u00e2tel"}, "BCN Tour Auvernier": {"latitude": 46.9668714, "longitude": 6.8589727, "race": "BCN Tour Auvernier", "date": {"mer. 20.04.2011": {"year": 2011, "day": 20, "month": 4, "categories": {"DJ": {"distance": 11, "rank": 10, "pace": 352000000000, "time": 3805.4}}, "weekday": "wednesday", "livingplace": "La Chaux de Fonds"}}, "location": "Colombier NE"}, "20km de Lausanne": {"latitude": 46.5196535, "longitude": 6.6322734, "race": "20km de Lausanne", "date": {"sam. 25.04.2015": {"year": 2015, "day": 25, "month": 4, "categories": {"10-F20": {"distance": 10, "rank": 55, "pace": 288000000000, "time": 2884.2}}, "weekday": "saturday", "livingplace": "La Chaux de Fonds"}}, "location": "Lausanne"}, "Gurtenclassic, Wabern": {"latitude": 46.92901639999999, "longitude": 7.448973199999999, "race": "Gurtenclassic, Wabern", "date": {"dim. 02.11.2008": {"year": 2008, "day": 2, "month": 11, "categories": {"W13": {"distance": 3, "rank": 6, "pace": 273000000000, "time": 750.4}}, "weekday": "sunday", "livingplace": "La Sagne"}, "dim. 04.11.2007": {"year": 2007, "day": 4, "month": 11, "categories": {"W13": {"distance": 3, "rank": 7, "pace": 271000000000, "time": 743.7}}, "weekday": "sunday", "livingplace": "La Sagne"}}, "location": "Wabern"}, "Kerzerslauf": {"latitude": 46.97488999999999, "longitude": 7.1954365, "race": "Kerzerslauf", "date": {"sam. 20.03.2010": {"year": 2010, "day": 20, "month": 3, "categories": {"5-F05J": {"distance": 5, "rank": 8, "pace": 269000000000, "time": 1346.5}}, "weekday": "saturday", "livingplace": "La Sagne"}, "sam. 19.03.2011": {"year": 2011, "day": 19, "month": 3, "categories": {"5-F19": {"distance": 5, "rank": 28, "pace": 290000000000, "time": 1452.6}}, "weekday": "saturday", "livingplace": "La Chaux de Fonds"}, "sam. 21.03.2009": {"year": 2009, "day": 21, "month": 3, "categories": {"5-F05J": {"distance": 5, "rank": 22, "pace": 279000000000, "time": 1399.2}}, "weekday": "saturday", "livingplace": "La Sagne"}, "sam. 17.03.2012": {"year": 2012, "day": 17, "month": 3, "categories": {"5-F19": {"distance": 5, "rank": 16, "pace": 279000000000, "time": 1395.1}}, "weekday": "saturday", "livingplace": "La Chaux de Fonds"}}, "location": "Kerzers"}}, "birth": 1995}