{"name": "Argilli Julia", "sex": "F", "races": {"20km de Lausanne": {"latitude": 46.5196535, "longitude": 6.6322734, "race": "20km de Lausanne", "date": {"sam. 27.04.2013": {"year": 2013, "day": 27, "month": 4, "categories": {"10-F20": {"distance": 10, "rank": 111, "pace": 306000000000, "time": 3068.5}}, "weekday": "saturday", "livingplace": "La Chaux de Fonds"}, "sam. 25.04.2015": {"year": 2015, "day": 25, "month": 4, "categories": {"10-F20": {"distance": 10, "rank": 98, "pace": 299000000000, "time": 2997.7}}, "weekday": "saturday", "livingplace": "La Chaux de Fonds"}}, "location": "Lausanne"}, "Morat-Fribourg": {"latitude": 46.92922110000001, "longitude": 7.120184, "race": "Morat-Fribourg", "date": {"sam. 05.10.2013": {"year": 2013, "day": 5, "month": 10, "categories": {"17-W20": {"distance": 17, "rank": 296, "pace": 341000000000, "time": 5952.6}}, "weekday": "saturday", "livingplace": "La Chaux de Fonds"}, "sam. 03.10.2009": {"year": 2009, "day": 3, "month": 10, "categories": {"J-CF": {"distance": 9, "rank": 29, "pace": 325000000000, "time": 2799.4}}, "weekday": "saturday", "livingplace": "La Sagne"}, "sam. 04.10.2008": {"year": 2008, "day": 4, "month": 10, "categories": {"K-CFB": {"distance": 3, "rank": 7, "pace": 242000000000, "time": 849.4}}, "weekday": "saturday", "livingplace": "La Sagne"}, "sam. 06.10.2007": {"year": 2007, "day": 6, "month": 10, "categories": {"K/CFB": {"distance": 9, "rank": 5, "pace": 96000000000, "time": 826.1}}, "weekday": "saturday", "livingplace": "La Sagne"}}, "location": "Murten"}, "BCN Tour La Br\u00e9vine": {"latitude": 46.999113, "longitude": 6.733554799999999, "race": "BCN Tour La Br\u00e9vine", "date": {"mer. 04.05.2011": {"year": 2011, "day": 4, "month": 5, "categories": {"DJ": {"distance": 10, "rank": 14, "pace": 343000000000, "time": 3435.2}}, "weekday": "wednesday", "livingplace": "La Chaux de Fonds"}}, "location": "Les Ponts-de-Martel"}, "BCN Tour Fontaine Cernier": {"latitude": 47.0624261, "longitude": 6.9175754, "race": "BCN Tour Fontaine Cernier", "date": {"mer. 27.04.2011": {"year": 2011, "day": 27, "month": 4, "categories": {"DJ": {"distance": 10, "rank": 10, "pace": 313000000000, "time": 3230.7}}, "weekday": "wednesday", "livingplace": "La Chaux de Fonds"}}, "location": "Ch\u00e9zard-St-Martin"}, "BCN Tour Le Landeron": {"latitude": 46.9668714, "longitude": 6.8589727, "race": "BCN Tour Le Landeron", "date": {"mer. 22.04.2009": {"year": 2009, "day": 22, "month": 4, "categories": {"DJ": {"distance": 11, "rank": 10, "pace": 332000000000, "time": 3686.8}}, "weekday": "wednesday", "livingplace": "La Sagne"}}, "location": "Colombier NE"}, "BCN Tour Le Locle": {"latitude": 46.999113, "longitude": 6.733554799999999, "race": "BCN Tour Le Locle", "date": {"mer. 05.05.2010": {"year": 2010, "day": 5, "month": 5, "categories": {"DJ": {"distance": 11, "rank": 6, "pace": 304000000000, "time": 3323.3}}, "weekday": "wednesday", "livingplace": "La Chaux de Fonds"}}, "location": "Les Ponts-de-Martel"}, "BCN Tour Neuch\u00e2tel": {"latitude": 46.9899874, "longitude": 6.9292732, "race": "BCN Tour Neuch\u00e2tel", "date": {"mer. 26.05.2010": {"year": 2010, "day": 26, "month": 5, "categories": {"DJ": {"distance": 10, "rank": 7, "pace": 374000000000, "time": 3629.4}}, "weekday": "wednesday", "livingplace": "La Chaux de Fonds"}, "mer. 25.05.2011": {"year": 2011, "day": 25, "month": 5, "categories": {"DJ": {"distance": 11, "rank": 36, "pace": 408000000000, "time": 4653.0}}, "weekday": "wednesday", "livingplace": "La Chaux de Fonds"}}, "location": "Neuch\u00e2tel"}, "BCN Tour Auvernier": {"latitude": 46.9668714, "longitude": 6.8589727, "race": "BCN Tour Auvernier", "date": {"mer. 20.04.2011": {"year": 2011, "day": 20, "month": 4, "categories": {"DJ": {"distance": 11, "rank": 17, "pace": 371000000000, "time": 4007.1}}, "weekday": "wednesday", "livingplace": "La Chaux de Fonds"}}, "location": "Colombier NE"}, "BCN Tour Colombier": {"latitude": 46.9668714, "longitude": 6.8589727, "race": "BCN Tour Colombier", "date": {"mer. 21.04.2010": {"year": 2010, "day": 21, "month": 4, "categories": {"DJ": {"distance": 10, "rank": 5, "pace": 332000000000, "time": 3321.5}}, "weekday": "wednesday", "livingplace": "La Chaux de Fonds"}}, "location": "Colombier NE"}, "BCN Tour Les Ponts-de-Martel": {"latitude": 46.999113, "longitude": 6.733554799999999, "race": "BCN Tour Les Ponts-de-Martel", "date": {"mer. 09.05.2012": {"year": 2012, "day": 9, "month": 5, "categories": {"DJ": {"distance": 10, "rank": 24, "pace": 347000000000, "time": 3577.2}}, "weekday": "wednesday", "livingplace": "La Chaux de Fonds"}}, "location": "Les Ponts-de-Martel"}, "BCN Tour La Chaux-de-Fonds": {"latitude": 47.1034892, "longitude": 6.832783800000001, "race": "BCN Tour La Chaux-de-Fonds", "date": {"mer. 23.05.2012": {"year": 2012, "day": 23, "month": 5, "categories": {"DJ": {"distance": 11, "rank": 21, "pace": 353000000000, "time": 3818.1}}, "weekday": "wednesday", "livingplace": "La Chaux de Fonds"}, "mer. 11.05.2011": {"year": 2011, "day": 11, "month": 5, "categories": {"DJ": {"distance": 11, "rank": 17, "pace": 399000000000, "time": 4271.1}}, "weekday": "wednesday", "livingplace": "La Chaux de Fonds"}}, "location": "La Chaux-de-Fonds"}, "D\u00e9fi Val-de-Travers, Couvet": {"latitude": 46.9262933, "longitude": 6.6324944, "race": "D\u00e9fi Val-de-Travers, Couvet", "date": {"sam. 21.06.2008": {"year": 2008, "day": 21, "month": 6, "categories": {"FCB": {"distance": 3, "rank": 4, "pace": 271000000000, "time": 801.6}}, "weekday": "saturday", "livingplace": "La Sagne"}, "sam. 20.06.2009": {"year": 2009, "day": 20, "month": 6, "categories": {"FCA": {"distance": 3, "rank": 2, "pace": 259000000000, "time": 766.9}}, "weekday": "saturday", "livingplace": "La Sagne"}}, "location": "Couvet"}, "BCN Tour Ponts-de-Martel": {"latitude": 47.0624261, "longitude": 6.9175754, "race": "BCN Tour Ponts-de-Martel", "date": {"mer. 28.04.2010": {"year": 2010, "day": 28, "month": 4, "categories": {"DJ": {"distance": 11, "rank": 9, "pace": 322000000000, "time": 3606.8}}, "weekday": "wednesday", "livingplace": "La Chaux de Fonds"}}, "location": "Ch\u00e9zard-St-Martin"}, "BCN Tour Les Ponts de Martel": {"latitude": 46.9262933, "longitude": 6.6324944, "race": "BCN Tour Les Ponts de Martel", "date": {"mer. 18.05.2011": {"year": 2011, "day": 18, "month": 5, "categories": {"DJ": {"distance": 13, "rank": 13, "pace": 342000000000, "time": 4379.1}}, "weekday": "wednesday", "livingplace": "La Chaux de Fonds"}}, "location": "Couvet"}, "BCN Tour M\u00f4tier": {"latitude": 46.9262933, "longitude": 6.6324944, "race": "BCN Tour M\u00f4tier", "date": {"mer. 19.05.2010": {"year": 2010, "day": 19, "month": 5, "categories": {"DJ": {"distance": 10, "rank": 10, "pace": 311000000000, "time": 3081.7}}, "weekday": "wednesday", "livingplace": "La Chaux de Fonds"}}, "location": "Couvet"}, "Kerzerslauf": {"latitude": 46.97488999999999, "longitude": 7.1954365, "race": "Kerzerslauf", "date": {"sam. 20.03.2010": {"year": 2010, "day": 20, "month": 3, "categories": {"5-F05": {"distance": 5, "rank": 50, "pace": 286000000000, "time": 1432.1}}, "weekday": "saturday", "livingplace": "La Sagne"}, "sam. 15.03.2014": {"year": 2014, "day": 15, "month": 3, "categories": {"15-F20": {"distance": 15, "rank": 300, "pace": 343000000000, "time": 5156.2}}, "weekday": "saturday", "livingplace": "La Chaux de Fonds"}, "sam. 17.03.2012": {"year": 2012, "day": 17, "month": 3, "categories": {"5-F19": {"distance": 5, "rank": 34, "pace": 315000000000, "time": 1579.7}}, "weekday": "saturday", "livingplace": "La Chaux de Fonds"}, "sam. 21.03.2009": {"year": 2009, "day": 21, "month": 3, "categories": {"5-F05": {"distance": 5, "rank": 59, "pace": 305000000000, "time": 1527.3}}, "weekday": "saturday", "livingplace": "La Sagne"}, "sam. 16.03.2013": {"year": 2013, "day": 16, "month": 3, "categories": {"5-F20": {"distance": 5, "rank": 72, "pace": 321000000000, "time": 1609.2}}, "weekday": "saturday", "livingplace": "La Chaux de Fonds"}}, "location": "Kerzers"}, "Les Traine-Savates, Cheseaux-sur-Lausanne": {"latitude": 46.585452, "longitude": 6.6047712, "race": "Les Traine-Savates, Cheseaux-sur-Lausanne", "date": {"sam. 14.04.2012": {"year": 2012, "day": 14, "month": 4, "categories": {"10-U20W": {"distance": 10, "rank": 4, "pace": 342000000000, "time": 3563.0}}, "weekday": "saturday", "livingplace": "La Chaux de Fonds"}}, "location": "Cheseaux-sur-Lausanne"}}, "birth": 1993}