{"name": "Aubert Alexandra", "sex": "F", "races": {"Tour du Pays de Vaud printanier #2 Yverdon-les-Bains": {"latitude": 46.6698891, "longitude": 6.7975224, "race": "Tour du Pays de Vaud printanier #2 Yverdon-les-Bains", "date": {"mer. 11.06.2014": {"year": 2014, "day": 11, "month": 6, "categories": {"D-Sen1": {"distance": 9, "rank": 20, "pace": 373000000000, "time": 3398.2}}, "weekday": "wednesday", "livingplace": "Denezy"}}, "location": "Moudon"}, "Tour du Pays de Vaud #1, Penthaz": {"latitude": 46.5993131, "longitude": 6.539251200000001, "race": "Tour du Pays de Vaud #1, Penthaz", "date": {"mer. 13.08.2014": {"year": 2014, "day": 13, "month": 8, "categories": {"D-Sen1": {"distance": 9, "rank": 46, "pace": 359000000000, "time": 3070.5}}, "weekday": "wednesday", "livingplace": "Denezy"}}, "location": "Penthaz"}, "Tour du Pays de Vaud #2, Mezi\u00e8res": {"latitude": 46.5955273, "longitude": 6.7702883, "race": "Tour du Pays de Vaud #2, Mezi\u00e8res", "date": {"mer. 20.08.2014": {"year": 2014, "day": 20, "month": 8, "categories": {"D-Sen1": {"distance": 8, "rank": 40, "pace": 388000000000, "time": 3146.3}}, "weekday": "wednesday", "livingplace": "Denezy"}}, "location": "M\u00e9zi\u00e8res VD"}, "Tour du Pays de Vaud printanier #1 Moudon": {"latitude": 46.3832683, "longitude": 6.2347852, "race": "Tour du Pays de Vaud printanier #1 Moudon", "date": {"mer. 04.06.2014": {"year": 2014, "day": 4, "month": 6, "categories": {"D-Sen1": {"distance": 8, "rank": 28, "pace": 372000000000, "time": 3129.1}}, "weekday": "wednesday", "livingplace": "Denezy"}}, "location": "Nyon"}, "20km de Lausanne": {"latitude": 46.5196535, "longitude": 6.6322734, "race": "20km de Lausanne", "date": {"sam. 25.04.2015": {"year": 2015, "day": 25, "month": 4, "categories": {"20-F30": {"distance": 20, "rank": 241, "pace": 379000000000, "time": 7584.9}}, "weekday": "saturday", "livingplace": "Oenezy"}}, "location": "Lausanne"}, "Tour du Pays de Vaud #4, La Sarraz": {"latitude": 46.7088129, "longitude": 6.5707689, "race": "Tour du Pays de Vaud #4, La Sarraz", "date": {"mer. 03.09.2014": {"year": 2014, "day": 3, "month": 9, "categories": {"D-Sen1": {"distance": 9, "rank": 53, "pace": 352000000000, "time": 2996.9}}, "weekday": "wednesday", "livingplace": "Denezy"}}, "location": "Chavornay"}, "Tour du Pays de Vaud #3, Chavornay": {"latitude": 46.7784736, "longitude": 6.641183, "race": "Tour du Pays de Vaud #3, Chavornay", "date": {"mer. 27.08.2014": {"year": 2014, "day": 27, "month": 8, "categories": {"D-Sen1": {"distance": 9, "rank": 44, "pace": 366000000000, "time": 3148.6}}, "weekday": "wednesday", "livingplace": "Denezy"}}, "location": "Yverdon-les-Bains"}}, "birth": 1979}