{"name": "Aubert Tim", "sex": "M", "races": {"Lausanne Marathon": {"latitude": 46.5196535, "longitude": 6.6322734, "race": "Lausanne Marathon", "date": {"sam. 24.10.2015": {"year": 2015, "day": 24, "month": 10, "categories": {"10-JunG": {"distance": 10, "rank": 80, "pace": 268000000000, "time": 2683.0}}, "weekday": "saturday", "livingplace": "Epalinges"}, "dim. 26.10.2014": {"year": 2014, "day": 26, "month": 10, "categories": {"10-JunG": {"distance": 10, "rank": 42, "pace": 246000000000, "time": 2460.1}}, "weekday": "sunday", "livingplace": "Epalinges"}, "dim. 27.10.2013": {"year": 2013, "day": 27, "month": 10, "categories": {"10-JG": {"distance": 10, "rank": 13, "pace": 228000000000, "time": 2280.5}}, "weekday": "sunday", "livingplace": "Epalinges"}}, "location": "Lausanne"}, "Course Titz\u00e9 de no\u00ebl Sion": {"latitude": 46.2331221, "longitude": 7.360625999999999, "race": "Course Titz\u00e9 de no\u00ebl Sion", "date": {"sam. 14.12.2013": {"year": 2013, "day": 14, "month": 12, "categories": {"K-CMA": {"distance": 4, "rank": 10, "pace": 208000000000, "time": 834.5}}, "weekday": "saturday", "livingplace": "Suisse"}}, "location": "Sion"}, "Corrida Bulloise, Bulle": {"latitude": 46.6154512, "longitude": 7.057726799999999, "race": "Corrida Bulloise, Bulle", "date": {"sam. 17.11.2012": {"year": 2012, "day": 17, "month": 11, "categories": {"CM-U18": {"distance": 5, "rank": 8, "pace": 221000000000, "time": 1141.7}}, "weekday": "saturday", "livingplace": "Epalinges"}}, "location": "Bulle"}, "10km, Payerne": {"latitude": 46.8220266, "longitude": 6.9405663, "race": "10km, Payerne", "date": {"sam. 16.04.2011": {"year": 2011, "day": 16, "month": 4, "categories": {"M U16": {"distance": 1, "rank": 1, "pace": 195000000000, "time": 292.7}}, "weekday": "saturday", "livingplace": "Epalinges"}}, "location": "Payerne"}, "20km de Lausanne": {"latitude": 46.5196535, "longitude": 6.6322734, "race": "20km de Lausanne", "date": {"sam. 30.04.2011": {"year": 2011, "day": 30, "month": 4, "categories": {"4-CadM": {"distance": 4, "rank": 6, "pace": 220000000000, "time": 880.1}}, "weekday": "saturday", "livingplace": "Epalinges"}, "sam. 24.04.2004": {"year": 2004, "day": 24, "month": 4, "categories": {"27": {"distance": 4, "rank": 105, "pace": 329000000000, "time": 1316.8}}, "weekday": "saturday", "livingplace": "Epalinges"}, "sam. 28.04.2012": {"year": 2012, "day": 28, "month": 4, "categories": {"4-CadM": {"distance": 4, "rank": 7, "pace": 215000000000, "time": 860.6}}, "weekday": "saturday", "livingplace": "Epalinges"}}, "location": "Lausanne"}, "Les Traine-Savates, Cheseaux-sur-Lausanne": {"latitude": 46.585452, "longitude": 6.6047712, "race": "Les Traine-Savates, Cheseaux-sur-Lausanne", "date": {"sam. 10.04.2010": {"year": 2010, "day": 10, "month": 4, "categories": {"CadB-M": {"distance": 3, "rank": 6, "pace": 230000000000, "time": 785.3}}, "weekday": "saturday", "livingplace": "Epalinges"}}, "location": "Cheseaux-sur-Lausanne"}}, "birth": 1996}