{"name": "Bacher Hugo", "sex": "M", "races": {"Montreux - Les Rochers de Naye": {"latitude": 46.4312213, "longitude": 6.9106799, "race": "Montreux - Les Rochers de Naye", "date": {"dim. 05.07.2015": {"year": 2015, "day": 5, "month": 7, "categories": {"C-HJun": {"distance": 10, "rank": 16, "pace": 605000000000, "time": 5751.4}}, "weekday": "sunday", "livingplace": "Penthalaz"}}, "location": "Montreux"}, "Morat-Fribourg": {"latitude": 46.92922110000001, "longitude": 7.120184, "race": "Morat-Fribourg", "date": {"sam. 03.10.2015": {"year": 2015, "day": 3, "month": 10, "categories": {"CadMB": {"distance": 3, "rank": 5, "pace": 236000000000, "time": 828.3}}, "weekday": "saturday", "livingplace": "Penthaz"}}, "location": "Murten"}, "Lausanne Marathon": {"latitude": 46.5196535, "longitude": 6.6322734, "race": "Lausanne Marathon", "date": {"dim. 26.10.2014": {"year": 2014, "day": 26, "month": 10, "categories": {"M-Gar5": {"distance": 4, "rank": 24, "pace": 190000000000, "time": 801.1}}, "weekday": "sunday", "livingplace": "Penthaz"}}, "location": "Lausanne"}, "20km de Lausanne": {"latitude": 46.5196535, "longitude": 6.6322734, "race": "20km de Lausanne", "date": {"sam. 27.04.2013": {"year": 2013, "day": 27, "month": 4, "categories": {"4-EcoB-M": {"distance": 4, "rank": 63, "pace": 285000000000, "time": 1141.3}}, "weekday": "saturday", "livingplace": "Penthaz"}, "sam. 25.04.2009": {"year": 2009, "day": 25, "month": 4, "categories": {"Pouss-M": {"distance": 2, "rank": 216, "pace": 340000000000, "time": 681.8}}, "weekday": "saturday", "livingplace": "Penthaz"}, "sam. 25.04.2015": {"year": 2015, "day": 25, "month": 4, "categories": {"4-H17": {"distance": 4, "rank": 117, "pace": 264000000000, "time": 1057.3}}, "weekday": "saturday", "livingplace": "les Traines Gourdins"}, "sam. 26.04.2014": {"year": 2014, "day": 26, "month": 4, "categories": {"4-EcoA-M": {"distance": 4, "rank": 63, "pace": 296000000000, "time": 1186.9}}, "weekday": "saturday", "livingplace": "Penthaz"}}, "location": "Lausanne"}, "Les Traine-Savates, Cheseaux-sur-Lausanne": {"latitude": 46.585452, "longitude": 6.6047712, "race": "Les Traine-Savates, Cheseaux-sur-Lausanne", "date": {"sam. 13.04.2013": {"year": 2013, "day": 13, "month": 4, "categories": {"U14M": {"distance": 3, "rank": 14, "pace": 277000000000, "time": 917.3}}, "weekday": "saturday", "livingplace": "Penthaz"}, "sam. 12.04.2014": {"year": 2014, "day": 12, "month": 4, "categories": {"U14M": {"distance": 3, "rank": 12, "pace": 262000000000, "time": 865.1}}, "weekday": "saturday", "livingplace": "Penthaz"}}, "location": "Cheseaux-sur-Lausanne"}, "Kerzerslauf": {"latitude": 46.97488999999999, "longitude": 7.1954365, "race": "Kerzerslauf", "date": {"sam. 21.03.2015": {"year": 2015, "day": 21, "month": 3, "categories": {"5-U18M": {"distance": 5, "rank": 55, "pace": 277000000000, "time": 1389.4}}, "weekday": "saturday", "livingplace": "Penthaz"}}, "location": "Kerzers"}}, "birth": 2001}