{"name": "Bach Philippe", "sex": "M", "races": {"Tour du pays de Vaud #1 \u2013 St  Prex": {"latitude": 46.7784736, "longitude": 6.641183, "race": "Tour du pays de Vaud #1 \u2013 St  Prex", "date": {"mer. 11.08.2010": {"year": 2010, "day": 11, "month": 8, "categories": {"HSen2": {"distance": 8, "rank": 44, "pace": 280000000000, "time": 2357.2}}, "weekday": "wednesday", "livingplace": "Carrouge"}}, "location": "Yverdon-les-Bains"}, "Lausanne Marathon": {"latitude": 46.5196535, "longitude": 6.6322734, "race": "Lausanne Marathon", "date": {"dim. 30.10.2011": {"year": 2011, "day": 30, "month": 10, "categories": {"10-H3": {"distance": 10, "rank": 49, "pace": 244000000000, "time": 2442.6}}, "weekday": "sunday", "livingplace": "Carrouge"}, "dim. 27.10.2013": {"year": 2013, "day": 27, "month": 10, "categories": {"10-H3": {"distance": 10, "rank": 39, "pace": 242000000000, "time": 2425.5}}, "weekday": "sunday", "livingplace": "Carrouge"}, "dim. 28.10.2012": {"year": 2012, "day": 28, "month": 10, "categories": {"10-H3": {"distance": 10, "rank": 45, "pace": 244000000000, "time": 2444.0}}, "weekday": "sunday", "livingplace": "Carrouge"}}, "location": "Lausanne"}, "Tour du Pays de Vaud #4, La Sarraz": {"latitude": 46.7088129, "longitude": 6.5707689, "race": "Tour du Pays de Vaud #4, La Sarraz", "date": {"mer. 03.09.2014": {"year": 2014, "day": 3, "month": 9, "categories": {"H-Sen2": {"distance": 9, "rank": 14, "pace": 251000000000, "time": 2137.4}}, "weekday": "wednesday", "livingplace": "Carrouge"}}, "location": "Chavornay"}, "Tour du pays de Vaud #6 - St  Prex": {"latitude": 46.4829113, "longitude": 6.458343500000001, "race": "Tour du pays de Vaud #6 - St  Prex", "date": {"mer. 14.09.2011": {"year": 2011, "day": 14, "month": 9, "categories": {"H-Sen2": {"distance": 9, "rank": 35, "pace": 250000000000, "time": 2153.0}}, "weekday": "wednesday", "livingplace": "Carrouge"}}, "location": "St-Prex"}, "Tour du Pays de Vaud #2, Mezi\u00e8res": {"latitude": 46.5955273, "longitude": 6.7702883, "race": "Tour du Pays de Vaud #2, Mezi\u00e8res", "date": {"mer. 20.08.2014": {"year": 2014, "day": 20, "month": 8, "categories": {"H-Sen2": {"distance": 8, "rank": 19, "pace": 274000000000, "time": 2221.6}}, "weekday": "wednesday", "livingplace": "Carrouge"}}, "location": "M\u00e9zi\u00e8res VD"}, "Tour du pays de Vaud #1 - Mezi\u00e8res": {"latitude": 46.7784736, "longitude": 6.641183, "race": "Tour du pays de Vaud #1 - Mezi\u00e8res", "date": {"mer. 10.08.2011": {"year": 2011, "day": 10, "month": 8, "categories": {"H-Sen2": {"distance": 9, "rank": 41, "pace": 253000000000, "time": 2152.1}}, "weekday": "wednesday", "livingplace": "Carrouge"}}, "location": "Yverdon-les-Bains"}, "Tour du pays de Vaud #5 - Penthaz": {"latitude": 46.5993131, "longitude": 6.539251200000001, "race": "Tour du pays de Vaud #5 - Penthaz", "date": {"mer. 07.09.2011": {"year": 2011, "day": 7, "month": 9, "categories": {"H-Sen2": {"distance": 8, "rank": 25, "pace": 275000000000, "time": 2301.3}}, "weekday": "wednesday", "livingplace": "Carrouge"}}, "location": "Penthaz"}, "Morat-Fribourg": {"latitude": 46.92922110000001, "longitude": 7.120184, "race": "Morat-Fribourg", "date": {"sam. 01.10.2011": {"year": 2011, "day": 1, "month": 10, "categories": {"17-M40": {"distance": 17, "rank": 169, "pace": 279000000000, "time": 4807.3}}, "weekday": "saturday", "livingplace": "Carrouge"}, "sam. 06.10.2012": {"year": 2012, "day": 6, "month": 10, "categories": {"17-M40": {"distance": 17, "rank": 134, "pace": 272000000000, "time": 4750.8}}, "weekday": "saturday", "livingplace": "Carrouge"}, "sam. 04.10.2014": {"year": 2014, "day": 4, "month": 10, "categories": {"17-M40": {"distance": 17, "rank": 193, "pace": 286000000000, "time": 4926.7}}, "weekday": "saturday", "livingplace": "Carrouge"}}, "location": "Murten"}, "20km de Lausanne": {"latitude": 46.5196535, "longitude": 6.6322734, "race": "20km de Lausanne", "date": {"sam. 30.04.2011": {"year": 2011, "day": 30, "month": 4, "categories": {"10-H40": {"distance": 10, "rank": 49, "pace": 260000000000, "time": 2602.0}}, "weekday": "saturday", "livingplace": "Carrouge"}}, "location": "Lausanne"}, "Tour du Pays de Vaud #2 - Mezi\u00e8res": {"latitude": 46.5955273, "longitude": 6.7702883, "race": "Tour du Pays de Vaud #2 - Mezi\u00e8res", "date": {"mer. 21.08.2013": {"year": 2013, "day": 21, "month": 8, "categories": {"H-Sen2": {"distance": 8, "rank": 22, "pace": 273000000000, "time": 2212.8}}, "weekday": "wednesday", "livingplace": "Carrouge"}}, "location": "M\u00e9zi\u00e8res VD"}}, "birth": 1970}