{"name": "Badstuber Romain", "sex": "M", "races": {"BCN Tour La Chaux-de-Fonds": {"latitude": 46.9262933, "longitude": 6.6324944, "race": "BCN Tour La Chaux-de-Fonds", "date": {"mer. 23.05.2012": {"year": 2012, "day": 23, "month": 5, "categories": {"HE": {"distance": 11, "rank": 20, "pace": 247000000000, "time": 2675.3}}, "weekday": "wednesday", "livingplace": "Morteau"}}, "location": "Couvet"}, "BCN Tour Les Ponts-de-Martel": {"latitude": 46.999113, "longitude": 6.733554799999999, "race": "BCN Tour Les Ponts-de-Martel", "date": {"mer. 09.05.2012": {"year": 2012, "day": 9, "month": 5, "categories": {"HE": {"distance": 10, "rank": 28, "pace": 255000000000, "time": 2628.5}}, "weekday": "wednesday", "livingplace": "Morteau"}}, "location": "Les Ponts-de-Martel"}, "BCN Tour Neuch\u00e2tel": {"latitude": 46.9899874, "longitude": 6.9292732, "race": "BCN Tour Neuch\u00e2tel", "date": {"mer. 26.05.2010": {"year": 2010, "day": 26, "month": 5, "categories": {"HE": {"distance": 10, "rank": 23, "pace": 261000000000, "time": 2540.7}}, "weekday": "wednesday", "livingplace": "Morteau"}}, "location": "Neuch\u00e2tel"}, "Lausanne Marathon": {"latitude": 46.5196535, "longitude": 6.6322734, "race": "Lausanne Marathon", "date": {"sam. 24.10.2015": {"year": 2015, "day": 24, "month": 10, "categories": {"21-H30": {"distance": 21, "rank": 19, "pace": 224000000000, "time": 4740.7}}, "weekday": "saturday", "livingplace": "Morteau"}}, "location": "Lausanne"}, "BCN Tour M\u00f4tier": {"latitude": 46.9262933, "longitude": 6.6324944, "race": "BCN Tour M\u00f4tier", "date": {"mer. 19.05.2010": {"year": 2010, "day": 19, "month": 5, "categories": {"HE": {"distance": 10, "rank": 19, "pace": 236000000000, "time": 2338.4}}, "weekday": "wednesday", "livingplace": "Morteau"}}, "location": "Couvet"}, "BCN Tour Couvet": {"latitude": 47.0624261, "longitude": 6.9175754, "race": "BCN Tour Couvet", "date": {"mer. 02.05.2012": {"year": 2012, "day": 2, "month": 5, "categories": {"HE": {"distance": 11, "rank": 28, "pace": 260000000000, "time": 2908.8}}, "weekday": "wednesday", "livingplace": "Morteau"}}, "location": "Ch\u00e9zard-St-Martin"}, "BCN Tour Cornaux": {"latitude": 46.9668714, "longitude": 6.8589727, "race": "BCN Tour Cornaux", "date": {"mer. 25.04.2012": {"year": 2012, "day": 25, "month": 4, "categories": {"HE": {"distance": 11, "rank": 21, "pace": 274000000000, "time": 3019.7}}, "weekday": "wednesday", "livingplace": "Morteau"}}, "location": "Colombier NE"}, "BCN Tour Colombier": {"latitude": 46.9668714, "longitude": 6.8589727, "race": "BCN Tour Colombier", "date": {"mer. 21.04.2010": {"year": 2010, "day": 21, "month": 4, "categories": {"HE": {"distance": 10, "rank": 19, "pace": 272000000000, "time": 2725.4}}, "weekday": "wednesday", "livingplace": "Morteau"}}, "location": "Colombier NE"}}, "birth": 1983}