{"name": "Baechler Jo\u00ebl", "sex": "M", "races": {"Groupe E Tour Fribourg #1 Gurmels": {"latitude": 46.81832, "longitude": 6.977279999999999, "race": "Groupe E Tour Fribourg #1 Gurmels", "date": {"mer. 29.08.2012": {"year": 2012, "day": 29, "month": 8, "categories": {"HS1": {"distance": 8, "rank": 29, "pace": 284000000000, "time": 2386.1}}, "weekday": "wednesday", "livingplace": "Avry sur Matran"}}, "location": "Cousset"}, "Morat-Fribourg": {"latitude": 46.92922110000001, "longitude": 7.120184, "race": "Morat-Fribourg", "date": {"sam. 05.10.2013": {"year": 2013, "day": 5, "month": 10, "categories": {"17-M20": {"distance": 17, "rank": 398, "pace": 264000000000, "time": 4617.2}}, "weekday": "saturday", "livingplace": "Avry sur Matran"}, "sam. 06.10.2012": {"year": 2012, "day": 6, "month": 10, "categories": {"17-M20": {"distance": 17, "rank": 714, "pace": 287000000000, "time": 5010.1}}, "weekday": "saturday", "livingplace": "Avry sur Matran"}, "sam. 04.10.2014": {"year": 2014, "day": 4, "month": 10, "categories": {"17-M20": {"distance": 17, "rank": 577, "pace": 280000000000, "time": 4824.7}}, "weekday": "saturday", "livingplace": "Avry sur Matran"}}, "location": "Murten"}, "Corrida Bulloise, Bulle": {"latitude": 46.6154512, "longitude": 7.057726799999999, "race": "Corrida Bulloise, Bulle", "date": {"sam. 20.11.2010": {"year": 2010, "day": 20, "month": 11, "categories": {"PH": {"distance": 6, "rank": 154, "pace": 271000000000, "time": 1668.1}}, "weekday": "saturday", "livingplace": "Avry sur Matran"}, "sam. 19.11.2011": {"year": 2011, "day": 19, "month": 11, "categories": {"PH": {"distance": 6, "rank": 70, "pace": 254000000000, "time": 1568.0}}, "weekday": "saturday", "livingplace": "Avry sur Matran"}}, "location": "Bulle"}, "Groupe E Tour Fribourg #2 Kerzers": {"latitude": 46.6175845, "longitude": 7.1654493, "race": "Groupe E Tour Fribourg #2 Kerzers", "date": {"mer. 28.08.2013": {"year": 2013, "day": 28, "month": 8, "categories": {"HS1": {"distance": 12, "rank": 18, "pace": 255000000000, "time": 3028.4}}, "weekday": "wednesday", "livingplace": "Avry sur Matran"}}, "location": "Charmey (Gruy\u00e8re)"}, "20km de Lausanne": {"latitude": 46.5196535, "longitude": 6.6322734, "race": "20km de Lausanne", "date": {"sam. 27.04.2013": {"year": 2013, "day": 27, "month": 4, "categories": {"20-H30": {"distance": 20, "rank": 286, "pace": 275000000000, "time": 5508.1}}, "weekday": "saturday", "livingplace": "Avry sur Matran"}}, "location": "Lausanne"}, "Groupe E Tour Fribourg #4, Siviriez": {"latitude": 46.6585092, "longitude": 6.877722, "race": "Groupe E Tour Fribourg #4, Siviriez", "date": {"mer. 10.09.2014": {"year": 2014, "day": 10, "month": 9, "categories": {"H-Sen1": {"distance": 11, "rank": 42, "pace": 318000000000, "time": 3436.6}}, "weekday": "wednesday", "livingplace": "Avry sur Matran"}}, "location": "Siviriez"}, "Lausanne Marathon": {"latitude": 46.5196535, "longitude": 6.6322734, "race": "Lausanne Marathon", "date": {"dim. 30.10.2011": {"year": 2011, "day": 30, "month": 10, "categories": {"21-H1": {"distance": 21, "rank": 209, "pace": 289000000000, "time": 6112.6}}, "weekday": "sunday", "livingplace": "Avry sur Matran"}}, "location": "Lausanne"}, "Groupe E Tour Fribourg #1 Siviriez": {"latitude": 46.81832, "longitude": 6.977279999999999, "race": "Groupe E Tour Fribourg #1 Siviriez", "date": {"mer. 21.08.2013": {"year": 2013, "day": 21, "month": 8, "categories": {"HS1": {"distance": 10, "rank": 23, "pace": 267000000000, "time": 2617.9}}, "weekday": "wednesday", "livingplace": "Avry sur Matran"}}, "location": "Cousset"}, "Course de l'Avent, Fribourg": {"latitude": 46.8064773, "longitude": 7.161971899999999, "race": "Course de l'Avent, Fribourg", "date": {"dim. 23.11.2014": {"year": 2014, "day": 23, "month": 11, "categories": {"P-H30": {"distance": 6, "rank": 8, "pace": 253000000000, "time": 1596.6}}, "weekday": "sunday", "livingplace": "Avry sur Matran"}, "dim. 25.11.2012": {"year": 2012, "day": 25, "month": 11, "categories": {"P-H30": {"distance": 6, "rank": 4, "pace": 293000000000, "time": 1672.8}}, "weekday": "sunday", "livingplace": "Avry sur Matran"}}, "location": "Fribourg"}, "Groupe E Tour Fribourg #5, Givisiez": {"latitude": 46.8128615, "longitude": 7.131657799999999, "race": "Groupe E Tour Fribourg #5, Givisiez", "date": {"mer. 17.09.2014": {"year": 2014, "day": 17, "month": 9, "categories": {"H-Sen1": {"distance": 10, "rank": 44, "pace": 283000000000, "time": 2913.1}}, "weekday": "wednesday", "livingplace": "Avry sur Matran"}}, "location": "Givisiez"}, "Kerzerslauf": {"latitude": 46.97488999999999, "longitude": 7.1954365, "race": "Kerzerslauf", "date": {"sam. 17.03.2012": {"year": 2012, "day": 17, "month": 3, "categories": {"15-M20": {"distance": 15, "rank": 311, "pace": 283000000000, "time": 4252.7}}, "weekday": "saturday", "livingplace": "Avry sur Matran"}, "sam. 15.03.2014": {"year": 2014, "day": 15, "month": 3, "categories": {"15-M20": {"distance": 15, "rank": 236, "pace": 269000000000, "time": 4038.3}}, "weekday": "saturday", "livingplace": "Avry sur Matran"}, "sam. 16.03.2013": {"year": 2013, "day": 16, "month": 3, "categories": {"15-M20": {"distance": 15, "rank": 239, "pace": 272000000000, "time": 4094.4}}, "weekday": "saturday", "livingplace": "Avry sur Matran"}}, "location": "Kerzers"}, "Course de l'Escalade, Gen\u00e8ve": {"latitude": 46.2043907, "longitude": 6.1431577, "race": "Course de l'Escalade, Gen\u00e8ve", "date": {"sam. 04.12.2010": {"year": 2010, "day": 4, "month": 12, "categories": {"H-H1": {"distance": 7, "rank": 431, "pace": 258000000000, "time": 1871.9}}, "weekday": "saturday", "livingplace": "Avry sur Matran"}}, "location": "Gen\u00e8ve"}, "Groupe E Tour Fribourg #3 Estavayer-le-Lac": {"latitude": 46.97488999999999, "longitude": 7.1954365, "race": "Groupe E Tour Fribourg #3 Estavayer-le-Lac", "date": {"mer. 12.09.2012": {"year": 2012, "day": 12, "month": 9, "categories": {"HS1": {"distance": 10, "rank": 23, "pace": 249000000000, "time": 2456.0}}, "weekday": "wednesday", "livingplace": "Avry sur Matran"}}, "location": "Kerzers"}, "Groupe E Tour Fribourg #4 Montagny": {"latitude": 46.6585092, "longitude": 6.877722, "race": "Groupe E Tour Fribourg #4 Montagny", "date": {"mer. 11.09.2013": {"year": 2013, "day": 11, "month": 9, "categories": {"HS1": {"distance": 10, "rank": 23, "pace": 252000000000, "time": 2476.8}}, "weekday": "wednesday", "livingplace": "Avry sur Matran"}}, "location": "Siviriez"}, "Groupe E Tour Fribourg #4 Siviriez": {"latitude": 46.6585092, "longitude": 6.877722, "race": "Groupe E Tour Fribourg #4 Siviriez", "date": {"mer. 19.09.2012": {"year": 2012, "day": 19, "month": 9, "categories": {"HS1": {"distance": 9, "rank": 17, "pace": 266000000000, "time": 2508.8}}, "weekday": "wednesday", "livingplace": "Avry sur Matran"}}, "location": "Siviriez"}, "Groupe E Tour Fribourg #1, Cousset": {"latitude": 46.81832, "longitude": 6.977279999999999, "race": "Groupe E Tour Fribourg #1, Cousset", "date": {"mer. 20.08.2014": {"year": 2014, "day": 20, "month": 8, "categories": {"H-Sen1": {"distance": 9, "rank": 34, "pace": 267000000000, "time": 2518.8}}, "weekday": "wednesday", "livingplace": "Avry sur Matran"}}, "location": "Cousset"}, "Z\u00fcrich Marathon, Teamrun und Cityrun": {"latitude": 47.3768866, "longitude": 8.541694, "race": "Z\u00fcrich Marathon, Teamrun und Cityrun", "date": {"dim. 22.04.2012": {"year": 2012, "day": 22, "month": 4, "categories": {"42-M30": {"distance": 42, "rank": 345, "pace": 327000000000, "time": 13836.4}}, "weekday": "sunday", "livingplace": "Avry sur Matran"}}, "location": "Z\u00fcrich"}, "BCN Tour #6 Neuch\u00e2tel": {"latitude": 46.9899874, "longitude": 6.9292732, "race": "BCN Tour #6 Neuch\u00e2tel", "date": {"mer. 29.05.2013": {"year": 2013, "day": 29, "month": 5, "categories": {"HS1": {"distance": 11, "rank": 94, "pace": 286000000000, "time": 3153.8}}, "weekday": "wednesday", "livingplace": "Avry sur Matran"}}, "location": "Neuch\u00e2tel"}, "Groupe E Tour Fribourg #2, Charmey": {"latitude": 46.6175845, "longitude": 7.1654493, "race": "Groupe E Tour Fribourg #2, Charmey", "date": {"mer. 27.08.2014": {"year": 2014, "day": 27, "month": 8, "categories": {"H-Sen1": {"distance": 10, "rank": 48, "pace": 310000000000, "time": 2995.2}}, "weekday": "wednesday", "livingplace": "Avry sur Matran"}}, "location": "Charmey (Gruy\u00e8re)"}, "Groupe E Tour Fribourg #5 Fribourg": {"latitude": 46.8128615, "longitude": 7.131657799999999, "race": "Groupe E Tour Fribourg #5 Fribourg", "date": {"mer. 18.09.2013": {"year": 2013, "day": 18, "month": 9, "categories": {"HS1": {"distance": 10, "rank": 26, "pace": 251000000000, "time": 2512.6}}, "weekday": "wednesday", "livingplace": "Avry sur Matran"}, "mer. 26.09.2012": {"year": 2012, "day": 26, "month": 9, "categories": {"HS1": {"distance": 11, "rank": 27, "pace": 269000000000, "time": 2883.5}}, "weekday": "wednesday", "livingplace": "Avry sur Matran"}}, "location": "Givisiez"}, "Groupe E Tour Fribourg #3 Charmey": {"latitude": 46.97488999999999, "longitude": 7.1954365, "race": "Groupe E Tour Fribourg #3 Charmey", "date": {"mer. 04.09.2013": {"year": 2013, "day": 4, "month": 9, "categories": {"HS1": {"distance": 11, "rank": 28, "pace": 285000000000, "time": 3099.5}}, "weekday": "wednesday", "livingplace": "Avry sur Matran"}}, "location": "Kerzers"}, "Groupe E Tour Fribourg #2 Plafayon": {"latitude": 46.6175845, "longitude": 7.1654493, "race": "Groupe E Tour Fribourg #2 Plafayon", "date": {"mer. 05.09.2012": {"year": 2012, "day": 5, "month": 9, "categories": {"HS1": {"distance": 9, "rank": 26, "pace": 254000000000, "time": 2378.8}}, "weekday": "wednesday", "livingplace": "Avry sur Matran"}}, "location": "Charmey (Gruy\u00e8re)"}}, "birth": 1982}