{"name": "Baeriswyl Vincent", "sex": "M", "races": {"Groupe E Tour Fribourg #4, Siviriez": {"latitude": 46.6585092, "longitude": 6.877722, "race": "Groupe E Tour Fribourg #4, Siviriez", "date": {"mer. 10.09.2014": {"year": 2014, "day": 10, "month": 9, "categories": {"H-Elite": {"distance": 11, "rank": 8, "pace": 253000000000, "time": 2732.8}}, "weekday": "wednesday", "livingplace": "Bourguillon"}}, "location": "Siviriez"}, "Morat-Fribourg": {"latitude": 46.92922110000001, "longitude": 7.120184, "race": "Morat-Fribourg", "date": {"dim. 07.10.2001": {"year": 2001, "day": 7, "month": 10, "categories": {"EMC": {"distance": 1, "rank": 22, "pace": 282000000000, "time": 338.7}}, "weekday": "sunday", "livingplace": "Fribourg"}, "dim. 06.10.2002": {"year": 2002, "day": 6, "month": 10, "categories": {"EMB": {"distance": 2, "rank": 20, "pace": 258000000000, "time": 542.7}}, "weekday": "sunday", "livingplace": "Fribourg"}}, "location": "Murten"}, "Groupe E Tour Fribourg #2, Charmey": {"latitude": 46.6175845, "longitude": 7.1654493, "race": "Groupe E Tour Fribourg #2, Charmey", "date": {"mer. 27.08.2014": {"year": 2014, "day": 27, "month": 8, "categories": {"H-Elite": {"distance": 10, "rank": 2, "pace": 237000000000, "time": 2295.5}}, "weekday": "wednesday", "livingplace": "Bourguillon"}}, "location": "Charmey (Gruy\u00e8re)"}, "Groupe E Tour Fribourg #1 Siviriez": {"latitude": 46.81832, "longitude": 6.977279999999999, "race": "Groupe E Tour Fribourg #1 Siviriez", "date": {"mer. 21.08.2013": {"year": 2013, "day": 21, "month": 8, "categories": {"HE": {"distance": 10, "rank": 4, "pace": 236000000000, "time": 2316.5}}, "weekday": "wednesday", "livingplace": "Bourguillon"}}, "location": "Cousset"}, "Groupe E Tour Fribourg #2 Kerzers": {"latitude": 46.6175845, "longitude": 7.1654493, "race": "Groupe E Tour Fribourg #2 Kerzers", "date": {"mer. 28.08.2013": {"year": 2013, "day": 28, "month": 8, "categories": {"HE": {"distance": 12, "rank": 4, "pace": 235000000000, "time": 2788.8}}, "weekday": "wednesday", "livingplace": "Bourguillon"}}, "location": "Charmey (Gruy\u00e8re)"}, "Les Traine-Savates, Cheseaux-sur-Lausanne": {"latitude": 46.585452, "longitude": 6.6047712, "race": "Les Traine-Savates, Cheseaux-sur-Lausanne", "date": {"sam. 18.04.2015": {"year": 2015, "day": 18, "month": 4, "categories": {"10-M20": {"distance": 10, "rank": 265, "pace": 343000000000, "time": 3535.7}}, "weekday": "saturday", "livingplace": "Bourguillon"}}, "location": "Cheseaux-sur-Lausanne"}, "Groupe E Tour Fribourg #5, Givisiez": {"latitude": 46.8128615, "longitude": 7.131657799999999, "race": "Groupe E Tour Fribourg #5, Givisiez", "date": {"mer. 17.09.2014": {"year": 2014, "day": 17, "month": 9, "categories": {"H-Elite": {"distance": 10, "rank": 4, "pace": 227000000000, "time": 2340.1}}, "weekday": "wednesday", "livingplace": "Bourguillon"}}, "location": "Givisiez"}, "Groupe E Tour Fribourg #3, Kerzers": {"latitude": 46.97488999999999, "longitude": 7.1954365, "race": "Groupe E Tour Fribourg #3, Kerzers", "date": {"mer. 03.09.2014": {"year": 2014, "day": 3, "month": 9, "categories": {"H-Ellite": {"distance": 10, "rank": 4, "pace": 218000000000, "time": 2219.0}}, "weekday": "wednesday", "livingplace": "Bourguillon"}}, "location": "Kerzers"}, "Groupe E Tour Fribourg #1, Cousset": {"latitude": 46.81832, "longitude": 6.977279999999999, "race": "Groupe E Tour Fribourg #1, Cousset", "date": {"mer. 20.08.2014": {"year": 2014, "day": 20, "month": 8, "categories": {"H-Elite": {"distance": 9, "rank": 4, "pace": 216000000000, "time": 2038.2}}, "weekday": "wednesday", "livingplace": "Bourguillon"}}, "location": "Cousset"}}, "birth": 1992}