{"name": "Baeriswyl Cindy", "sex": "F", "races": {"Tour du Chablais #1 Roche": {"latitude": 46.2957462, "longitude": 6.9916269, "race": "Tour du Chablais #1 Roche", "date": {"mer. 07.04.2010": {"year": 2010, "day": 7, "month": 4, "categories": {"F-F20": {"distance": 9, "rank": 42, "pace": 306000000000, "time": 2739.3}}, "weekday": "wednesday", "livingplace": "Troistorrents"}}, "location": "Ollon VD"}, "Tour du Chablais #2 Rennaz": {"latitude": 46.3835529, "longitude": 6.854975199999999, "race": "Tour du Chablais #2 Rennaz", "date": {"mer. 04.05.2011": {"year": 2011, "day": 4, "month": 5, "categories": {"F-F20": {"distance": 9, "rank": 28, "pace": 300000000000, "time": 2813.3}}, "weekday": "wednesday", "livingplace": "Choex"}}, "location": "Bouveret"}, "Tour du Chablais #3 Bex": {"latitude": 46.1782231, "longitude": 7.0223787, "race": "Tour du Chablais #3 Bex", "date": {"mer. 21.04.2010": {"year": 2010, "day": 21, "month": 4, "categories": {"F-F20": {"distance": 10, "rank": 41, "pace": 313000000000, "time": 3137.2}}, "weekday": "wednesday", "livingplace": "Troistorrents"}}, "location": "Evionnaz"}, "Morat-Fribourg": {"latitude": 46.92922110000001, "longitude": 7.120184, "race": "Morat-Fribourg", "date": {"sam. 05.10.2013": {"year": 2013, "day": 5, "month": 10, "categories": {"17-W20": {"distance": 17, "rank": 198, "pace": 326000000000, "time": 5704.2}}, "weekday": "saturday", "livingplace": "Bulle"}, "sam. 03.10.2009": {"year": 2009, "day": 3, "month": 10, "categories": {"C-W20": {"distance": 17, "rank": 321, "pace": 377000000000, "time": 6484.8}}, "weekday": "saturday", "livingplace": "Troistorrents"}, "sam. 02.10.2010": {"year": 2010, "day": 2, "month": 10, "categories": {"17-W20": {"distance": 17, "rank": 216, "pace": 353000000000, "time": 6063.7}}, "weekday": "saturday", "livingplace": "Choex"}}, "location": "Murten"}, "Tour du Chablais #4 Morgins": {"latitude": NaN, "longitude": NaN, "race": "Tour du Chablais #4 Morgins", "date": {"mer. 18.05.2011": {"year": 2011, "day": 18, "month": 5, "categories": {"F-F20": {"distance": 8, "rank": 44, "pace": 323000000000, "time": 2698.2}}, "weekday": "wednesday", "livingplace": "Choex"}}, "location": "Les Mosses"}, "Corrida Bulloise, Bulle": {"latitude": 46.6154512, "longitude": 7.057726799999999, "race": "Corrida Bulloise, Bulle", "date": {"sam. 16.11.2013": {"year": 2013, "day": 16, "month": 11, "categories": {"F20": {"distance": 6, "rank": 67, "pace": 285000000000, "time": 1754.5}}, "weekday": "saturday", "livingplace": "Bulle"}, "sam. 15.11.2008": {"year": 2008, "day": 15, "month": 11, "categories": {"F20": {"distance": 6, "rank": 93, "pace": 301000000000, "time": 1806.9}}, "weekday": "saturday", "livingplace": "Troistorrents"}}, "location": "Bulle"}, "Schweizer Frauenlauf Bern": {"latitude": 46.9479739, "longitude": 7.4474468, "race": "Schweizer Frauenlauf Bern", "date": {"dim. 13.06.2010": {"year": 2010, "day": 13, "month": 6, "categories": {"10-W20": {"distance": 10, "rank": 141, "pace": 308000000000, "time": 3085.2}}, "weekday": "sunday", "livingplace": "Choex"}, "dim. 09.06.2013": {"year": 2013, "day": 9, "month": 6, "categories": {"10-W30": {"distance": 10, "rank": 112, "pace": 309000000000, "time": 3099.1}}, "weekday": "sunday", "livingplace": "Bulle"}, "dim. 14.06.2009": {"year": 2009, "day": 14, "month": 6, "categories": {"10-W20": {"distance": 10, "rank": 144, "pace": 313000000000, "time": 3130.3}}, "weekday": "sunday", "livingplace": "Troistorrents"}}, "location": "Bern"}, "Tour du Chablais #1 Lavey": {"latitude": 46.2957462, "longitude": 6.9916269, "race": "Tour du Chablais #1 Lavey", "date": {"mer. 27.04.2011": {"year": 2011, "day": 27, "month": 4, "categories": {"F-F20": {"distance": 9, "rank": 38, "pace": 312000000000, "time": 2813.4}}, "weekday": "wednesday", "livingplace": "Choex"}}, "location": "Ollon VD"}, "Tour du Chablais #2 St-Gingolph": {"latitude": 46.3835529, "longitude": 6.854975199999999, "race": "Tour du Chablais #2 St-Gingolph", "date": {"mer. 14.04.2010": {"year": 2010, "day": 14, "month": 4, "categories": {"F-F20": {"distance": 8, "rank": 34, "pace": 334000000000, "time": 2795.8}}, "weekday": "wednesday", "livingplace": "Troistorrents"}}, "location": "Bouveret"}, "Tour du Chablais #6 Mouthey": {"latitude": 46.3190253, "longitude": 6.970566, "race": "Tour du Chablais #6 Mouthey", "date": {"mer. 12.05.2010": {"year": 2010, "day": 12, "month": 5, "categories": {"F-F20": {"distance": 9, "rank": 33, "pace": 293000000000, "time": 2703.1}}, "weekday": "wednesday", "livingplace": "Troistorrents"}}, "location": "Aigle"}, "Tour du Chablais #5 Les Mosses": {"latitude": 46.3603257, "longitude": 6.931504599999999, "race": "Tour du Chablais #5 Les Mosses", "date": {"mer. 25.05.2011": {"year": 2011, "day": 25, "month": 5, "categories": {"F-F20": {"distance": 8, "rank": 40, "pace": 329000000000, "time": 2634.1}}, "weekday": "wednesday", "livingplace": "Choex"}}, "location": "Roche VD"}, "Tour du Chablais #3 Le Bouveret": {"latitude": 46.1782231, "longitude": 7.0223787, "race": "Tour du Chablais #3 Le Bouveret", "date": {"mer. 11.05.2011": {"year": 2011, "day": 11, "month": 5, "categories": {"F-F20": {"distance": 10, "rank": 37, "pace": 300000000000, "time": 3005.2}}, "weekday": "wednesday", "livingplace": "Choex"}}, "location": "Evionnaz"}, "Tour du Chablais #6 Aigle": {"latitude": 46.3190253, "longitude": 6.970566, "race": "Tour du Chablais #6 Aigle", "date": {"mer. 01.06.2011": {"year": 2011, "day": 1, "month": 6, "categories": {"F-F20": {"distance": 10, "rank": 45, "pace": 295000000000, "time": 3013.0}}, "weekday": "wednesday", "livingplace": "Choex"}}, "location": "Aigle"}, "Tour du Chablais #4 Yvorne": {"latitude": NaN, "longitude": NaN, "race": "Tour du Chablais #4 Yvorne", "date": {"mer. 28.04.2010": {"year": 2010, "day": 28, "month": 4, "categories": {"F-F20": {"distance": 8, "rank": 37, "pace": 330000000000, "time": 2739.6}}, "weekday": "wednesday", "livingplace": "Troistorrents"}}, "location": "Les Mosses"}, "Kerzerslauf": {"latitude": 46.97488999999999, "longitude": 7.1954365, "race": "Kerzerslauf", "date": {"sam. 15.03.2014": {"year": 2014, "day": 15, "month": 3, "categories": {"15-F20": {"distance": 15, "rank": 160, "pace": 314000000000, "time": 4710.4}}, "weekday": "saturday", "livingplace": "Bulle"}}, "location": "Kerzers"}}, "birth": 1982}