{"name": "Bago Joseph", "sex": "M", "races": {"Tour de Presinge": {"latitude": 46.21860299999999, "longitude": 6.2535283, "race": "Tour de Presinge", "date": {"dim. 16.03.2014": {"year": 2014, "day": 16, "month": 3, "categories": {"10-Hom1": {"distance": 10, "rank": 2, "pace": 196000000000, "time": 1964.7}}, "weekday": "sunday", "livingplace": "Bernex"}}, "location": "Presinge"}, "Stralugano, Lugano": {"latitude": 46.0036778, "longitude": 8.951051999999999, "race": "Stralugano, Lugano", "date": {"dim. 30.09.2012": {"year": 2012, "day": 30, "month": 9, "categories": {"10-M20": {"distance": 10, "rank": 4, "pace": 204000000000, "time": 2049.5}}, "weekday": "sunday", "livingplace": "Bernex"}}, "location": "Lugano"}, "Thuner Stadtlauf, Thun": {"latitude": 46.7579868, "longitude": 7.6279881, "race": "Thuner Stadtlauf, Thun", "date": {"dim. 23.08.2009": {"year": 2009, "day": 23, "month": 8, "categories": {"10-M30": {"distance": 10, "rank": 2, "pace": 197000000000, "time": 1972.4}}, "weekday": "sunday", "livingplace": "Geneve"}}, "location": "Thun"}, "Course de l'Escalade, Gen\u00e8ve": {"latitude": 46.2043907, "longitude": 6.1431577, "race": "Course de l'Escalade, Gen\u00e8ve", "date": {"sam. 07.12.2002": {"year": 2002, "day": 7, "month": 12, "categories": {"Hommes1": {"distance": 7, "rank": 33, "pace": 222000000000, "time": 1611.2}}, "weekday": "saturday", "livingplace": "Onex"}, "sam. 05.12.2015": {"year": 2015, "day": 5, "month": 12, "categories": {"Elite-M": {"distance": 7, "rank": 196, "pace": 222000000000, "time": 1627.6}}, "weekday": "saturday", "livingplace": "Bernex"}, "sam. 02.12.2006": {"year": 2006, "day": 2, "month": 12, "categories": {"Elite H": {"distance": 7, "rank": 82, "pace": 201000000000, "time": 1460.6}}, "weekday": "saturday", "livingplace": "Petit Lancy"}, "sam. 01.12.2007": {"year": 2007, "day": 1, "month": 12, "categories": {"Elite H": {"distance": 7, "rank": 36, "pace": 191000000000, "time": 1391.8}}, "weekday": "saturday", "livingplace": "Suisse"}, "sam. 06.12.2003": {"year": 2003, "day": 6, "month": 12, "categories": {"Hommes1": {"distance": 7, "rank": 78, "pace": 226000000000, "time": 1641.9}}, "weekday": "saturday", "livingplace": "Onex"}, "sam. 03.12.2005": {"year": 2005, "day": 3, "month": 12, "categories": {"Hommes1": {"distance": 7, "rank": 21, "pace": 215000000000, "time": 1562.2}}, "weekday": "saturday", "livingplace": "Onex"}}, "location": "Gen\u00e8ve"}, "Semi-Marathon de la C\u00f4te, Allaman-Nyon": {"latitude": 46.3832683, "longitude": 6.2347852, "race": "Semi-Marathon de la C\u00f4te, Allaman-Nyon", "date": {"dim. 14.09.2014": {"year": 2014, "day": 14, "month": 9, "categories": {"21-H30": {"distance": 21, "rank": 1, "pace": 201000000000, "time": 4248.6}}, "weekday": "sunday", "livingplace": "Bernex"}}, "location": "Nyon"}, "20km de Lausanne": {"latitude": 46.5196535, "longitude": 6.6322734, "race": "20km de Lausanne", "date": {"sam. 25.04.2009": {"year": 2009, "day": 25, "month": 4, "categories": {"20-H30": {"distance": 20, "rank": 4, "pace": 194000000000, "time": 3884.6}}, "weekday": "saturday", "livingplace": "Geneve"}}, "location": "Lausanne"}, "Z\u00fcrich Marathon, Teamrun und Cityrun": {"latitude": 47.3768866, "longitude": 8.541694, "race": "Z\u00fcrich Marathon, Teamrun und Cityrun", "date": {"dim. 20.04.2008": {"year": 2008, "day": 20, "month": 4, "categories": {"M20": {"distance": 42, "rank": 4, "pace": 207000000000, "time": 8742.7}}, "weekday": "sunday", "livingplace": "Petit Lancy"}}, "location": "Z\u00fcrich"}, "Montreux - Les Rochers de Naye": {"latitude": 46.4312213, "longitude": 6.9106799, "race": "Montreux - Les Rochers de Naye", "date": {"dim. 25.06.2006": {"year": 2006, "day": 25, "month": 6, "categories": {"Sen": {"distance": 19, "rank": 37, "pace": 412000000000, "time": 7749.6}}, "weekday": "sunday", "livingplace": "Petit Lancy"}}, "location": "Montreux"}, "Maratona Ticino, Tenero": {"latitude": NaN, "longitude": NaN, "race": "Maratona Ticino, Tenero", "date": {"dim. 13.11.2011": {"year": 2011, "day": 13, "month": 11, "categories": {"H-M20": {"distance": 21, "rank": 5, "pace": 197000000000, "time": 4164.2}}, "weekday": "sunday", "livingplace": "Bernex"}}, "location": "Tenero"}, "Lausanne Marathon": {"latitude": 46.5196535, "longitude": 6.6322734, "race": "Lausanne Marathon", "date": {"dim. 30.10.2011": {"year": 2011, "day": 30, "month": 10, "categories": {"21-H2": {"distance": 21, "rank": 1, "pace": 197000000000, "time": 4170.6}}, "weekday": "sunday", "livingplace": "Bernex"}}, "location": "Lausanne"}, "Run to Run de Carouge": {"latitude": 46.1829674, "longitude": 6.1378539, "race": "Run to Run de Carouge", "date": {"sam. 27.09.2014": {"year": 2014, "day": 27, "month": 9, "categories": {"10-Hom1": {"distance": 10, "rank": 4, "pace": 198000000000, "time": 1984.5}}, "weekday": "saturday", "livingplace": "Geneve"}}, "location": "Carouge GE"}, "Kerzerslauf": {"latitude": 46.97488999999999, "longitude": 7.1954365, "race": "Kerzerslauf", "date": {"sam. 15.03.2008": {"year": 2008, "day": 15, "month": 3, "categories": {"15/M20": {"distance": 15, "rank": 19, "pace": 202000000000, "time": 3042.5}}, "weekday": "saturday", "livingplace": "Petit Lancy"}}, "location": "Kerzers"}, "10km de Payerne": {"latitude": 46.8220266, "longitude": 6.9405663, "race": "10km de Payerne", "date": {"sam. 28.03.2009": {"year": 2009, "day": 28, "month": 3, "categories": {"M Elite": {"distance": 10, "rank": 13, "pace": 191000000000, "time": 1912.1}}, "weekday": "saturday", "livingplace": "Geneve"}}, "location": "Payerne"}}, "birth": 1979}