{"name": "Baillifard Sandrine", "sex": "F", "races": {"Tour du Chablais #2 Rennaz": {"latitude": 46.3835529, "longitude": 6.854975199999999, "race": "Tour du Chablais #2 Rennaz", "date": {"mer. 04.05.2011": {"year": 2011, "day": 4, "month": 5, "categories": {"F-F20": {"distance": 9, "rank": 39, "pace": 307000000000, "time": 2873.3}}, "weekday": "wednesday", "livingplace": "Le Chable"}}, "location": "Bouveret"}, "Tour du Chablais #5 Les Mosses": {"latitude": 46.3603257, "longitude": 6.931504599999999, "race": "Tour du Chablais #5 Les Mosses", "date": {"mer. 25.05.2011": {"year": 2011, "day": 25, "month": 5, "categories": {"F-F20": {"distance": 8, "rank": 34, "pace": 322000000000, "time": 2582.1}}, "weekday": "wednesday", "livingplace": "Le Chable"}}, "location": "Roche VD"}, "Tour du Chablais #3 Le Bouveret": {"latitude": 46.1782231, "longitude": 7.0223787, "race": "Tour du Chablais #3 Le Bouveret", "date": {"mer. 11.05.2011": {"year": 2011, "day": 11, "month": 5, "categories": {"F-F20": {"distance": 10, "rank": 43, "pace": 307000000000, "time": 3072.4}}, "weekday": "wednesday", "livingplace": "Le Chable"}}, "location": "Evionnaz"}, "Schweizer Frauenlauf Bern": {"latitude": 46.9479739, "longitude": 7.4474468, "race": "Schweizer Frauenlauf Bern", "date": {"dim. 19.06.2011": {"year": 2011, "day": 19, "month": 6, "categories": {"10-W20": {"distance": 10, "rank": 278, "pace": 319000000000, "time": 3194.0}}, "weekday": "sunday", "livingplace": "Le Chable"}}, "location": "Bern"}, "Tour du Chablais #4 Morgins": {"latitude": NaN, "longitude": NaN, "race": "Tour du Chablais #4 Morgins", "date": {"mer. 18.05.2011": {"year": 2011, "day": 18, "month": 5, "categories": {"F-F20": {"distance": 8, "rank": 43, "pace": 323000000000, "time": 2697.7}}, "weekday": "wednesday", "livingplace": "Le Chable"}}, "location": "Les Mosses"}, "Tour du Chablais #6 Aigle": {"latitude": 46.3190253, "longitude": 6.970566, "race": "Tour du Chablais #6 Aigle", "date": {"mer. 01.06.2011": {"year": 2011, "day": 1, "month": 6, "categories": {"F-F20": {"distance": 10, "rank": 53, "pace": 300000000000, "time": 3067.5}}, "weekday": "wednesday", "livingplace": "Le Chable"}}, "location": "Aigle"}, "Tour du Chablais #1 Lavey": {"latitude": 46.2957462, "longitude": 6.9916269, "race": "Tour du Chablais #1 Lavey", "date": {"mer. 27.04.2011": {"year": 2011, "day": 27, "month": 4, "categories": {"F-F20": {"distance": 9, "rank": 33, "pace": 309000000000, "time": 2782.6}}, "weekday": "wednesday", "livingplace": "Le Chable"}}, "location": "Ollon VD"}}, "birth": 1983}