{"name": "Bailly Steve", "sex": "M", "races": {"Course de l'Escalade, Gen\u00e8ve": {"latitude": 46.2043907, "longitude": 6.1431577, "race": "Course de l'Escalade, Gen\u00e8ve", "date": {"sam. 06.12.2008": {"year": 2008, "day": 6, "month": 12, "categories": {"Hommes1": {"distance": 7, "rank": 40, "pace": 231000000000, "time": 1678.4}}, "weekday": "saturday", "livingplace": "Boecourt"}}, "location": "Gen\u00e8ve"}, "BCN Tour #3 Dombresson": {"latitude": 46.999113, "longitude": 6.733554799999999, "race": "BCN Tour #3 Dombresson", "date": {"mer. 08.05.2013": {"year": 2013, "day": 8, "month": 5, "categories": {"HS1": {"distance": 10, "rank": 6, "pace": 215000000000, "time": 2130.9}}, "weekday": "wednesday", "livingplace": "Bressaucourt"}}, "location": "Les Ponts-de-Martel"}, "BCN Tour Le Landeron": {"latitude": 46.9668714, "longitude": 6.8589727, "race": "BCN Tour Le Landeron", "date": {"mer. 22.04.2009": {"year": 2009, "day": 22, "month": 4, "categories": {"HE": {"distance": 11, "rank": 9, "pace": 233000000000, "time": 2595.3}}, "weekday": "wednesday", "livingplace": "Crete a l'OeilLes Agette"}}, "location": "Colombier NE"}, "Int  Bieler Cross, Biel-Bienne": {"latitude": 47.1367785, "longitude": 7.2467909, "race": "Int  Bieler Cross, Biel-Bienne", "date": {"dim. 14.11.2010": {"year": 2010, "day": 14, "month": 11, "categories": {"M20": {"distance": 8, "rank": 9, "pace": 213000000000, "time": 1710.9}}, "weekday": "sunday", "livingplace": "Develier"}}, "location": "Biel/Bienne"}, "Morat-Fribourg": {"latitude": 46.92922110000001, "longitude": 7.120184, "race": "Morat-Fribourg", "date": {"sam. 05.10.2013": {"year": 2013, "day": 5, "month": 10, "categories": {"17-M20": {"distance": 17, "rank": 51, "pace": 225000000000, "time": 3931.6}}, "weekday": "saturday", "livingplace": "Bressaucourt"}}, "location": "Murten"}, "BCN Tour Colombier": {"latitude": 46.9668714, "longitude": 6.8589727, "race": "BCN Tour Colombier", "date": {"mer. 21.04.2010": {"year": 2010, "day": 21, "month": 4, "categories": {"HE": {"distance": 10, "rank": 12, "pace": 261000000000, "time": 2611.4}}, "weekday": "wednesday", "livingplace": "Crete a l'OeilLes Agette"}}, "location": "Colombier NE"}, "10km de Payerne": {"latitude": 46.8220266, "longitude": 6.9405663, "race": "10km de Payerne", "date": {"sam. 28.03.2009": {"year": 2009, "day": 28, "month": 3, "categories": {"M Elite": {"distance": 10, "rank": 45, "pace": 223000000000, "time": 2231.0}}, "weekday": "saturday", "livingplace": "Salins"}}, "location": "Payerne"}, "BCN Tour #2 La Chaux-de-Fonds": {"latitude": 47.0624261, "longitude": 6.9175754, "race": "BCN Tour #2 La Chaux-de-Fonds", "date": {"mer. 01.05.2013": {"year": 2013, "day": 1, "month": 5, "categories": {"HS1": {"distance": 11, "rank": 7, "pace": 217000000000, "time": 2330.3}}, "weekday": "wednesday", "livingplace": "Bressaucourt"}}, "location": "Ch\u00e9zard-St-Martin"}}, "birth": 1982}