{"name": "Baillifard Magalie", "sex": "F", "races": {"Tour du Chablais #1 Roche": {"latitude": 46.2957462, "longitude": 6.9916269, "race": "Tour du Chablais #1 Roche", "date": {"mer. 07.04.2010": {"year": 2010, "day": 7, "month": 4, "categories": {"F-F20": {"distance": 9, "rank": 104, "pace": 352000000000, "time": 3153.5}}, "weekday": "wednesday", "livingplace": "Troistorrents"}, "mer. 03.04.2013": {"year": 2013, "day": 3, "month": 4, "categories": {"F-F40": {"distance": 9, "rank": 66, "pace": 351000000000, "time": 3117.2}}, "weekday": "wednesday", "livingplace": "Troistorrents"}}, "location": "Ollon VD"}, "Tour du Chablais #2 Rennaz": {"latitude": 46.3835529, "longitude": 6.854975199999999, "race": "Tour du Chablais #2 Rennaz", "date": {"mer. 04.05.2011": {"year": 2011, "day": 4, "month": 5, "categories": {"F-F40": {"distance": 9, "rank": 58, "pace": 339000000000, "time": 3178.3}}, "weekday": "wednesday", "livingplace": "Troistorrents"}}, "location": "Bouveret"}, "Morat-Fribourg": {"latitude": 46.92922110000001, "longitude": 7.120184, "race": "Morat-Fribourg", "date": {"sam. 03.10.2009": {"year": 2009, "day": 3, "month": 10, "categories": {"C-W35": {"distance": 17, "rank": 250, "pace": 396000000000, "time": 6804.0}}, "weekday": "saturday", "livingplace": "Troistorrents"}, "sam. 01.10.2011": {"year": 2011, "day": 1, "month": 10, "categories": {"17-W40": {"distance": 17, "rank": 197, "pace": 370000000000, "time": 6356.0}}, "weekday": "saturday", "livingplace": "Troistorrents"}, "sam. 04.10.2014": {"year": 2014, "day": 4, "month": 10, "categories": {"17-W40": {"distance": 17, "rank": 289, "pace": 407000000000, "time": 6997.7}}, "weekday": "saturday", "livingplace": "Troistorrents"}, "sam. 02.10.2010": {"year": 2010, "day": 2, "month": 10, "categories": {"17-W35": {"distance": 17, "rank": 192, "pace": 380000000000, "time": 6535.9}}, "weekday": "saturday", "livingplace": "Troistorrents"}}, "location": "Murten"}, "Tour du Chablais #3 Le Bouveret": {"latitude": 46.1782231, "longitude": 7.0223787, "race": "Tour du Chablais #3 Le Bouveret", "date": {"mer. 11.05.2011": {"year": 2011, "day": 11, "month": 5, "categories": {"F-F40": {"distance": 10, "rank": 59, "pace": 347000000000, "time": 3470.9}}, "weekday": "wednesday", "livingplace": "Troistorrents"}}, "location": "Evionnaz"}, "Tour du Chablais #6 Monthey": {"latitude": 46.3190253, "longitude": 6.970566, "race": "Tour du Chablais #6 Monthey", "date": {"mer. 08.05.2013": {"year": 2013, "day": 8, "month": 5, "categories": {"F-F40": {"distance": 9, "rank": 64, "pace": 344000000000, "time": 3217.4}}, "weekday": "wednesday", "livingplace": "Troistorrents"}}, "location": "Aigle"}, "20km de Lausanne": {"latitude": 46.5196535, "longitude": 6.6322734, "race": "20km de Lausanne", "date": {"sam. 28.04.2012": {"year": 2012, "day": 28, "month": 4, "categories": {"10-F40": {"distance": 10, "rank": 126, "pace": 349000000000, "time": 3497.5}}, "weekday": "saturday", "livingplace": "Troistorrents"}}, "location": "Lausanne"}, "Tour du Chablais #1 Lavey": {"latitude": 46.2957462, "longitude": 6.9916269, "race": "Tour du Chablais #1 Lavey", "date": {"mer. 27.04.2011": {"year": 2011, "day": 27, "month": 4, "categories": {"F-F40": {"distance": 9, "rank": 57, "pace": 350000000000, "time": 3157.6}}, "weekday": "wednesday", "livingplace": "Troistorrents"}}, "location": "Ollon VD"}, "Tour du Chablais #2 Yvorne": {"latitude": 46.3835529, "longitude": 6.854975199999999, "race": "Tour du Chablais #2 Yvorne", "date": {"mer. 10.04.2013": {"year": 2013, "day": 10, "month": 4, "categories": {"F-F40": {"distance": 8, "rank": 60, "pace": 398000000000, "time": 3184.8}}, "weekday": "wednesday", "livingplace": "Troistorrents"}}, "location": "Bouveret"}, "Tour du Chablais #5 Leysin": {"latitude": 46.3603257, "longitude": 6.931504599999999, "race": "Tour du Chablais #5 Leysin", "date": {"mer. 05.05.2010": {"year": 2010, "day": 5, "month": 5, "categories": {"F-F20": {"distance": 8, "rank": 66, "pace": 376000000000, "time": 3182.2}}, "weekday": "wednesday", "livingplace": "Troistorrents"}}, "location": "Roche VD"}, "Tour du Chablais #5 Bex": {"latitude": 46.3603257, "longitude": 6.931504599999999, "race": "Tour du Chablais #5 Bex", "date": {"mer. 09.05.2012": {"year": 2012, "day": 9, "month": 5, "categories": {"F-F40": {"distance": 9, "rank": 37, "pace": 332000000000, "time": 2943.0}}, "weekday": "wednesday", "livingplace": "Troistorrents"}}, "location": "Roche VD"}, "Tour du Chablais #4 Champ\u00e9ry": {"latitude": NaN, "longitude": NaN, "race": "Tour du Chablais #4 Champ\u00e9ry", "date": {"mer. 02.05.2012": {"year": 2012, "day": 2, "month": 5, "categories": {"F-F40": {"distance": 8, "rank": 53, "pace": 343000000000, "time": 2852.1}}, "weekday": "wednesday", "livingplace": "Troistorrents"}}, "location": "Les Mosses"}, "Tour du Chablais #5 Morgins": {"latitude": 46.3603257, "longitude": 6.931504599999999, "race": "Tour du Chablais #5 Morgins", "date": {"mer. 01.05.2013": {"year": 2013, "day": 1, "month": 5, "categories": {"F-F40": {"distance": 8, "rank": 44, "pace": 365000000000, "time": 2778.3}}, "weekday": "wednesday", "livingplace": "Troistorrents"}}, "location": "Roche VD"}, "Tour du Chablais #5 Les Mosses": {"latitude": 46.3603257, "longitude": 6.931504599999999, "race": "Tour du Chablais #5 Les Mosses", "date": {"mer. 25.05.2011": {"year": 2011, "day": 25, "month": 5, "categories": {"F-F40": {"distance": 8, "rank": 52, "pace": 370000000000, "time": 2961.8}}, "weekday": "wednesday", "livingplace": "Troistorrents"}}, "location": "Roche VD"}, "Tour du Chablais #6 Aigle": {"latitude": 46.3190253, "longitude": 6.970566, "race": "Tour du Chablais #6 Aigle", "date": {"mer. 01.06.2011": {"year": 2011, "day": 1, "month": 6, "categories": {"F-F40": {"distance": 10, "rank": 44, "pace": 328000000000, "time": 3346.1}}, "weekday": "wednesday", "livingplace": "Troistorrents"}}, "location": "Aigle"}, "Tour du Chablais #3 Bex": {"latitude": 46.1782231, "longitude": 7.0223787, "race": "Tour du Chablais #3 Bex", "date": {"mer. 21.04.2010": {"year": 2010, "day": 21, "month": 4, "categories": {"F-F20": {"distance": 10, "rank": 95, "pace": 354000000000, "time": 3548.0}}, "weekday": "wednesday", "livingplace": "Troistorrents"}}, "location": "Evionnaz"}, "Tour du Chablais #3 Collombey-Muraz": {"latitude": 46.1782231, "longitude": 7.0223787, "race": "Tour du Chablais #3 Collombey-Muraz", "date": {"mer. 25.04.2012": {"year": 2012, "day": 25, "month": 4, "categories": {"F-F40": {"distance": 9, "rank": 42, "pace": 335000000000, "time": 3013.5}}, "weekday": "wednesday", "livingplace": "Troistorrents"}}, "location": "Evionnaz"}, "Tour du Chablais #1 Martigny": {"latitude": 46.2957462, "longitude": 6.9916269, "race": "Tour du Chablais #1 Martigny", "date": {"mer. 23.04.2014": {"year": 2014, "day": 23, "month": 4, "categories": {"F-F40": {"distance": 9, "rank": 61, "pace": 361000000000, "time": 3075.6}}, "weekday": "wednesday", "livingplace": "Troistorrents"}}, "location": "Ollon VD"}, "Tour du Chablais #4 St  Maurice": {"latitude": NaN, "longitude": NaN, "race": "Tour du Chablais #4 St  Maurice", "date": {"mer. 24.04.2013": {"year": 2013, "day": 24, "month": 4, "categories": {"F-F40": {"distance": 10, "rank": 56, "pace": 353000000000, "time": 3533.8}}, "weekday": "wednesday", "livingplace": "Troistorrents"}}, "location": "Les Mosses"}, "Tour du Chablais #4 Morgins": {"latitude": NaN, "longitude": NaN, "race": "Tour du Chablais #4 Morgins", "date": {"mer. 18.05.2011": {"year": 2011, "day": 18, "month": 5, "categories": {"F-F40": {"distance": 8, "rank": 67, "pace": 368000000000, "time": 3073.2}}, "weekday": "wednesday", "livingplace": "Troistorrents"}}, "location": "Les Mosses"}, "Schweizer Frauenlauf Bern": {"latitude": 46.9479739, "longitude": 7.4474468, "race": "Schweizer Frauenlauf Bern", "date": {"dim. 19.06.2011": {"year": 2011, "day": 19, "month": 6, "categories": {"5-W40": {"distance": 5, "rank": 319, "pace": 351000000000, "time": 1759.1}}, "weekday": "sunday", "livingplace": "Troistorrents"}}, "location": "Bern"}, "Tour du Chablais #6 Mouthey": {"latitude": 46.3190253, "longitude": 6.970566, "race": "Tour du Chablais #6 Mouthey", "date": {"mer. 12.05.2010": {"year": 2010, "day": 12, "month": 5, "categories": {"F-F20": {"distance": 9, "rank": 87, "pace": 339000000000, "time": 3124.7}}, "weekday": "wednesday", "livingplace": "Troistorrents"}}, "location": "Aigle"}, "Tour du Chablais #1 Montreux": {"latitude": 46.2957462, "longitude": 6.9916269, "race": "Tour du Chablais #1 Montreux", "date": {"mer. 11.04.2012": {"year": 2012, "day": 11, "month": 4, "categories": {"F-F40": {"distance": 8, "rank": 48, "pace": 359000000000, "time": 2731.2}}, "weekday": "wednesday", "livingplace": "Troistorrents"}}, "location": "Ollon VD"}, "Tour du Chablais #3 Bouveret": {"latitude": 46.1782231, "longitude": 7.0223787, "race": "Tour du Chablais #3 Bouveret", "date": {"mer. 17.04.2013": {"year": 2013, "day": 17, "month": 4, "categories": {"F-F40": {"distance": 10, "rank": 57, "pace": 348000000000, "time": 3488.7}}, "weekday": "wednesday", "livingplace": "Troistorrents"}}, "location": "Evionnaz"}, "Tour du Chablais #2 St-Gingolph": {"latitude": 46.3835529, "longitude": 6.854975199999999, "race": "Tour du Chablais #2 St-Gingolph", "date": {"mer. 14.04.2010": {"year": 2010, "day": 14, "month": 4, "categories": {"F-F20": {"distance": 8, "rank": 84, "pace": 380000000000, "time": 3180.3}}, "weekday": "wednesday", "livingplace": "Troistorrents"}}, "location": "Bouveret"}, "Tour du Chablais #4 Yvorne": {"latitude": NaN, "longitude": NaN, "race": "Tour du Chablais #4 Yvorne", "date": {"mer. 28.04.2010": {"year": 2010, "day": 28, "month": 4, "categories": {"F-F20": {"distance": 8, "rank": 82, "pace": 369000000000, "time": 3058.3}}, "weekday": "wednesday", "livingplace": "Troistorrents"}}, "location": "Les Mosses"}, "Tour du Chablais #2 Bex": {"latitude": 46.3835529, "longitude": 6.854975199999999, "race": "Tour du Chablais #2 Bex", "date": {"mer. 18.04.2012": {"year": 2012, "day": 18, "month": 4, "categories": {"F-F40": {"distance": 8, "rank": 55, "pace": 346000000000, "time": 2775.2}}, "weekday": "wednesday", "livingplace": "Troistorrents"}}, "location": "Bouveret"}, "Tour du Chablais #6 Montreux": {"latitude": 46.3190253, "longitude": 6.970566, "race": "Tour du Chablais #6 Montreux", "date": {"mer. 16.05.2012": {"year": 2012, "day": 16, "month": 5, "categories": {"F-F40": {"distance": 9, "rank": 55, "pace": 332000000000, "time": 3075.7}}, "weekday": "wednesday", "livingplace": "Troistorrents"}}, "location": "Aigle"}}, "birth": 1971}