{"name": "Bainton Ally", "sex": "M", "races": {"Lausanne Marathon": {"latitude": 46.5196535, "longitude": 6.6322734, "race": "Lausanne Marathon", "date": {"sam. 24.10.2015": {"year": 2015, "day": 24, "month": 10, "categories": {"42-H40": {"distance": 42, "rank": 165, "pace": 326000000000, "time": 13778.4}}, "weekday": "saturday", "livingplace": "Versonnex"}}, "location": "Lausanne"}, "Course de l'Escalade, Gen\u00e8ve": {"latitude": 46.2043907, "longitude": 6.1431577, "race": "Course de l'Escalade, Gen\u00e8ve", "date": {"sam. 01.12.2012": {"year": 2012, "day": 1, "month": 12, "categories": {"Duc-Hom3": {"distance": 18, "rank": 562, "pace": 306000000000, "time": 5359.5}}, "weekday": "saturday", "livingplace": "Ferney Voltaire"}}, "location": "Gen\u00e8ve"}, "Morat-Fribourg": {"latitude": 46.92922110000001, "longitude": 7.120184, "race": "Morat-Fribourg", "date": {"sam. 05.10.2013": {"year": 2013, "day": 5, "month": 10, "categories": {"17-M40": {"distance": 17, "rank": 274, "pace": 289000000000, "time": 5048.7}}, "weekday": "saturday", "livingplace": "Versonnex"}, "sam. 01.10.2011": {"year": 2011, "day": 1, "month": 10, "categories": {"17-M40": {"distance": 17, "rank": 172, "pace": 280000000000, "time": 4815.6}}, "weekday": "saturday", "livingplace": "Versonnex"}, "sam. 04.10.2008": {"year": 2008, "day": 4, "month": 10, "categories": {"C-M20": {"distance": 17, "rank": 963, "pace": 300000000000, "time": 5160.6}}, "weekday": "saturday", "livingplace": "Versonnex"}, "sam. 06.10.2007": {"year": 2007, "day": 6, "month": 10, "categories": {"C/M20": {"distance": 17, "rank": 779, "pace": 293000000000, "time": 5034.4}}, "weekday": "saturday", "livingplace": "Versonnex"}}, "location": "Murten"}, "Semi-Marathon de la C\u00f4te, Allaman-Nyon": {"latitude": 46.3832683, "longitude": 6.2347852, "race": "Semi-Marathon de la C\u00f4te, Allaman-Nyon", "date": {"dim. 14.09.2014": {"year": 2014, "day": 14, "month": 9, "categories": {"21-H40": {"distance": 21, "rank": 33, "pace": 263000000000, "time": 5552.0}}, "weekday": "sunday", "livingplace": "Versonnex"}}, "location": "Nyon"}, "SwissCityMarathon - Lucerne, Luzern": {"latitude": 47.05016819999999, "longitude": 8.3093072, "race": "SwissCityMarathon - Lucerne, Luzern", "date": {"dim. 26.10.2014": {"year": 2014, "day": 26, "month": 10, "categories": {"M-M40": {"distance": 42, "rank": 82, "pace": 285000000000, "time": 12047.5}}, "weekday": "sunday", "livingplace": "Versonnex"}}, "location": "Luzern"}}, "birth": 1971}