{"name": "Bajramaj Selmon", "sex": "M", "races": {"Tour du Chablais #1 Roche": {"latitude": 46.2957462, "longitude": 6.9916269, "race": "Tour du Chablais #1 Roche", "date": {"mer. 07.04.2010": {"year": 2010, "day": 7, "month": 4, "categories": {"M-M20": {"distance": 9, "rank": 222, "pace": 363000000000, "time": 3255.0}}, "weekday": "wednesday", "livingplace": "Clarens"}}, "location": "Ollon VD"}, "Tour du Chablais #6 Mouthey": {"latitude": 46.3190253, "longitude": 6.970566, "race": "Tour du Chablais #6 Mouthey", "date": {"mer. 12.05.2010": {"year": 2010, "day": 12, "month": 5, "categories": {"M-M20": {"distance": 9, "rank": 227, "pace": 371000000000, "time": 3416.3}}, "weekday": "wednesday", "livingplace": "Clarens"}}, "location": "Aigle"}, "Tour du Chablais #4 Yvorne": {"latitude": NaN, "longitude": NaN, "race": "Tour du Chablais #4 Yvorne", "date": {"mer. 28.04.2010": {"year": 2010, "day": 28, "month": 4, "categories": {"M-M20": {"distance": 8, "rank": 208, "pace": 405000000000, "time": 3360.9}}, "weekday": "wednesday", "livingplace": "Clarens"}}, "location": "Les Mosses"}, "Montreux - Les Rochers de Naye": {"latitude": 46.4312213, "longitude": 6.9106799, "race": "Montreux - Les Rochers de Naye", "date": {"dim. 05.07.2015": {"year": 2015, "day": 5, "month": 7, "categories": {"C-HV\u00e9t1": {"distance": 10, "rank": 18, "pace": 728000000000, "time": 6916.5}}, "weekday": "sunday", "livingplace": "Clarens"}}, "location": "Montreux"}, "Tour du Chablais #3 Bex": {"latitude": 46.1782231, "longitude": 7.0223787, "race": "Tour du Chablais #3 Bex", "date": {"mer. 21.04.2010": {"year": 2010, "day": 21, "month": 4, "categories": {"M-M20": {"distance": 10, "rank": 204, "pace": 375000000000, "time": 3759.4}}, "weekday": "wednesday", "livingplace": "Clarens"}}, "location": "Evionnaz"}, "Tour du Chablais #5 Leysin": {"latitude": 46.3603257, "longitude": 6.931504599999999, "race": "Tour du Chablais #5 Leysin", "date": {"mer. 05.05.2010": {"year": 2010, "day": 5, "month": 5, "categories": {"M-M20": {"distance": 8, "rank": 148, "pace": 416000000000, "time": 3516.8}}, "weekday": "wednesday", "livingplace": "Clarens"}}, "location": "Roche VD"}, "Internationaler Matterhornlauf, Zermatt": {"latitude": NaN, "longitude": NaN, "race": "Internationaler Matterhornlauf, Zermatt", "date": {"dim. 22.08.2004": {"year": 2004, "day": 22, "month": 8, "categories": {"MHL/M30": {"distance": 14, "rank": 150, "pace": 541000000000, "time": 7768.2}}, "weekday": "sunday", "livingplace": "Territet Veytaux"}}, "location": "Zermatt"}, "Tour du Chablais #2 St-Gingolph": {"latitude": 46.3835529, "longitude": 6.854975199999999, "race": "Tour du Chablais #2 St-Gingolph", "date": {"mer. 14.04.2010": {"year": 2010, "day": 14, "month": 4, "categories": {"M-M20": {"distance": 8, "rank": 177, "pace": 393000000000, "time": 3282.0}}, "weekday": "wednesday", "livingplace": "Clarens"}}, "location": "Bouveret"}}, "birth": 1972}