{"name": "Balanche Armand", "sex": "M", "races": {"BCN Tour La Br\u00e9vine": {"latitude": 46.999113, "longitude": 6.733554799999999, "race": "BCN Tour La Br\u00e9vine", "date": {"mer. 04.05.2011": {"year": 2011, "day": 4, "month": 5, "categories": {"KG2": {"distance": 2, "rank": 24, "pace": 266000000000, "time": 507.2}}, "weekday": "wednesday", "livingplace": "Le Cerneux Pequignot"}}, "location": "Les Ponts-de-Martel"}, "BCN Tour M\u00f4tier": {"latitude": 46.9262933, "longitude": 6.6324944, "race": "BCN Tour M\u00f4tier", "date": {"mer. 19.05.2010": {"year": 2010, "day": 19, "month": 5, "categories": {"KG2": {"distance": 2, "rank": 36, "pace": 254000000000, "time": 458.3}}, "weekday": "wednesday", "livingplace": "Le Cerneux Pequignot"}}, "location": "Couvet"}, "BCN Tour Fontaine Cernier": {"latitude": 47.0624261, "longitude": 6.9175754, "race": "BCN Tour Fontaine Cernier", "date": {"mer. 27.04.2011": {"year": 2011, "day": 27, "month": 4, "categories": {"KG2": {"distance": 2, "rank": 17, "pace": 299000000000, "time": 508.4}}, "weekday": "wednesday", "livingplace": "Le Cerneux Pequignot"}}, "location": "Ch\u00e9zard-St-Martin"}, "D\u00e9fi Val-de-Travers, Couvet": {"latitude": 46.9262933, "longitude": 6.6324944, "race": "D\u00e9fi Val-de-Travers, Couvet", "date": {"sam. 21.06.2008": {"year": 2008, "day": 21, "month": 6, "categories": {"GC": {"distance": 1, "rank": 12, "pace": 287000000000, "time": 384.8}}, "weekday": "saturday", "livingplace": "Le Cerneux Pequignot"}, "sam. 20.06.2009": {"year": 2009, "day": 20, "month": 6, "categories": {"GC": {"distance": 1, "rank": 6, "pace": 261000000000, "time": 350.3}}, "weekday": "saturday", "livingplace": "Le Cerneux Pequignot"}, "sam. 19.06.2010": {"year": 2010, "day": 19, "month": 6, "categories": {"GB": {"distance": 3, "rank": 10, "pace": 277000000000, "time": 707.3}}, "weekday": "saturday", "livingplace": "Le Cerneux Pequignot"}}, "location": "Couvet"}, "BCN Tour Ponts-de-Martel": {"latitude": 47.0624261, "longitude": 6.9175754, "race": "BCN Tour Ponts-de-Martel", "date": {"mer. 28.04.2010": {"year": 2010, "day": 28, "month": 4, "categories": {"KG2": {"distance": 2, "rank": 22, "pace": 215000000000, "time": 473.1}}, "weekday": "wednesday", "livingplace": "Le Cerneux Pequignot"}}, "location": "Ch\u00e9zard-St-Martin"}, "BCN Tour Les Ponts de Martel": {"latitude": 46.9262933, "longitude": 6.6324944, "race": "BCN Tour Les Ponts de Martel", "date": {"mer. 18.05.2011": {"year": 2011, "day": 18, "month": 5, "categories": {"KG2": {"distance": 2, "rank": 34, "pace": 250000000000, "time": 492.7}}, "weekday": "wednesday", "livingplace": "Le Cerneux Pequignot"}}, "location": "Couvet"}, "BCN Tour Auvernier": {"latitude": 46.9668714, "longitude": 6.8589727, "race": "BCN Tour Auvernier", "date": {"mer. 20.04.2011": {"year": 2011, "day": 20, "month": 4, "categories": {"KG2": {"distance": 1, "rank": 25, "pace": 240000000000, "time": 325.2}}, "weekday": "wednesday", "livingplace": "Le Cerneux Pequignot"}}, "location": "Colombier NE"}, "BCN Tour Le Locle": {"latitude": 46.999113, "longitude": 6.733554799999999, "race": "BCN Tour Le Locle", "date": {"mer. 05.05.2010": {"year": 2010, "day": 5, "month": 5, "categories": {"KG2": {"distance": 2, "rank": 22, "pace": 270000000000, "time": 486.1}}, "weekday": "wednesday", "livingplace": "Le Cerneux Pequignot"}}, "location": "Les Ponts-de-Martel"}, "BCN Tour La Chaux-de-fonds": {"latitude": 47.1034892, "longitude": 6.832783800000001, "race": "BCN Tour La Chaux-de-fonds", "date": {"mer. 12.05.2010": {"year": 2010, "day": 12, "month": 5, "categories": {"KG2": {"distance": 1, "rank": 30, "pace": 747000000000, "time": 725.4}}, "weekday": "wednesday", "livingplace": "Le Cerneux Pequignot"}}, "location": "La Chaux-de-Fonds"}, "BCN Tour #4 Fleurier": {"latitude": 47.1034892, "longitude": 6.832783800000001, "race": "BCN Tour #4 Fleurier", "date": {"mer. 15.05.2013": {"year": 2013, "day": 15, "month": 5, "categories": {"KG3": {"distance": 3, "rank": 28, "pace": 266000000000, "time": 665.2}}, "weekday": "wednesday", "livingplace": "Le Cerneux Pequignot"}}, "location": "La Chaux-de-Fonds"}}, "birth": 2000}