{"name": "Balanche Florent", "sex": "M", "races": {"BCN Tour M\u00f4tier": {"latitude": 46.9262933, "longitude": 6.6324944, "race": "BCN Tour M\u00f4tier", "date": {"mer. 19.05.2010": {"year": 2010, "day": 19, "month": 5, "categories": {"HE": {"distance": 10, "rank": 52, "pace": 265000000000, "time": 2629.4}}, "weekday": "wednesday", "livingplace": "Villers le Lac"}}, "location": "Couvet"}, "BCN Tour Neuch\u00e2tel": {"latitude": 46.9899874, "longitude": 6.9292732, "race": "BCN Tour Neuch\u00e2tel", "date": {"mer. 26.05.2010": {"year": 2010, "day": 26, "month": 5, "categories": {"HE": {"distance": 10, "rank": 73, "pace": 304000000000, "time": 2955.3}}, "weekday": "wednesday", "livingplace": "Villers le Lac"}}, "location": "Neuch\u00e2tel"}, "BCN Tour Le Landeron": {"latitude": 46.9668714, "longitude": 6.8589727, "race": "BCN Tour Le Landeron", "date": {"mer. 22.04.2009": {"year": 2009, "day": 22, "month": 4, "categories": {"HE": {"distance": 11, "rank": 89, "pace": 310000000000, "time": 3448.0}}, "weekday": "wednesday", "livingplace": "Villers le Lac"}}, "location": "Colombier NE"}, "Sierre-Zinal, Sierre": {"latitude": 46.29413110000001, "longitude": 7.533536199999999, "race": "Sierre-Zinal, Sierre", "date": {"dim. 09.08.2015": {"year": 2015, "day": 9, "month": 8, "categories": {"ElitesHo": {"distance": 31, "rank": 472, "pace": 594000000000, "time": 18418.7}}, "weekday": "sunday", "livingplace": "Villers le Lac"}}, "location": "Sierre"}, "BCN Tour Le Locle": {"latitude": 46.999113, "longitude": 6.733554799999999, "race": "BCN Tour Le Locle", "date": {"mer. 05.05.2010": {"year": 2010, "day": 5, "month": 5, "categories": {"HE": {"distance": 11, "rank": 43, "pace": 275000000000, "time": 2998.0}}, "weekday": "wednesday", "livingplace": "Villers le Lac"}}, "location": "Les Ponts-de-Martel"}, "BCN Tour #1 Corcelles": {"latitude": 46.9668714, "longitude": 6.8589727, "race": "BCN Tour #1 Corcelles", "date": {"mer. 24.04.2013": {"year": 2013, "day": 24, "month": 4, "categories": {"HS1": {"distance": 10, "rank": 186, "pace": 307000000000, "time": 3009.7}}, "weekday": "wednesday", "livingplace": "Villers le Lac"}}, "location": "Colombier NE"}, "BCN Tour #4 Fleurier": {"latitude": 47.1034892, "longitude": 6.832783800000001, "race": "BCN Tour #4 Fleurier", "date": {"mer. 15.05.2013": {"year": 2013, "day": 15, "month": 5, "categories": {"HS1": {"distance": 9, "rank": 145, "pace": 298000000000, "time": 2581.7}}, "weekday": "wednesday", "livingplace": "Villers le Lac"}}, "location": "La Chaux-de-Fonds"}, "BCN Tour #2 La Chaux-de-Fonds": {"latitude": 47.0624261, "longitude": 6.9175754, "race": "BCN Tour #2 La Chaux-de-Fonds", "date": {"mer. 01.05.2013": {"year": 2013, "day": 1, "month": 5, "categories": {"HS1": {"distance": 11, "rank": 290, "pace": 350000000000, "time": 3749.5}}, "weekday": "wednesday", "livingplace": "Villers le Lac"}}, "location": "Ch\u00e9zard-St-Martin"}, "BCN Tour #6 Neuch\u00e2tel": {"latitude": 46.9899874, "longitude": 6.9292732, "race": "BCN Tour #6 Neuch\u00e2tel", "date": {"mer. 29.05.2013": {"year": 2013, "day": 29, "month": 5, "categories": {"HS1": {"distance": 11, "rank": 157, "pace": 311000000000, "time": 3431.1}}, "weekday": "wednesday", "livingplace": "Villers le Lac"}}, "location": "Neuch\u00e2tel"}, "BCN Tour Ponts-de-Martel": {"latitude": 47.0624261, "longitude": 6.9175754, "race": "BCN Tour Ponts-de-Martel", "date": {"mer. 28.04.2010": {"year": 2010, "day": 28, "month": 4, "categories": {"HE": {"distance": 11, "rank": 38, "pace": 282000000000, "time": 3166.9}}, "weekday": "wednesday", "livingplace": "Villers le Lac"}}, "location": "Ch\u00e9zard-St-Martin"}, "BCN Tour La Chaux-de-fonds": {"latitude": 47.1034892, "longitude": 6.832783800000001, "race": "BCN Tour La Chaux-de-fonds", "date": {"mer. 12.05.2010": {"year": 2010, "day": 12, "month": 5, "categories": {"HE": {"distance": 11, "rank": 55, "pace": 340000000000, "time": 3638.9}}, "weekday": "wednesday", "livingplace": "Villers le Lac"}}, "location": "La Chaux-de-Fonds"}, "BCN Tour Colombier": {"latitude": 46.9668714, "longitude": 6.8589727, "race": "BCN Tour Colombier", "date": {"mer. 21.04.2010": {"year": 2010, "day": 21, "month": 4, "categories": {"HE": {"distance": 10, "rank": 48, "pace": 304000000000, "time": 3043.8}}, "weekday": "wednesday", "livingplace": "Villers le Lac"}}, "location": "Colombier NE"}, "BCN Tour #3 Dombresson": {"latitude": 46.999113, "longitude": 6.733554799999999, "race": "BCN Tour #3 Dombresson", "date": {"mer. 08.05.2013": {"year": 2013, "day": 8, "month": 5, "categories": {"HS1": {"distance": 10, "rank": 177, "pace": 292000000000, "time": 2894.1}}, "weekday": "wednesday", "livingplace": "Villers le Lac"}}, "location": "Les Ponts-de-Martel"}}, "birth": 1982}