{"name": "Bald\u00e9 Ursula", "sex": "F", "races": {"Tour du Pays de Vaud #1, Penthaz": {"latitude": 46.5993131, "longitude": 6.539251200000001, "race": "Tour du Pays de Vaud #1, Penthaz", "date": {"mer. 13.08.2014": {"year": 2014, "day": 13, "month": 8, "categories": {"D-Sen1": {"distance": 9, "rank": 72, "pace": 403000000000, "time": 3440.3}}, "weekday": "wednesday", "livingplace": "Renens"}}, "location": "Penthaz"}, "Tour du Pays de Vaud #2, Mezi\u00e8res": {"latitude": 46.5955273, "longitude": 6.7702883, "race": "Tour du Pays de Vaud #2, Mezi\u00e8res", "date": {"mer. 20.08.2014": {"year": 2014, "day": 20, "month": 8, "categories": {"D-Sen1": {"distance": 8, "rank": 58, "pace": 407000000000, "time": 3300.3}}, "weekday": "wednesday", "livingplace": "Renens"}}, "location": "M\u00e9zi\u00e8res VD"}, "Schweizer Frauenlauf Bern": {"latitude": 46.9479739, "longitude": 7.4474468, "race": "Schweizer Frauenlauf Bern", "date": {"dim. 14.06.2015": {"year": 2015, "day": 14, "month": 6, "categories": {"10-W35": {"distance": 10, "rank": 381, "pace": 398000000000, "time": 3983.7}}, "weekday": "sunday", "livingplace": "Renens"}}, "location": "Bern"}, "20km de Lausanne": {"latitude": 46.5196535, "longitude": 6.6322734, "race": "20km de Lausanne", "date": {"sam. 25.04.2015": {"year": 2015, "day": 25, "month": 4, "categories": {"10-F30": {"distance": 10, "rank": 779, "pace": 383000000000, "time": 3837.1}}, "weekday": "saturday", "livingplace": "Renens"}, "sam. 26.04.2014": {"year": 2014, "day": 26, "month": 4, "categories": {"10-F30": {"distance": 10, "rank": 631, "pace": 385000000000, "time": 3854.7}}, "weekday": "saturday", "livingplace": "Renens"}}, "location": "Lausanne"}, "Tour du Pays de Vaud #4, La Sarraz": {"latitude": 46.7088129, "longitude": 6.5707689, "race": "Tour du Pays de Vaud #4, La Sarraz", "date": {"mer. 03.09.2014": {"year": 2014, "day": 3, "month": 9, "categories": {"D-Sen1": {"distance": 9, "rank": 67, "pace": 369000000000, "time": 3139.3}}, "weekday": "wednesday", "livingplace": "Renens"}}, "location": "Chavornay"}, "Tour du Pays de Vaud #3, Chavornay": {"latitude": 46.7784736, "longitude": 6.641183, "race": "Tour du Pays de Vaud #3, Chavornay", "date": {"mer. 27.08.2014": {"year": 2014, "day": 27, "month": 8, "categories": {"D-Sen1": {"distance": 9, "rank": 62, "pace": 388000000000, "time": 3337.7}}, "weekday": "wednesday", "livingplace": "Renens"}}, "location": "Yverdon-les-Bains"}}, "birth": 1980}