{"name": "Ballif Pascale", "sex": "F", "races": {"20km de Lausanne": {"latitude": 46.5196535, "longitude": 6.6322734, "race": "20km de Lausanne", "date": {"sam. 27.04.2013": {"year": 2013, "day": 27, "month": 4, "categories": {"10-F20": {"distance": 10, "rank": 715, "pace": 379000000000, "time": 3792.6}}, "weekday": "saturday", "livingplace": "Preverenges"}, "sam. 25.04.2015": {"year": 2015, "day": 25, "month": 4, "categories": {"10-F20": {"distance": 10, "rank": 528, "pace": 345000000000, "time": 3458.2}}, "weekday": "saturday", "livingplace": "Preverenges"}}, "location": "Lausanne"}, "Tour du Pays de Vaud #4 - La Sarraz": {"latitude": 46.7088129, "longitude": 6.5707689, "race": "Tour du Pays de Vaud #4 - La Sarraz", "date": {"mer. 04.09.2013": {"year": 2013, "day": 4, "month": 9, "categories": {"D-Dam": {"distance": 9, "rank": 48, "pace": 386000000000, "time": 3281.7}}, "weekday": "wednesday", "livingplace": "Preverenges"}}, "location": "Chavornay"}, "Tour du pays de Vaud #1 - Penthaz": {"latitude": 46.5993131, "longitude": 6.539251200000001, "race": "Tour du pays de Vaud #1 - Penthaz", "date": {"mer. 14.08.2013": {"year": 2013, "day": 14, "month": 8, "categories": {"D-Dam": {"distance": 9, "rank": 39, "pace": 367000000000, "time": 3133.8}}, "weekday": "wednesday", "livingplace": "Preverenges"}}, "location": "Penthaz"}, "Tour du Pays de Vaud printanier #1 Moudon": {"latitude": 46.3832683, "longitude": 6.2347852, "race": "Tour du Pays de Vaud printanier #1 Moudon", "date": {"mer. 04.06.2014": {"year": 2014, "day": 4, "month": 6, "categories": {"D-Dam": {"distance": 8, "rank": 31, "pace": 371000000000, "time": 3122.2}}, "weekday": "wednesday", "livingplace": "Preverenges"}}, "location": "Nyon"}, "Tour du Pays de Vaud #2 - Mezi\u00e8res": {"latitude": 46.5955273, "longitude": 6.7702883, "race": "Tour du Pays de Vaud #2 - Mezi\u00e8res", "date": {"mer. 21.08.2013": {"year": 2013, "day": 21, "month": 8, "categories": {"D-Dam": {"distance": 8, "rank": 43, "pace": 402000000000, "time": 3260.3}}, "weekday": "wednesday", "livingplace": "Preverenges"}}, "location": "M\u00e9zi\u00e8res VD"}}, "birth": 1986}