{"name": "Balmer Ma\u00ebl", "sex": "M", "races": {"BCN Tour La Chaux-de-Fonds": {"latitude": 46.9262933, "longitude": 6.6324944, "race": "BCN Tour La Chaux-de-Fonds", "date": {"mer. 23.05.2012": {"year": 2012, "day": 23, "month": 5, "categories": {"HE": {"distance": 11, "rank": 213, "pace": 345000000000, "time": 3727.3}}, "weekday": "wednesday", "livingplace": "Nods"}}, "location": "Couvet"}, "BCN Tour Les Ponts-de-Martel": {"latitude": 46.999113, "longitude": 6.733554799999999, "race": "BCN Tour Les Ponts-de-Martel", "date": {"mer. 09.05.2012": {"year": 2012, "day": 9, "month": 5, "categories": {"HE": {"distance": 10, "rank": 68, "pace": 279000000000, "time": 2877.1}}, "weekday": "wednesday", "livingplace": "Nods"}}, "location": "Les Ponts-de-Martel"}, "BCN Tour Neuch\u00e2tel": {"latitude": 46.9899874, "longitude": 6.9292732, "race": "BCN Tour Neuch\u00e2tel", "date": {"mer. 30.05.2012": {"year": 2012, "day": 30, "month": 5, "categories": {"HE": {"distance": 11, "rank": 257, "pace": 383000000000, "time": 4299.5}}, "weekday": "wednesday", "livingplace": "Nods"}}, "location": "Neuch\u00e2tel"}, "BCN Tour Couvet": {"latitude": 47.0624261, "longitude": 6.9175754, "race": "BCN Tour Couvet", "date": {"mer. 02.05.2012": {"year": 2012, "day": 2, "month": 5, "categories": {"HE": {"distance": 11, "rank": 190, "pace": 348000000000, "time": 3882.9}}, "weekday": "wednesday", "livingplace": "Nods"}}, "location": "Ch\u00e9zard-St-Martin"}, "BCN Tour Colombier": {"latitude": 47.1034892, "longitude": 6.832783800000001, "race": "BCN Tour Colombier", "date": {"mer. 16.05.2012": {"year": 2012, "day": 16, "month": 5, "categories": {"HE": {"distance": 11, "rank": 226, "pace": 339000000000, "time": 3661.4}}, "weekday": "wednesday", "livingplace": "Nods"}}, "location": "La Chaux-de-Fonds"}, "BCN Tour Cornaux": {"latitude": 46.9668714, "longitude": 6.8589727, "race": "BCN Tour Cornaux", "date": {"mer. 25.04.2012": {"year": 2012, "day": 25, "month": 4, "categories": {"HE": {"distance": 11, "rank": 216, "pace": 412000000000, "time": 4538.8}}, "weekday": "wednesday", "livingplace": "Nods"}}, "location": "Colombier NE"}}, "birth": 1989}