{"name": "Balmer Philipp", "sex": "M", "races": {"Kerzerslauf": {"latitude": 46.97488999999999, "longitude": 7.1954365, "race": "Kerzerslauf", "date": {"sam. 20.03.2010": {"year": 2010, "day": 20, "month": 3, "categories": {"15-M35": {"distance": 15, "rank": 193, "pace": 275000000000, "time": 4136.2}}, "weekday": "saturday", "livingplace": "Bern"}}, "location": "Kerzers"}, "Birslauf Basel": {"latitude": 47.5595986, "longitude": 7.5885761, "race": "Birslauf Basel", "date": {"sam. 24.03.2007": {"year": 2007, "day": 24, "month": 3, "categories": {"M\u00e4nner": {"distance": 10, "rank": 77, "pace": 240000000000, "time": 2406.0}}, "weekday": "saturday", "livingplace": "Basel"}, "sam. 05.04.2008": {"year": 2008, "day": 5, "month": 4, "categories": {"M": {"distance": 10, "rank": 124, "pace": 249000000000, "time": 2494.3}}, "weekday": "saturday", "livingplace": "Basel"}}, "location": "Basel"}, "Steinh\u00f6lzlilauf, Liebefeld": {"latitude": 46.933331, "longitude": 7.416668, "race": "Steinh\u00f6lzlilauf, Liebefeld", "date": {"dim. 02.12.2012": {"year": 2012, "day": 2, "month": 12, "categories": {"L-S1M": {"distance": 11, "rank": 23, "pace": 303000000000, "time": 3183.0}}, "weekday": "sunday", "livingplace": "Bern"}, "dim. 07.12.2008": {"year": 2008, "day": 7, "month": 12, "categories": {"SenMI": {"distance": 11, "rank": 22, "pace": 270000000000, "time": 2842.7}}, "weekday": "sunday", "livingplace": "Bern"}}, "location": "Liebefeld"}, "Z\u00fcrich Marathon, Teamrun und Cityrun": {"latitude": 47.3768866, "longitude": 8.541694, "race": "Z\u00fcrich Marathon, Teamrun und Cityrun", "date": {"dim. 01.04.2007": {"year": 2007, "day": 1, "month": 4, "categories": {"M30": {"distance": 42, "rank": 440, "pace": 291000000000, "time": 12297.8}}, "weekday": "sunday", "livingplace": "Basel"}}, "location": "Z\u00fcrich"}, "Hallwilerseelauf, Beinwil am See": {"latitude": NaN, "longitude": NaN, "race": "Hallwilerseelauf, Beinwil am See", "date": {"sam. 10.10.2009": {"year": 2009, "day": 10, "month": 10, "categories": {"21-M30": {"distance": 21, "rank": 161, "pace": 268000000000, "time": 5667.4}}, "weekday": "saturday", "livingplace": "Bern"}}, "location": "Beinwil am See"}, "Basler Marathon-Tage": {"latitude": 47.5595986, "longitude": 7.5885761, "race": "Basler Marathon-Tage", "date": {"sam. 27.10.2007": {"year": 2007, "day": 27, "month": 10, "categories": {"HM/M30": {"distance": 21, "rank": 48, "pace": 274000000000, "time": 5786.1}}, "weekday": "saturday", "livingplace": "Basel"}}, "location": "Basel"}, "Int Greifenseelauf, Uster": {"latitude": 47.3482747, "longitude": 8.717873899999999, "race": "Int Greifenseelauf, Uster", "date": {"sam. 19.09.2009": {"year": 2009, "day": 19, "month": 9, "categories": {"H-M30": {"distance": 21, "rank": 174, "pace": 281000000000, "time": 5930.1}}, "weekday": "saturday", "livingplace": "Bern"}}, "location": "Uster"}}, "birth": 1975}