{"name": "Bapst Florian", "sex": "M", "races": {"Int  Bieler Cross, Biel-Bienne": {"latitude": 47.1367785, "longitude": 7.2467909, "race": "Int  Bieler Cross, Biel-Bienne", "date": {"dim. 10.11.2013": {"year": 2013, "day": 10, "month": 11, "categories": {"MU18": {"distance": 5, "rank": 8, "pace": 229000000000, "time": 1103.3}}, "weekday": "sunday", "livingplace": "Biel/Bienne"}}, "location": "Biel/Bienne"}, "Sierre-Zinal, Sierre": {"latitude": 46.29413110000001, "longitude": 7.533536199999999, "race": "Sierre-Zinal, Sierre", "date": {"dim. 09.08.2015": {"year": 2015, "day": 9, "month": 8, "categories": {"Jun_Homm": {"distance": 19, "rank": 22, "pace": 313000000000, "time": 5949.1}}, "weekday": "sunday", "livingplace": "Biel/Bienne"}}, "location": "Sierre"}, "Morat-Fribourg": {"latitude": 46.92922110000001, "longitude": 7.120184, "race": "Morat-Fribourg", "date": {"sam. 05.10.2013": {"year": 2013, "day": 5, "month": 10, "categories": {"17-CadH": {"distance": 17, "rank": 7, "pace": 253000000000, "time": 4427.3}}, "weekday": "saturday", "livingplace": "Biel/Bienne"}, "sam. 04.10.2014": {"year": 2014, "day": 4, "month": 10, "categories": {"17-CadH": {"distance": 17, "rank": 7, "pace": 263000000000, "time": 4530.5}}, "weekday": "saturday", "livingplace": "Biel/Bienne"}}, "location": "Murten"}, "Kerzerslauf": {"latitude": 46.97488999999999, "longitude": 7.1954365, "race": "Kerzerslauf", "date": {"sam. 21.03.2015": {"year": 2015, "day": 21, "month": 3, "categories": {"5-U20M": {"distance": 5, "rank": 5, "pace": 218000000000, "time": 1092.8}}, "weekday": "saturday", "livingplace": "Biel/Bienne"}, "sam. 15.03.2014": {"year": 2014, "day": 15, "month": 3, "categories": {"15-U20M": {"distance": 15, "rank": 5, "pace": 229000000000, "time": 3443.5}}, "weekday": "saturday", "livingplace": "Biel/Bienne"}}, "location": "Kerzers"}, "Corrida Bulloise, Bulle": {"latitude": 46.6154512, "longitude": 7.057726799999999, "race": "Corrida Bulloise, Bulle", "date": {"sam. 15.11.2014": {"year": 2014, "day": 15, "month": 11, "categories": {"CadM-U18": {"distance": 6, "rank": 6, "pace": 218000000000, "time": 1343.0}}, "weekday": "saturday", "livingplace": "Biel/Bienne"}}, "location": "Bulle"}}, "birth": 1997}