{"name": "Barrilliet Herv\u00e9", "sex": "M", "races": {"Lausanne Marathon": {"latitude": 46.5196535, "longitude": 6.6322734, "race": "Lausanne Marathon", "date": {"sam. 24.10.2015": {"year": 2015, "day": 24, "month": 10, "categories": {"21-H40": {"distance": 21, "rank": 423, "pace": 314000000000, "time": 6636.9}}, "weekday": "saturday", "livingplace": "Etagnieres"}}, "location": "Lausanne"}, "Morat-Fribourg": {"latitude": 46.92922110000001, "longitude": 7.120184, "race": "Morat-Fribourg", "date": {"sam. 03.10.2015": {"year": 2015, "day": 3, "month": 10, "categories": {"17-M40": {"distance": 17, "rank": 448, "pace": 324000000000, "time": 5568.2}}, "weekday": "saturday", "livingplace": "Etagnieres"}}, "location": "Murten"}, "Corrida Bulloise, Bulle": {"latitude": 46.6154512, "longitude": 7.057726799999999, "race": "Corrida Bulloise, Bulle", "date": {"sam. 21.11.2015": {"year": 2015, "day": 21, "month": 11, "categories": {"8-M40": {"distance": 8, "rank": 131, "pace": 299000000000, "time": 2444.3}}, "weekday": "saturday", "livingplace": "Etagnieres"}}, "location": "Bulle"}, "Montreux - Les Rochers de Naye": {"latitude": 46.4312213, "longitude": 6.9106799, "race": "Montreux - Les Rochers de Naye", "date": {"dim. 05.07.2015": {"year": 2015, "day": 5, "month": 7, "categories": {"M-HV\u00e9t1": {"distance": 19, "rank": 107, "pace": 569000000000, "time": 10704.8}}, "weekday": "sunday", "livingplace": "Etagnieres"}}, "location": "Montreux"}, "20km de Lausanne": {"latitude": 46.5196535, "longitude": 6.6322734, "race": "20km de Lausanne", "date": {"sam. 25.04.2015": {"year": 2015, "day": 25, "month": 4, "categories": {"10-H40": {"distance": 10, "rank": 273, "pace": 320000000000, "time": 3203.3}}, "weekday": "saturday", "livingplace": "Assens"}}, "location": "Lausanne"}, "Les Traine-Savates, Cheseaux-sur-Lausanne": {"latitude": 46.585452, "longitude": 6.6047712, "race": "Les Traine-Savates, Cheseaux-sur-Lausanne", "date": {"sam. 18.04.2015": {"year": 2015, "day": 18, "month": 4, "categories": {"10-M40": {"distance": 10, "rank": 165, "pace": 313000000000, "time": 3225.5}}, "weekday": "saturday", "livingplace": "Assens"}}, "location": "Cheseaux-sur-Lausanne"}}, "birth": 1972}