{"name": "Barthet Cyril", "sex": "M", "races": {"Tour du Pays de Vaud printanier #1 Chavornay": {"latitude": 46.3832683, "longitude": 6.2347852, "race": "Tour du Pays de Vaud printanier #1 Chavornay", "date": {"mer. 30.05.2012": {"year": 2012, "day": 30, "month": 5, "categories": {"H-Sen1": {"distance": 9, "rank": 53, "pace": 316000000000, "time": 2831.5}}, "weekday": "wednesday", "livingplace": "Romainmotier"}}, "location": "Nyon"}, "Tour du Pays de Vaud #3 - Mezi\u00e8res": {"latitude": 46.7784736, "longitude": 6.641183, "race": "Tour du Pays de Vaud #3 - Mezi\u00e8res", "date": {"mer. 22.08.2012": {"year": 2012, "day": 22, "month": 8, "categories": {"H-Sen1": {"distance": 8, "rank": 75, "pace": 307000000000, "time": 2583.8}}, "weekday": "wednesday", "livingplace": "Romainmotier"}}, "location": "Yverdon-les-Bains"}, "Tour du pays de Vaud #1 - Penthaz": {"latitude": 46.5993131, "longitude": 6.539251200000001, "race": "Tour du pays de Vaud #1 - Penthaz", "date": {"mer. 14.08.2013": {"year": 2013, "day": 14, "month": 8, "categories": {"H-Sen1": {"distance": 9, "rank": 111, "pace": 302000000000, "time": 2576.2}}, "weekday": "wednesday", "livingplace": "Romainmotier"}, "mer. 08.08.2012": {"year": 2012, "day": 8, "month": 8, "categories": {"H-Sen1": {"distance": 9, "rank": 107, "pace": 297000000000, "time": 2541.9}}, "weekday": "wednesday", "livingplace": "Romainmotier"}}, "location": "Penthaz"}, "Tour du Pays de Vaud #2 - Mezi\u00e8res": {"latitude": 46.5955273, "longitude": 6.7702883, "race": "Tour du Pays de Vaud #2 - Mezi\u00e8res", "date": {"mer. 21.08.2013": {"year": 2013, "day": 21, "month": 8, "categories": {"H-Sen1": {"distance": 8, "rank": 108, "pace": 333000000000, "time": 2701.8}}, "weekday": "wednesday", "livingplace": "Romainmotier"}}, "location": "M\u00e9zi\u00e8res VD"}, "Tour du Pays de Vaud #2 - Genolier": {"latitude": 46.5955273, "longitude": 6.7702883, "race": "Tour du Pays de Vaud #2 - Genolier", "date": {"mer. 15.08.2012": {"year": 2012, "day": 15, "month": 8, "categories": {"H-Sen1": {"distance": 9, "rank": 122, "pace": 308000000000, "time": 2621.4}}, "weekday": "wednesday", "livingplace": "Romainmotier"}}, "location": "M\u00e9zi\u00e8res VD"}, "Tour du Pays de Vaud printanier #3 - Yens": {"latitude": 46.7829756, "longitude": 6.5728678, "race": "Tour du Pays de Vaud printanier #3 - Yens", "date": {"mer. 12.06.2013": {"year": 2013, "day": 12, "month": 6, "categories": {"H-Sen1": {"distance": 9, "rank": 70, "pace": 314000000000, "time": 2864.3}}, "weekday": "wednesday", "livingplace": "Romainmotier"}}, "location": "Champvent"}, "Tour du Pays de Vaud printanier #2 Yens": {"latitude": 46.6698891, "longitude": 6.7975224, "race": "Tour du Pays de Vaud printanier #2 Yens", "date": {"mer. 06.06.2012": {"year": 2012, "day": 6, "month": 6, "categories": {"H-Sen1": {"distance": 9, "rank": 49, "pace": 303000000000, "time": 2762.8}}, "weekday": "wednesday", "livingplace": "Romainmotier"}}, "location": "Moudon"}, "Tour du Pays de Vaud #3 - Chavornay": {"latitude": 46.7784736, "longitude": 6.641183, "race": "Tour du Pays de Vaud #3 - Chavornay", "date": {"mer. 28.08.2013": {"year": 2013, "day": 28, "month": 8, "categories": {"H-Sen1": {"distance": 9, "rank": 124, "pace": 314000000000, "time": 2795.0}}, "weekday": "wednesday", "livingplace": "Romainmotier"}}, "location": "Yverdon-les-Bains"}, "Lausanne Marathon": {"latitude": 46.5196535, "longitude": 6.6322734, "race": "Lausanne Marathon", "date": {"dim. 31.10.2010": {"year": 2010, "day": 31, "month": 10, "categories": {"10-H1": {"distance": 10, "rank": 209, "pace": 295000000000, "time": 2954.4}}, "weekday": "sunday", "livingplace": "Penthalaz"}, "dim. 30.10.2011": {"year": 2011, "day": 30, "month": 10, "categories": {"10-H1": {"distance": 10, "rank": 239, "pace": 296000000000, "time": 2966.9}}, "weekday": "sunday", "livingplace": "Romainmotier"}}, "location": "Lausanne"}, "Tour du Pays de Vaud #4 - La Sarraz": {"latitude": 46.7088129, "longitude": 6.5707689, "race": "Tour du Pays de Vaud #4 - La Sarraz", "date": {"mer. 29.08.2012": {"year": 2012, "day": 29, "month": 8, "categories": {"H-Sen1": {"distance": 9, "rank": 121, "pace": 296000000000, "time": 2524.3}}, "weekday": "wednesday", "livingplace": "Romainmotier"}, "mer. 04.09.2013": {"year": 2013, "day": 4, "month": 9, "categories": {"H-Sen1": {"distance": 9, "rank": 102, "pace": 309000000000, "time": 2630.8}}, "weekday": "wednesday", "livingplace": "Romainmotier"}}, "location": "Chavornay"}, "20km de Lausanne": {"latitude": 46.5196535, "longitude": 6.6322734, "race": "20km de Lausanne", "date": {"sam. 28.04.2012": {"year": 2012, "day": 28, "month": 4, "categories": {"10-H30": {"distance": 10, "rank": 589, "pace": 325000000000, "time": 3255.7}}, "weekday": "saturday", "livingplace": "Team Provimi Kliba"}}, "location": "Lausanne"}, "Les Traine-Savates, Cheseaux-sur-Lausanne": {"latitude": 46.585452, "longitude": 6.6047712, "race": "Les Traine-Savates, Cheseaux-sur-Lausanne", "date": {"sam. 13.04.2013": {"year": 2013, "day": 13, "month": 4, "categories": {"10-M20": {"distance": 10, "rank": 204, "pace": 321000000000, "time": 3312.7}}, "weekday": "saturday", "livingplace": "Romainmotier"}, "sam. 14.04.2012": {"year": 2012, "day": 14, "month": 4, "categories": {"10-M20": {"distance": 10, "rank": 221, "pace": 328000000000, "time": 3415.1}}, "weekday": "saturday", "livingplace": "Romainmotier"}, "sam. 12.04.2014": {"year": 2014, "day": 12, "month": 4, "categories": {"10-M20": {"distance": 10, "rank": 226, "pace": 318000000000, "time": 3278.8}}, "weekday": "saturday", "livingplace": "Romainmotier"}}, "location": "Cheseaux-sur-Lausanne"}}, "birth": 1982}