{"name": "Baseggio Olivier", "sex": "M", "races": {"Tour du Chablais #1 Roche": {"latitude": 46.2957462, "longitude": 6.9916269, "race": "Tour du Chablais #1 Roche", "date": {"mer. 07.04.2010": {"year": 2010, "day": 7, "month": 4, "categories": {"M-M40": {"distance": 9, "rank": 152, "pace": 312000000000, "time": 2792.7}}, "weekday": "wednesday", "livingplace": "St Maurice"}, "mer. 03.04.2013": {"year": 2013, "day": 3, "month": 4, "categories": {"M-M40": {"distance": 9, "rank": 48, "pace": 261000000000, "time": 2317.0}}, "weekday": "wednesday", "livingplace": "St Maurice"}}, "location": "Ollon VD"}, "Tour du Chablais #2 Rennaz": {"latitude": 46.3835529, "longitude": 6.854975199999999, "race": "Tour du Chablais #2 Rennaz", "date": {"mer. 04.05.2011": {"year": 2011, "day": 4, "month": 5, "categories": {"M-M40": {"distance": 9, "rank": 75, "pace": 265000000000, "time": 2482.3}}, "weekday": "wednesday", "livingplace": "St Maurice"}}, "location": "Bouveret"}, "Morat-Fribourg": {"latitude": 46.92922110000001, "longitude": 7.120184, "race": "Morat-Fribourg", "date": {"sam. 01.10.2011": {"year": 2011, "day": 1, "month": 10, "categories": {"17-M45": {"distance": 17, "rank": 222, "pace": 291000000000, "time": 5004.3}}, "weekday": "saturday", "livingplace": "St Maurice"}, "sam. 06.10.2012": {"year": 2012, "day": 6, "month": 10, "categories": {"17-M45": {"distance": 17, "rank": 288, "pace": 302000000000, "time": 5280.0}}, "weekday": "saturday", "livingplace": "St Maurice"}, "sam. 03.10.2015": {"year": 2015, "day": 3, "month": 10, "categories": {"17-M50": {"distance": 17, "rank": 120, "pace": 292000000000, "time": 5026.7}}, "weekday": "saturday", "livingplace": "St Maurice"}}, "location": "Murten"}, "Tour du Chablais #3 Le Bouveret": {"latitude": 46.1782231, "longitude": 7.0223787, "race": "Tour du Chablais #3 Le Bouveret", "date": {"mer. 11.05.2011": {"year": 2011, "day": 11, "month": 5, "categories": {"M-M40": {"distance": 10, "rank": 70, "pace": 267000000000, "time": 2671.7}}, "weekday": "wednesday", "livingplace": "St Maurice"}}, "location": "Evionnaz"}, "Tour du Chablais #6 Monthey": {"latitude": 46.3190253, "longitude": 6.970566, "race": "Tour du Chablais #6 Monthey", "date": {"mer. 08.05.2013": {"year": 2013, "day": 8, "month": 5, "categories": {"M-M40": {"distance": 9, "rank": 54, "pace": 261000000000, "time": 2436.3}}, "weekday": "wednesday", "livingplace": "St Maurice"}}, "location": "Aigle"}, "Tour du Chablais #1 Lavey": {"latitude": 46.2957462, "longitude": 6.9916269, "race": "Tour du Chablais #1 Lavey", "date": {"mer. 27.04.2011": {"year": 2011, "day": 27, "month": 4, "categories": {"M-M40": {"distance": 9, "rank": 67, "pace": 268000000000, "time": 2420.1}}, "weekday": "wednesday", "livingplace": "St Maurice"}}, "location": "Ollon VD"}, "Tour du Chablais #2 Yvorne": {"latitude": 46.3835529, "longitude": 6.854975199999999, "race": "Tour du Chablais #2 Yvorne", "date": {"mer. 10.04.2013": {"year": 2013, "day": 10, "month": 4, "categories": {"M-M40": {"distance": 8, "rank": 43, "pace": 285000000000, "time": 2282.0}}, "weekday": "wednesday", "livingplace": "St Maurice"}}, "location": "Bouveret"}, "Tour du Chablais #5 Leysin": {"latitude": 46.3603257, "longitude": 6.931504599999999, "race": "Tour du Chablais #5 Leysin", "date": {"mer. 05.05.2010": {"year": 2010, "day": 5, "month": 5, "categories": {"M-M40": {"distance": 8, "rank": 91, "pace": 331000000000, "time": 2801.4}}, "weekday": "wednesday", "livingplace": "St Maurice"}}, "location": "Roche VD"}, "Tour du Chablais #5 Bex": {"latitude": 46.3603257, "longitude": 6.931504599999999, "race": "Tour du Chablais #5 Bex", "date": {"mer. 09.05.2012": {"year": 2012, "day": 9, "month": 5, "categories": {"M-M40": {"distance": 9, "rank": 44, "pace": 259000000000, "time": 2303.2}}, "weekday": "wednesday", "livingplace": "St Maurice"}}, "location": "Roche VD"}, "Tour du Chablais #4 Champ\u00e9ry": {"latitude": NaN, "longitude": NaN, "race": "Tour du Chablais #4 Champ\u00e9ry", "date": {"mer. 02.05.2012": {"year": 2012, "day": 2, "month": 5, "categories": {"M-M40": {"distance": 8, "rank": 59, "pace": 267000000000, "time": 2216.8}}, "weekday": "wednesday", "livingplace": "St Maurice"}}, "location": "Les Mosses"}, "Tour du Chablais #5 Morgins": {"latitude": 46.3603257, "longitude": 6.931504599999999, "race": "Tour du Chablais #5 Morgins", "date": {"mer. 01.05.2013": {"year": 2013, "day": 1, "month": 5, "categories": {"M-M40": {"distance": 8, "rank": 46, "pace": 278000000000, "time": 2114.4}}, "weekday": "wednesday", "livingplace": "St Maurice"}}, "location": "Roche VD"}, "Tour du Chablais #5 Les Mosses": {"latitude": 46.3603257, "longitude": 6.931504599999999, "race": "Tour du Chablais #5 Les Mosses", "date": {"mer. 25.05.2011": {"year": 2011, "day": 25, "month": 5, "categories": {"M-M40": {"distance": 8, "rank": 48, "pace": 284000000000, "time": 2278.1}}, "weekday": "wednesday", "livingplace": "St Maurice"}}, "location": "Roche VD"}, "Lausanne Marathon": {"latitude": 46.5196535, "longitude": 6.6322734, "race": "Lausanne Marathon", "date": {"dim. 31.10.2010": {"year": 2010, "day": 31, "month": 10, "categories": {"21-H3": {"distance": 21, "rank": 666, "pace": 329000000000, "time": 6944.4}}, "weekday": "sunday", "livingplace": "St Maurice"}, "dim. 30.10.2011": {"year": 2011, "day": 30, "month": 10, "categories": {"21-H3": {"distance": 21, "rank": 363, "pace": 293000000000, "time": 6186.4}}, "weekday": "sunday", "livingplace": "St Maurice"}, "dim. 28.10.2012": {"year": 2012, "day": 28, "month": 10, "categories": {"10-H3": {"distance": 10, "rank": 112, "pace": 268000000000, "time": 2685.4}}, "weekday": "sunday", "livingplace": "St Maurice"}}, "location": "Lausanne"}, "Tour du Chablais #6 Aigle": {"latitude": 46.3190253, "longitude": 6.970566, "race": "Tour du Chablais #6 Aigle", "date": {"mer. 01.06.2011": {"year": 2011, "day": 1, "month": 6, "categories": {"M-M40": {"distance": 10, "rank": 54, "pace": 261000000000, "time": 2662.3}}, "weekday": "wednesday", "livingplace": "St Maurice"}}, "location": "Aigle"}, "Tour du Chablais #4 St  Maurice": {"latitude": NaN, "longitude": NaN, "race": "Tour du Chablais #4 St  Maurice", "date": {"mer. 24.04.2013": {"year": 2013, "day": 24, "month": 4, "categories": {"M-M40": {"distance": 10, "rank": 52, "pace": 268000000000, "time": 2684.1}}, "weekday": "wednesday", "livingplace": "St Maurice"}}, "location": "Les Mosses"}, "Tour du Chablais #3 Collombey-Muraz": {"latitude": 46.1782231, "longitude": 7.0223787, "race": "Tour du Chablais #3 Collombey-Muraz", "date": {"mer. 25.04.2012": {"year": 2012, "day": 25, "month": 4, "categories": {"M-M40": {"distance": 9, "rank": 57, "pace": 265000000000, "time": 2386.8}}, "weekday": "wednesday", "livingplace": "St Maurice"}}, "location": "Evionnaz"}, "Tour du Chablais #1 Martigny": {"latitude": 46.2957462, "longitude": 6.9916269, "race": "Tour du Chablais #1 Martigny", "date": {"mer. 23.04.2014": {"year": 2014, "day": 23, "month": 4, "categories": {"M-M50": {"distance": 9, "rank": 18, "pace": 258000000000, "time": 2193.4}}, "weekday": "wednesday", "livingplace": "St Maurice"}}, "location": "Ollon VD"}, "Tour du Chablais #3 Bex": {"latitude": 46.1782231, "longitude": 7.0223787, "race": "Tour du Chablais #3 Bex", "date": {"mer. 21.04.2010": {"year": 2010, "day": 21, "month": 4, "categories": {"M-M40": {"distance": 10, "rank": 120, "pace": 301000000000, "time": 3019.6}}, "weekday": "wednesday", "livingplace": "St Maurice"}}, "location": "Evionnaz"}, "Tour du Chablais #4 Morgins": {"latitude": NaN, "longitude": NaN, "race": "Tour du Chablais #4 Morgins", "date": {"mer. 18.05.2011": {"year": 2011, "day": 18, "month": 5, "categories": {"M-M40": {"distance": 8, "rank": 64, "pace": 282000000000, "time": 2358.9}}, "weekday": "wednesday", "livingplace": "St Maurice"}}, "location": "Les Mosses"}, "Tour du Chablais #6 Mouthey": {"latitude": 46.3190253, "longitude": 6.970566, "race": "Tour du Chablais #6 Mouthey", "date": {"mer. 12.05.2010": {"year": 2010, "day": 12, "month": 5, "categories": {"M-M40": {"distance": 9, "rank": 138, "pace": 300000000000, "time": 2760.0}}, "weekday": "wednesday", "livingplace": "St Maurice"}}, "location": "Aigle"}, "Tour du Chablais #1 Montreux": {"latitude": 46.2957462, "longitude": 6.9916269, "race": "Tour du Chablais #1 Montreux", "date": {"mer. 11.04.2012": {"year": 2012, "day": 11, "month": 4, "categories": {"M-M40": {"distance": 8, "rank": 69, "pace": 278000000000, "time": 2113.9}}, "weekday": "wednesday", "livingplace": "St Maurice"}}, "location": "Ollon VD"}, "Tour du Chablais #6 Montreux": {"latitude": 46.3190253, "longitude": 6.970566, "race": "Tour du Chablais #6 Montreux", "date": {"mer. 16.05.2012": {"year": 2012, "day": 16, "month": 5, "categories": {"M-M40": {"distance": 9, "rank": 64, "pace": 259000000000, "time": 2399.8}}, "weekday": "wednesday", "livingplace": "St Maurice"}}, "location": "Aigle"}, "Tour du Chablais #2 Bex": {"latitude": 46.3835529, "longitude": 6.854975199999999, "race": "Tour du Chablais #2 Bex", "date": {"mer. 18.04.2012": {"year": 2012, "day": 18, "month": 4, "categories": {"M-M40": {"distance": 8, "rank": 55, "pace": 267000000000, "time": 2137.5}}, "weekday": "wednesday", "livingplace": "St Maurice"}}, "location": "Bouveret"}, "Tour du Chablais #3 Bouveret": {"latitude": 46.1782231, "longitude": 7.0223787, "race": "Tour du Chablais #3 Bouveret", "date": {"mer. 17.04.2013": {"year": 2013, "day": 17, "month": 4, "categories": {"M-M40": {"distance": 10, "rank": 60, "pace": 271000000000, "time": 2713.1}}, "weekday": "wednesday", "livingplace": "St Maurice"}}, "location": "Evionnaz"}}, "birth": 1964}