{"name": "Bataillard Christophe", "sex": "M", "races": {"Tour du Pays de Vaud printanier #2 Yverdon-les-Bains": {"latitude": 46.6698891, "longitude": 6.7975224, "race": "Tour du Pays de Vaud printanier #2 Yverdon-les-Bains", "date": {"mer. 11.06.2014": {"year": 2014, "day": 11, "month": 6, "categories": {"H-Hom": {"distance": 9, "rank": 15, "pace": 278000000000, "time": 2532.3}}, "weekday": "wednesday", "livingplace": "Lausanne"}}, "location": "Moudon"}, "Tour du Pays de Vaud printanier #1 Moudon": {"latitude": 46.3832683, "longitude": 6.2347852, "race": "Tour du Pays de Vaud printanier #1 Moudon", "date": {"mer. 04.06.2014": {"year": 2014, "day": 4, "month": 6, "categories": {"H-Hom": {"distance": 8, "rank": 20, "pace": 262000000000, "time": 2203.3}}, "weekday": "wednesday", "livingplace": "Lausanne"}}, "location": "Nyon"}, "Morat-Fribourg": {"latitude": 46.92922110000001, "longitude": 7.120184, "race": "Morat-Fribourg", "date": {"sam. 04.10.2014": {"year": 2014, "day": 4, "month": 10, "categories": {"17-M20": {"distance": 17, "rank": 688, "pace": 287000000000, "time": 4932.6}}, "weekday": "saturday", "livingplace": "Lausanne"}}, "location": "Murten"}, "Semi-Marathon de la C\u00f4te, Allaman-Nyon": {"latitude": 46.3832683, "longitude": 6.2347852, "race": "Semi-Marathon de la C\u00f4te, Allaman-Nyon", "date": {"dim. 14.09.2014": {"year": 2014, "day": 14, "month": 9, "categories": {"21-H20": {"distance": 21, "rank": 61, "pace": 304000000000, "time": 6430.4}}, "weekday": "sunday", "livingplace": "Lausanne"}}, "location": "Nyon"}, "Corrida Bulloise, Bulle": {"latitude": 46.6154512, "longitude": 7.057726799999999, "race": "Corrida Bulloise, Bulle", "date": {"sam. 16.11.2013": {"year": 2013, "day": 16, "month": 11, "categories": {"M20": {"distance": 8, "rank": 162, "pace": 284000000000, "time": 2321.4}}, "weekday": "saturday", "livingplace": "Lausanne"}}, "location": "Bulle"}, "Les Traine-Savates, Cheseaux-sur-Lausanne": {"latitude": 46.585452, "longitude": 6.6047712, "race": "Les Traine-Savates, Cheseaux-sur-Lausanne", "date": {"sam. 14.04.2012": {"year": 2012, "day": 14, "month": 4, "categories": {"10-M20": {"distance": 10, "rank": 112, "pace": 270000000000, "time": 2812.1}}, "weekday": "saturday", "livingplace": "Lausanne"}, "sam. 12.04.2014": {"year": 2014, "day": 12, "month": 4, "categories": {"10-M20": {"distance": 10, "rank": 91, "pace": 266000000000, "time": 2745.1}}, "weekday": "saturday", "livingplace": "Lausanne"}}, "location": "Cheseaux-sur-Lausanne"}, "Lausanne Marathon": {"latitude": 46.5196535, "longitude": 6.6322734, "race": "Lausanne Marathon", "date": {"sam. 24.10.2015": {"year": 2015, "day": 24, "month": 10, "categories": {"10-H20": {"distance": 10, "rank": 96, "pace": 241000000000, "time": 2418.0}}, "weekday": "saturday", "livingplace": "Lausanne"}, "dim. 30.10.2011": {"year": 2011, "day": 30, "month": 10, "categories": {"10-H1": {"distance": 10, "rank": 153, "pace": 278000000000, "time": 2781.9}}, "weekday": "sunday", "livingplace": "Lausanne"}, "dim. 26.10.2014": {"year": 2014, "day": 26, "month": 10, "categories": {"10-H20": {"distance": 10, "rank": 132, "pace": 255000000000, "time": 2558.7}}, "weekday": "sunday", "livingplace": "Lausanne"}, "dim. 27.10.2013": {"year": 2013, "day": 27, "month": 10, "categories": {"10-H1": {"distance": 10, "rank": 174, "pace": 273000000000, "time": 2737.9}}, "weekday": "sunday", "livingplace": "Lausanne"}}, "location": "Lausanne"}, "20km de Lausanne": {"latitude": 46.5196535, "longitude": 6.6322734, "race": "20km de Lausanne", "date": {"sam. 25.04.2015": {"year": 2015, "day": 25, "month": 4, "categories": {"10-H20": {"distance": 10, "rank": 386, "pace": 284000000000, "time": 2842.4}}, "weekday": "saturday", "livingplace": "Lausanne"}, "sam. 28.04.2012": {"year": 2012, "day": 28, "month": 4, "categories": {"10-H20": {"distance": 10, "rank": 251, "pace": 291000000000, "time": 2912.1}}, "weekday": "saturday", "livingplace": "Epalinges"}, "sam. 26.04.2014": {"year": 2014, "day": 26, "month": 4, "categories": {"10-H20": {"distance": 10, "rank": 96, "pace": 262000000000, "time": 2620.1}}, "weekday": "saturday", "livingplace": "Lausanne"}}, "location": "Lausanne"}, "D\u00e9fi du vignoble, Cully": {"latitude": 45.565921, "longitude": -122.6066627, "race": "D\u00e9fi du vignoble, Cully", "date": {"mer. 14.05.2014": {"year": 2014, "day": 14, "month": 5, "categories": {"M20": {"distance": 4, "rank": 12, "pace": 465000000000, "time": 1694.0}}, "weekday": "wednesday", "livingplace": "Lausanne"}}, "location": "Cully"}, "Kerzerslauf": {"latitude": 46.97488999999999, "longitude": 7.1954365, "race": "Kerzerslauf", "date": {"sam. 17.03.2012": {"year": 2012, "day": 17, "month": 3, "categories": {"5-M20": {"distance": 5, "rank": 48, "pace": 261000000000, "time": 1305.3}}, "weekday": "saturday", "livingplace": "Lausanne"}}, "location": "Kerzers"}}, "birth": 1986}