{"name": "Baud Anne-Claude", "sex": "F", "races": {"Tour du Pays de Vaud printanier #2 Yverdon-les-Bains": {"latitude": 46.6698891, "longitude": 6.7975224, "race": "Tour du Pays de Vaud printanier #2 Yverdon-les-Bains", "date": {"mer. 05.06.2013": {"year": 2013, "day": 5, "month": 6, "categories": {"D-Sen2": {"distance": 9, "rank": 24, "pace": 358000000000, "time": 3260.6}}, "weekday": "wednesday", "livingplace": "Croy"}}, "location": "Moudon"}, "Les Traine-Savates, Cheseaux-sur-Lausanne": {"latitude": 46.585452, "longitude": 6.6047712, "race": "Les Traine-Savates, Cheseaux-sur-Lausanne", "date": {"sam. 12.04.2014": {"year": 2014, "day": 12, "month": 4, "categories": {"10-W40": {"distance": 10, "rank": 40, "pace": 332000000000, "time": 3420.2}}, "weekday": "saturday", "livingplace": "Croy"}}, "location": "Cheseaux-sur-Lausanne"}, "Morat-Fribourg": {"latitude": 46.92922110000001, "longitude": 7.120184, "race": "Morat-Fribourg", "date": {"sam. 05.10.2013": {"year": 2013, "day": 5, "month": 10, "categories": {"17-W40": {"distance": 17, "rank": 205, "pace": 355000000000, "time": 6201.1}}, "weekday": "saturday", "livingplace": "Croy"}, "sam. 06.10.2012": {"year": 2012, "day": 6, "month": 10, "categories": {"17-W40": {"distance": 17, "rank": 186, "pace": 360000000000, "time": 6287.3}}, "weekday": "saturday", "livingplace": "Croy"}}, "location": "Murten"}, "Tour du Pays de Vaud #2 - Mezi\u00e8res": {"latitude": 46.5955273, "longitude": 6.7702883, "race": "Tour du Pays de Vaud #2 - Mezi\u00e8res", "date": {"mer. 21.08.2013": {"year": 2013, "day": 21, "month": 8, "categories": {"D-Sen2": {"distance": 8, "rank": 31, "pace": 359000000000, "time": 2911.5}}, "weekday": "wednesday", "livingplace": "Croy"}}, "location": "M\u00e9zi\u00e8res VD"}, "Tour du Pays de Vaud printanier #1 Chavornay": {"latitude": 46.3832683, "longitude": 6.2347852, "race": "Tour du Pays de Vaud printanier #1 Chavornay", "date": {"mer. 30.05.2012": {"year": 2012, "day": 30, "month": 5, "categories": {"D-Sen2": {"distance": 9, "rank": 31, "pace": 364000000000, "time": 3261.3}}, "weekday": "wednesday", "livingplace": "Croy"}}, "location": "Nyon"}, "Tour du Pays de Vaud #3 - Chavornay": {"latitude": 46.7784736, "longitude": 6.641183, "race": "Tour du Pays de Vaud #3 - Chavornay", "date": {"mer. 28.08.2013": {"year": 2013, "day": 28, "month": 8, "categories": {"D-Sen2": {"distance": 9, "rank": 24, "pace": 322000000000, "time": 2867.8}}, "weekday": "wednesday", "livingplace": "Croy"}}, "location": "Yverdon-les-Bains"}, "Tour du Pays de Vaud printanier #3 - Yens": {"latitude": 46.7829756, "longitude": 6.5728678, "race": "Tour du Pays de Vaud printanier #3 - Yens", "date": {"mer. 12.06.2013": {"year": 2013, "day": 12, "month": 6, "categories": {"D-Sen2": {"distance": 9, "rank": 22, "pace": 345000000000, "time": 3147.5}}, "weekday": "wednesday", "livingplace": "Croy"}}, "location": "Champvent"}, "Tour du pays de Vaud #1 - Penthaz": {"latitude": 46.5993131, "longitude": 6.539251200000001, "race": "Tour du pays de Vaud #1 - Penthaz", "date": {"mer. 14.08.2013": {"year": 2013, "day": 14, "month": 8, "categories": {"D-Sen2": {"distance": 9, "rank": 40, "pace": 339000000000, "time": 2895.2}}, "weekday": "wednesday", "livingplace": "Croy"}, "mer. 08.08.2012": {"year": 2012, "day": 8, "month": 8, "categories": {"D-Sen2": {"distance": 9, "rank": 31, "pace": 346000000000, "time": 2955.7}}, "weekday": "wednesday", "livingplace": "Croy"}}, "location": "Penthaz"}, "Tour du Pays de Vaud #4 - La Sarraz": {"latitude": 46.7088129, "longitude": 6.5707689, "race": "Tour du Pays de Vaud #4 - La Sarraz", "date": {"mer. 29.08.2012": {"year": 2012, "day": 29, "month": 8, "categories": {"D-Sen2": {"distance": 9, "rank": 45, "pace": 335000000000, "time": 2852.7}}, "weekday": "wednesday", "livingplace": "Croy"}, "mer. 04.09.2013": {"year": 2013, "day": 4, "month": 9, "categories": {"D-Sen2": {"distance": 9, "rank": 29, "pace": 345000000000, "time": 2940.5}}, "weekday": "wednesday", "livingplace": "Croy"}}, "location": "Chavornay"}, "20km de Lausanne": {"latitude": 46.5196535, "longitude": 6.6322734, "race": "20km de Lausanne", "date": {"sam. 27.04.2013": {"year": 2013, "day": 27, "month": 4, "categories": {"10-F40": {"distance": 10, "rank": 121, "pace": 337000000000, "time": 3370.2}}, "weekday": "saturday", "livingplace": "Croy"}, "sam. 28.04.2012": {"year": 2012, "day": 28, "month": 4, "categories": {"10-F40": {"distance": 10, "rank": 184, "pace": 369000000000, "time": 3692.2}}, "weekday": "saturday", "livingplace": "Croy"}, "sam. 25.04.2015": {"year": 2015, "day": 25, "month": 4, "categories": {"10-F45": {"distance": 10, "rank": 134, "pace": 350000000000, "time": 3507.5}}, "weekday": "saturday", "livingplace": "Croy"}}, "location": "Lausanne"}, "Tour du Pays de Vaud printanier #2 Yens": {"latitude": 46.6698891, "longitude": 6.7975224, "race": "Tour du Pays de Vaud printanier #2 Yens", "date": {"mer. 06.06.2012": {"year": 2012, "day": 6, "month": 6, "categories": {"D-Sen2": {"distance": 9, "rank": 27, "pace": 344000000000, "time": 3133.9}}, "weekday": "wednesday", "livingplace": "Croy"}}, "location": "Moudon"}}, "birth": 1970}