{"name": "Bauder Heidi", "sex": "F", "races": {"Langenthaler Stadtlauf": {"latitude": 47.2120786, "longitude": 7.790562299999999, "race": "Langenthaler Stadtlauf", "date": {"sam. 17.11.2007": {"year": 2007, "day": 17, "month": 11, "categories": {"W40": {"distance": 8, "rank": 2, "pace": 276000000000, "time": 2071.8}}, "weekday": "saturday", "livingplace": "Buren"}}, "location": "Langenthal"}, "Schweizer Frauenlauf Bern": {"latitude": 46.9479739, "longitude": 7.4474468, "race": "Schweizer Frauenlauf Bern", "date": {"dim. 15.06.2014": {"year": 2014, "day": 15, "month": 6, "categories": {"10-W45": {"distance": 10, "rank": 320, "pace": 352000000000, "time": 3524.2}}, "weekday": "sunday", "livingplace": "Arch"}}, "location": "Bern"}, "Int  Bieler Cross, Biel-Bienne": {"latitude": 47.1367785, "longitude": 7.2467909, "race": "Int  Bieler Cross, Biel-Bienne", "date": {"dim. 25.11.2007": {"year": 2007, "day": 25, "month": 11, "categories": {"F40": {"distance": 6, "rank": 2, "pace": 291000000000, "time": 1867.3}}, "weekday": "sunday", "livingplace": "Buren"}}, "location": "Biel/Bienne"}, "Int Greifenseelauf, Uster": {"latitude": 47.3482747, "longitude": 8.717873899999999, "race": "Int Greifenseelauf, Uster", "date": {"sam. 22.09.2007": {"year": 2007, "day": 22, "month": 9, "categories": {"K/W40": {"distance": 21, "rank": 125, "pace": 324000000000, "time": 6858.0}}, "weekday": "saturday", "livingplace": "Arch"}}, "location": "Uster"}, "Burgdorfer Stadtlauf, Burgdorf": {"latitude": 45.277123, "longitude": -115.9129022, "race": "Burgdorfer Stadtlauf, Burgdorf", "date": {"sam. 12.09.2009": {"year": 2009, "day": 12, "month": 9, "categories": {"FDA3": {"distance": 8, "rank": 4, "pace": 339000000000, "time": 2712.6}}, "weekday": "saturday", "livingplace": "Arch"}}, "location": "Burgdorf"}, "Kerzerslauf": {"latitude": 46.97488999999999, "longitude": 7.1954365, "race": "Kerzerslauf", "date": {"sam. 21.03.2009": {"year": 2009, "day": 21, "month": 3, "categories": {"15-F40": {"distance": 15, "rank": 102, "pace": 320000000000, "time": 4807.6}}, "weekday": "saturday", "livingplace": "Arch"}, "sam. 17.03.2007": {"year": 2007, "day": 17, "month": 3, "categories": {"F40": {"distance": 15, "rank": 105, "pace": 317000000000, "time": 4758.8}}, "weekday": "saturday", "livingplace": "Arch"}}, "location": "Kerzers"}}, "birth": 1966}