{"name": "Baud Berset Mariette", "sex": "F", "races": {"Tour du Chablais #2 Rennaz": {"latitude": 46.3835529, "longitude": 6.854975199999999, "race": "Tour du Chablais #2 Rennaz", "date": {"mer. 04.05.2011": {"year": 2011, "day": 4, "month": 5, "categories": {"F-F40": {"distance": 9, "rank": 81, "pace": 368000000000, "time": 3443.8}}, "weekday": "wednesday", "livingplace": "Vouvry"}}, "location": "Bouveret"}, "Tour du Chablais #6 Monthey": {"latitude": 46.3190253, "longitude": 6.970566, "race": "Tour du Chablais #6 Monthey", "date": {"mer. 08.05.2013": {"year": 2013, "day": 8, "month": 5, "categories": {"F-F50": {"distance": 9, "rank": 34, "pace": 369000000000, "time": 3442.3}}, "weekday": "wednesday", "livingplace": "Vouvry"}}, "location": "Aigle"}, "Morat-Fribourg": {"latitude": 46.92922110000001, "longitude": 7.120184, "race": "Morat-Fribourg", "date": {"sam. 05.10.2013": {"year": 2013, "day": 5, "month": 10, "categories": {"17-W50": {"distance": 17, "rank": 175, "pace": 416000000000, "time": 7273.9}}, "weekday": "saturday", "livingplace": "Vouvry"}, "sam. 02.10.2010": {"year": 2010, "day": 2, "month": 10, "categories": {"17-W45": {"distance": 17, "rank": 221, "pace": 416000000000, "time": 7149.8}}, "weekday": "saturday", "livingplace": "Vouvry"}, "sam. 01.10.2011": {"year": 2011, "day": 1, "month": 10, "categories": {"17-W45": {"distance": 17, "rank": 213, "pace": 425000000000, "time": 7298.9}}, "weekday": "saturday", "livingplace": "Vouvry"}, "sam. 06.10.2012": {"year": 2012, "day": 6, "month": 10, "categories": {"17-W50": {"distance": 17, "rank": 135, "pace": 428000000000, "time": 7483.9}}, "weekday": "saturday", "livingplace": "Vouvry"}, "sam. 04.10.2014": {"year": 2014, "day": 4, "month": 10, "categories": {"17-W50": {"distance": 17, "rank": 161, "pace": 440000000000, "time": 7562.0}}, "weekday": "saturday", "livingplace": "Vouvry"}}, "location": "Murten"}, "Tour du Chablais #3 Le Bouveret": {"latitude": 46.1782231, "longitude": 7.0223787, "race": "Tour du Chablais #3 Le Bouveret", "date": {"mer. 11.05.2011": {"year": 2011, "day": 11, "month": 5, "categories": {"F-F40": {"distance": 10, "rank": 74, "pace": 368000000000, "time": 3684.2}}, "weekday": "wednesday", "livingplace": "Vouvry"}}, "location": "Evionnaz"}, "20km de Lausanne": {"latitude": 46.5196535, "longitude": 6.6322734, "race": "20km de Lausanne", "date": {"sam. 28.04.2012": {"year": 2012, "day": 28, "month": 4, "categories": {"10-F50": {"distance": 10, "rank": 98, "pace": 395000000000, "time": 3952.2}}, "weekday": "saturday", "livingplace": "Vouvry"}}, "location": "Lausanne"}, "Tour du Chablais #1 Lavey": {"latitude": 46.2957462, "longitude": 6.9916269, "race": "Tour du Chablais #1 Lavey", "date": {"mer. 27.04.2011": {"year": 2011, "day": 27, "month": 4, "categories": {"F-F40": {"distance": 9, "rank": 73, "pace": 373000000000, "time": 3361.1}}, "weekday": "wednesday", "livingplace": "Vouvry"}}, "location": "Ollon VD"}, "La Montheysanne, Monthey": {"latitude": 46.2521873, "longitude": 6.9469598, "race": "La Montheysanne, Monthey", "date": {"dim. 23.08.2015": {"year": 2015, "day": 23, "month": 8, "categories": {"5-DA3": {"distance": 5, "rank": 21, "pace": 385000000000, "time": 1927.9}}, "weekday": "sunday", "livingplace": "Vouvry"}, "dim. 24.08.2014": {"year": 2014, "day": 24, "month": 8, "categories": {"10-DA3": {"distance": 10, "rank": 22, "pace": 382000000000, "time": 3828.1}}, "weekday": "sunday", "livingplace": "Vouvry"}, "dim. 25.08.2013": {"year": 2013, "day": 25, "month": 8, "categories": {"10-DA3": {"distance": 10, "rank": 16, "pace": 366000000000, "time": 3668.5}}, "weekday": "sunday", "livingplace": "Vouvry"}}, "location": "Monthey"}, "Tour du Chablais #2 Yvorne": {"latitude": 46.3835529, "longitude": 6.854975199999999, "race": "Tour du Chablais #2 Yvorne", "date": {"mer. 10.04.2013": {"year": 2013, "day": 10, "month": 4, "categories": {"F-F50": {"distance": 8, "rank": 35, "pace": 441000000000, "time": 3532.0}}, "weekday": "wednesday", "livingplace": "Vouvry"}}, "location": "Bouveret"}, "Tour du Chablais #2 St-Gingolph": {"latitude": 46.3835529, "longitude": 6.854975199999999, "race": "Tour du Chablais #2 St-Gingolph", "date": {"mer. 14.04.2010": {"year": 2010, "day": 14, "month": 4, "categories": {"F-F40": {"distance": 8, "rank": 62, "pace": 388000000000, "time": 3242.7}}, "weekday": "wednesday", "livingplace": "Vouvry"}}, "location": "Bouveret"}, "Tour du Chablais #5 Bex": {"latitude": 46.3603257, "longitude": 6.931504599999999, "race": "Tour du Chablais #5 Bex", "date": {"mer. 09.05.2012": {"year": 2012, "day": 9, "month": 5, "categories": {"F-F50": {"distance": 9, "rank": 33, "pace": 371000000000, "time": 3290.8}}, "weekday": "wednesday", "livingplace": "Vouvry"}}, "location": "Roche VD"}, "Tour du Chablais #4 Champ\u00e9ry": {"latitude": NaN, "longitude": NaN, "race": "Tour du Chablais #4 Champ\u00e9ry", "date": {"mer. 02.05.2012": {"year": 2012, "day": 2, "month": 5, "categories": {"F-F50": {"distance": 8, "rank": 34, "pace": 383000000000, "time": 3185.5}}, "weekday": "wednesday", "livingplace": "Vouvry"}}, "location": "Les Mosses"}, "Tour du Chablais #5 Morgins": {"latitude": 46.3603257, "longitude": 6.931504599999999, "race": "Tour du Chablais #5 Morgins", "date": {"mer. 01.05.2013": {"year": 2013, "day": 1, "month": 5, "categories": {"F-F50": {"distance": 8, "rank": 38, "pace": 403000000000, "time": 3065.1}}, "weekday": "wednesday", "livingplace": "Vouvry"}}, "location": "Roche VD"}, "Tour du Chablais #5 Les Mosses": {"latitude": 46.3603257, "longitude": 6.931504599999999, "race": "Tour du Chablais #5 Les Mosses", "date": {"mer. 25.05.2011": {"year": 2011, "day": 25, "month": 5, "categories": {"F-F40": {"distance": 8, "rank": 71, "pace": 403000000000, "time": 3229.1}}, "weekday": "wednesday", "livingplace": "Vouvry"}}, "location": "Roche VD"}, "Tour du Chablais #6 Aigle": {"latitude": 46.3190253, "longitude": 6.970566, "race": "Tour du Chablais #6 Aigle", "date": {"mer. 01.06.2011": {"year": 2011, "day": 1, "month": 6, "categories": {"F-F40": {"distance": 10, "rank": 66, "pace": 357000000000, "time": 3648.6}}, "weekday": "wednesday", "livingplace": "Vouvry"}}, "location": "Aigle"}, "Tour du Chablais #4 St  Maurice": {"latitude": NaN, "longitude": NaN, "race": "Tour du Chablais #4 St  Maurice", "date": {"mer. 24.04.2013": {"year": 2013, "day": 24, "month": 4, "categories": {"F-F50": {"distance": 10, "rank": 39, "pace": 383000000000, "time": 3830.3}}, "weekday": "wednesday", "livingplace": "Vouvry"}}, "location": "Les Mosses"}, "Tour du Chablais #3 Collombey-Muraz": {"latitude": 46.1782231, "longitude": 7.0223787, "race": "Tour du Chablais #3 Collombey-Muraz", "date": {"mer. 25.04.2012": {"year": 2012, "day": 25, "month": 4, "categories": {"F-F50": {"distance": 9, "rank": 35, "pace": 381000000000, "time": 3422.2}}, "weekday": "wednesday", "livingplace": "Vouvry"}}, "location": "Evionnaz"}, "Tour du Chablais #1 Martigny": {"latitude": 46.2957462, "longitude": 6.9916269, "race": "Tour du Chablais #1 Martigny", "date": {"mer. 23.04.2014": {"year": 2014, "day": 23, "month": 4, "categories": {"F-F50": {"distance": 9, "rank": 38, "pace": 376000000000, "time": 3201.1}}, "weekday": "wednesday", "livingplace": "Vouvry"}}, "location": "Ollon VD"}, "Tour du Chablais #3 Bex": {"latitude": 46.1782231, "longitude": 7.0223787, "race": "Tour du Chablais #3 Bex", "date": {"mer. 21.04.2010": {"year": 2010, "day": 21, "month": 4, "categories": {"F-F40": {"distance": 10, "rank": 48, "pace": 349000000000, "time": 3494.6}}, "weekday": "wednesday", "livingplace": "Vouvry"}}, "location": "Evionnaz"}, "Tour du Chablais #4 Morgins": {"latitude": NaN, "longitude": NaN, "race": "Tour du Chablais #4 Morgins", "date": {"mer. 18.05.2011": {"year": 2011, "day": 18, "month": 5, "categories": {"F-F40": {"distance": 8, "rank": 75, "pace": 385000000000, "time": 3218.2}}, "weekday": "wednesday", "livingplace": "Vouvry"}}, "location": "Les Mosses"}, "Tour du Chablais #6 Mouthey": {"latitude": 46.3190253, "longitude": 6.970566, "race": "Tour du Chablais #6 Mouthey", "date": {"mer. 12.05.2010": {"year": 2010, "day": 12, "month": 5, "categories": {"F-F40": {"distance": 9, "rank": 63, "pace": 335000000000, "time": 3083.5}}, "weekday": "wednesday", "livingplace": "Vouvry"}}, "location": "Aigle"}, "Tour du Chablais #1 Montreux": {"latitude": 46.2957462, "longitude": 6.9916269, "race": "Tour du Chablais #1 Montreux", "date": {"mer. 11.04.2012": {"year": 2012, "day": 11, "month": 4, "categories": {"F-F50": {"distance": 8, "rank": 31, "pace": 395000000000, "time": 3009.1}}, "weekday": "wednesday", "livingplace": "Vouvry"}}, "location": "Ollon VD"}, "Tour du Chablais #6 Montreux": {"latitude": 46.3190253, "longitude": 6.970566, "race": "Tour du Chablais #6 Montreux", "date": {"mer. 16.05.2012": {"year": 2012, "day": 16, "month": 5, "categories": {"F-F50": {"distance": 9, "rank": 29, "pace": 364000000000, "time": 3371.7}}, "weekday": "wednesday", "livingplace": "Vouvry"}}, "location": "Aigle"}, "Tour du Chablais #4 Yvorne": {"latitude": NaN, "longitude": NaN, "race": "Tour du Chablais #4 Yvorne", "date": {"mer. 28.04.2010": {"year": 2010, "day": 28, "month": 4, "categories": {"F-F40": {"distance": 8, "rank": 63, "pace": 376000000000, "time": 3119.6}}, "weekday": "wednesday", "livingplace": "Vouvry"}}, "location": "Les Mosses"}, "Tour du Chablais #5 Leysin": {"latitude": 46.3603257, "longitude": 6.931504599999999, "race": "Tour du Chablais #5 Leysin", "date": {"mer. 05.05.2010": {"year": 2010, "day": 5, "month": 5, "categories": {"F-F40": {"distance": 8, "rank": 47, "pace": 385000000000, "time": 3256.8}}, "weekday": "wednesday", "livingplace": "Vouvry"}}, "location": "Roche VD"}, "Tour du Chablais #3 Bouveret": {"latitude": 46.1782231, "longitude": 7.0223787, "race": "Tour du Chablais #3 Bouveret", "date": {"mer. 17.04.2013": {"year": 2013, "day": 17, "month": 4, "categories": {"F-F50": {"distance": 10, "rank": 35, "pace": 374000000000, "time": 3747.2}}, "weekday": "wednesday", "livingplace": "Vouvry"}}, "location": "Evionnaz"}}, "birth": 1962}