{"name": "Bauer Christophe", "sex": "M", "races": {"Morat-Fribourg": {"latitude": 46.92922110000001, "longitude": 7.120184, "race": "Morat-Fribourg", "date": {"sam. 02.10.2010": {"year": 2010, "day": 2, "month": 10, "categories": {"17-M20": {"distance": 17, "rank": 399, "pace": 274000000000, "time": 4712.7}}, "weekday": "saturday", "livingplace": "Chavornay"}}, "location": "Murten"}, "Course de l'Avent, Yverdon": {"latitude": 46.8064773, "longitude": 7.161971899999999, "race": "Course de l'Avent, Yverdon", "date": {"dim. 28.11.2010": {"year": 2010, "day": 28, "month": 11, "categories": {"Duo-Hom": {"distance": 5, "rank": 1, "pace": 235000000000, "time": 1082.3}}, "weekday": "sunday", "livingplace": "Chavornay"}}, "location": "Fribourg"}, "Tour du Pays de Vaud etape 2 - Genolier": {"latitude": 46.5955273, "longitude": 6.7702883, "race": "Tour du Pays de Vaud etape 2 - Genolier", "date": {"mer. 19.08.2009": {"year": 2009, "day": 19, "month": 8, "categories": {"HSen1": {"distance": 8, "rank": 27, "pace": 255000000000, "time": 2071.3}}, "weekday": "wednesday", "livingplace": "Chavornay"}}, "location": "M\u00e9zi\u00e8res VD"}, "10km, Payerne": {"latitude": 46.8220266, "longitude": 6.9405663, "race": "10km, Payerne", "date": {"sam. 16.04.2011": {"year": 2011, "day": 16, "month": 4, "categories": {"M30": {"distance": 10, "rank": 16, "pace": 241000000000, "time": 2419.0}}, "weekday": "saturday", "livingplace": "Chavornay"}}, "location": "Payerne"}, "Tour du Pays de Vaud etape 1 - Le Mont sur Lausanne": {"latitude": 46.7784736, "longitude": 6.641183, "race": "Tour du Pays de Vaud etape 1 - Le Mont sur Lausanne", "date": {"mer. 15.08.2007": {"year": 2007, "day": 15, "month": 8, "categories": {"HS1": {"distance": 8, "rank": 13, "pace": 241000000000, "time": 2007.9}}, "weekday": "wednesday", "livingplace": "Metabief"}, "mer. 12.08.2009": {"year": 2009, "day": 12, "month": 8, "categories": {"HS1": {"distance": 9, "rank": 25, "pace": 261000000000, "time": 2434.8}}, "weekday": "wednesday", "livingplace": "Chavornay"}}, "location": "Yverdon-les-Bains"}, "20km de Lausanne": {"latitude": 46.5196535, "longitude": 6.6322734, "race": "20km de Lausanne", "date": {"sam. 30.04.2011": {"year": 2011, "day": 30, "month": 4, "categories": {"20-H30": {"distance": 20, "rank": 121, "pace": 255000000000, "time": 5103.2}}, "weekday": "saturday", "livingplace": "Chavornay"}, "sam. 24.04.2010": {"year": 2010, "day": 24, "month": 4, "categories": {"20-H30": {"distance": 20, "rank": 79, "pace": 254000000000, "time": 5084.8}}, "weekday": "saturday", "livingplace": "Chavornay"}, "sam. 22.04.2006": {"year": 2006, "day": 22, "month": 4, "categories": {"10/H30": {"distance": 10, "rank": 14, "pace": 225000000000, "time": 2257.5}}, "weekday": "saturday", "livingplace": "Belmont Yverdon"}}, "location": "Lausanne"}, "Z\u00fcrich Marathon, Teamrun und Cityrun": {"latitude": 47.3768866, "longitude": 8.541694, "race": "Z\u00fcrich Marathon, Teamrun und Cityrun", "date": {"dim. 26.04.2009": {"year": 2009, "day": 26, "month": 4, "categories": {"M30": {"distance": 42, "rank": 97, "pace": 254000000000, "time": 10744.3}}, "weekday": "sunday", "livingplace": "Chavornay"}}, "location": "Z\u00fcrich"}, "Les Traine-Savates, Cheseaux-sur-Lausanne": {"latitude": 46.585452, "longitude": 6.6047712, "race": "Les Traine-Savates, Cheseaux-sur-Lausanne", "date": {"sam. 04.04.2009": {"year": 2009, "day": 4, "month": 4, "categories": {"Hom Sen": {"distance": 10, "rank": 28, "pace": 230000000000, "time": 2393.7}}, "weekday": "saturday", "livingplace": "Chavornay"}, "sam. 09.04.2011": {"year": 2011, "day": 9, "month": 4, "categories": {"10-M20": {"distance": 10, "rank": 51, "pace": 243000000000, "time": 2530.8}}, "weekday": "saturday", "livingplace": "Chavornay"}, "sam. 12.04.2008": {"year": 2008, "day": 12, "month": 4, "categories": {"MS": {"distance": 10, "rank": 28, "pace": 228000000000, "time": 2373.2}}, "weekday": "saturday", "livingplace": "Les Scolopendres"}}, "location": "Cheseaux-sur-Lausanne"}, "10km de Payerne": {"latitude": 46.8220266, "longitude": 6.9405663, "race": "10km de Payerne", "date": {"sam. 27.03.2010": {"year": 2010, "day": 27, "month": 3, "categories": {"M Elite": {"distance": 10, "rank": 79, "pace": 242000000000, "time": 2428.2}}, "weekday": "saturday", "livingplace": "Chavornay"}, "sam. 28.03.2009": {"year": 2009, "day": 28, "month": 3, "categories": {"M Elite": {"distance": 10, "rank": 53, "pace": 229000000000, "time": 2296.6}}, "weekday": "saturday", "livingplace": "Les Onanistes"}}, "location": "Payerne"}, "Kerzerslauf": {"latitude": 46.97488999999999, "longitude": 7.1954365, "race": "Kerzerslauf", "date": {"sam. 21.03.2009": {"year": 2009, "day": 21, "month": 3, "categories": {"15-M20": {"distance": 15, "rank": 131, "pace": 243000000000, "time": 3657.3}}, "weekday": "saturday", "livingplace": "Chavornay"}}, "location": "Kerzers"}}, "birth": 1976}