{"name": "Bauer Jean-Fran\u00e7ois", "sex": "M", "races": {"Morat-Fribourg": {"latitude": 46.92922110000001, "longitude": 7.120184, "race": "Morat-Fribourg", "date": {"sam. 03.10.2009": {"year": 2009, "day": 3, "month": 10, "categories": {"C-M45": {"distance": 17, "rank": 519, "pace": 341000000000, "time": 5861.1}}, "weekday": "saturday", "livingplace": "Peseux"}}, "location": "Murten"}, "D\u00e9fi Val-de-Travers, Couvet": {"latitude": 46.9262933, "longitude": 6.6324944, "race": "D\u00e9fi Val-de-Travers, Couvet", "date": {"sam. 20.06.2009": {"year": 2009, "day": 20, "month": 6, "categories": {"SHS2": {"distance": 20, "rank": 41, "pace": 382000000000, "time": 7528.2}}, "weekday": "saturday", "livingplace": "Peseux"}}, "location": "Couvet"}, "BCN Tour Ponts-de-Martel": {"latitude": 47.0624261, "longitude": 6.9175754, "race": "BCN Tour Ponts-de-Martel", "date": {"mer. 28.04.2010": {"year": 2010, "day": 28, "month": 4, "categories": {"HS2": {"distance": 11, "rank": 245, "pace": 356000000000, "time": 3990.5}}, "weekday": "wednesday", "livingplace": "Peseux"}}, "location": "Ch\u00e9zard-St-Martin"}, "BCN Tour Le Locle": {"latitude": 46.999113, "longitude": 6.733554799999999, "race": "BCN Tour Le Locle", "date": {"mer. 05.05.2010": {"year": 2010, "day": 5, "month": 5, "categories": {"HS2": {"distance": 11, "rank": 208, "pace": 341000000000, "time": 3718.9}}, "weekday": "wednesday", "livingplace": "Peseux"}}, "location": "Les Ponts-de-Martel"}, "BCN Tour Boudry": {"latitude": 46.9668714, "longitude": 6.8589727, "race": "BCN Tour Boudry", "date": {"mer. 26.04.2006": {"year": 2006, "day": 26, "month": 4, "categories": {"HS2": {"distance": 10, "rank": 224, "pace": 353000000000, "time": 3604.6}}, "weekday": "wednesday", "livingplace": "Peseux"}}, "location": "Colombier NE"}, "BCN Tour Le Landeron": {"latitude": 46.9668714, "longitude": 6.8589727, "race": "BCN Tour Le Landeron", "date": {"mer. 22.04.2009": {"year": 2009, "day": 22, "month": 4, "categories": {"HS2": {"distance": 11, "rank": 217, "pace": 345000000000, "time": 3830.4}}, "weekday": "wednesday", "livingplace": "Peseux"}}, "location": "Colombier NE"}, "BCN Tour La Chaux-de-fonds": {"latitude": 47.1034892, "longitude": 6.832783800000001, "race": "BCN Tour La Chaux-de-fonds", "date": {"mer. 12.05.2010": {"year": 2010, "day": 12, "month": 5, "categories": {"HS2": {"distance": 11, "rank": 228, "pace": 426000000000, "time": 4561.3}}, "weekday": "wednesday", "livingplace": "Peseux"}}, "location": "La Chaux-de-Fonds"}, "BCN Tour Colombier": {"latitude": 46.9668714, "longitude": 6.8589727, "race": "BCN Tour Colombier", "date": {"mer. 21.04.2010": {"year": 2010, "day": 21, "month": 4, "categories": {"HS2": {"distance": 10, "rank": 264, "pace": 387000000000, "time": 3875.8}}, "weekday": "wednesday", "livingplace": "Peseux"}}, "location": "Colombier NE"}, "BCN Tour Neuch\u00e2tel": {"latitude": 46.9899874, "longitude": 6.9292732, "race": "BCN Tour Neuch\u00e2tel", "date": {"mer. 26.05.2010": {"year": 2010, "day": 26, "month": 5, "categories": {"HS2": {"distance": 10, "rank": 291, "pace": 465000000000, "time": 4511.2}}, "weekday": "wednesday", "livingplace": "Peseux"}}, "location": "Neuch\u00e2tel"}}, "birth": 1962}