{"name": "Baumberger Paolo", "sex": "M", "races": {"Luzerner Stadtlauf": {"latitude": 47.05016819999999, "longitude": 8.3093072, "race": "Luzerner Stadtlauf", "date": {"sam. 03.05.2014": {"year": 2014, "day": 3, "month": 5, "categories": {"K-20": {"distance": 4, "rank": 5, "pace": 219000000000, "time": 851.1}}, "weekday": "saturday", "livingplace": "Wermatswil"}}, "location": "Luzern"}, "ASICS Bremgarter Reusslauf": {"latitude": 47.34917739999999, "longitude": 8.3397905, "race": "ASICS Bremgarter Reusslauf", "date": {"sam. 22.02.2014": {"year": 2014, "day": 22, "month": 2, "categories": {"3-U20m": {"distance": 3, "rank": 8, "pace": 218000000000, "time": 741.6}}, "weekday": "saturday", "livingplace": "Uster"}}, "location": "Bremgarten AG"}, "Basler Stadtlauf": {"latitude": 47.5595986, "longitude": 7.5885761, "race": "Basler Stadtlauf", "date": {"sam. 29.11.2014": {"year": 2014, "day": 29, "month": 11, "categories": {"U20m": {"distance": 6, "rank": 17, "pace": 228000000000, "time": 1259.1}}, "weekday": "saturday", "livingplace": "Wermatswil"}}, "location": "Basel"}, "Badener Limmat-Lauf, Baden": {"latitude": 48.5699281, "longitude": 8.5303972, "race": "Badener Limmat-Lauf, Baden", "date": {"sam. 28.03.2015": {"year": 2015, "day": 28, "month": 3, "categories": {"MJog": {"distance": 4, "rank": 7, "pace": 233000000000, "time": 937.6}}, "weekday": "saturday", "livingplace": "Wermatswil"}}, "location": "Baden"}, "Int  Bieler Cross, Biel-Bienne": {"latitude": 47.1367785, "longitude": 7.2467909, "race": "Int  Bieler Cross, Biel-Bienne", "date": {"dim. 09.11.2014": {"year": 2014, "day": 9, "month": 11, "categories": {"U20-M": {"distance": 6, "rank": 10, "pace": 234000000000, "time": 1498.6}}, "weekday": "sunday", "livingplace": "Uster"}}, "location": "Biel/Bienne"}, "Winterthur Marathon": {"latitude": 39.8088766, "longitude": -75.6037351, "race": "Winterthur Marathon", "date": {"dim. 01.06.2014": {"year": 2014, "day": 1, "month": 6, "categories": {"10-MJun": {"distance": 10, "rank": 2, "pace": 251000000000, "time": 2516.2}}, "weekday": "sunday", "livingplace": "Uster"}}, "location": "Winterthur"}, "Int Greifenseelauf, Uster": {"latitude": 47.3482747, "longitude": 8.717873899999999, "race": "Int Greifenseelauf, Uster", "date": {"sam. 22.09.2007": {"year": 2007, "day": 22, "month": 9, "categories": {"JC": {"distance": 2, "rank": 14, "pace": 214000000000, "time": 343.8}}, "weekday": "saturday", "livingplace": "Wermatswil"}, "sam. 16.09.2006": {"year": 2006, "day": 16, "month": 9, "categories": {"M/JD": {"distance": 1, "rank": 27, "pace": 208000000000, "time": 250.0}}, "weekday": "saturday", "livingplace": "Uster"}, "sam. 17.09.2005": {"year": 2005, "day": 17, "month": 9, "categories": {"M/JD": {"distance": 1, "rank": 38, "pace": 214000000000, "time": 256.9}}, "weekday": "saturday", "livingplace": "Uster"}, "sam. 20.09.2008": {"year": 2008, "day": 20, "month": 9, "categories": {"M-JC": {"distance": 2, "rank": 8, "pace": 213000000000, "time": 341.3}}, "weekday": "saturday", "livingplace": "Wermatswil"}}, "location": "Uster"}, "Schlosslauf Rapperswil-Jona": {"latitude": 47.2266239, "longitude": 8.818437399999999, "race": "Schlosslauf Rapperswil-Jona", "date": {"dim. 19.10.2014": {"year": 2014, "day": 19, "month": 10, "categories": {"JunM": {"distance": 4, "rank": 5, "pace": 223000000000, "time": 808.3}}, "weekday": "sunday", "livingplace": "Uster"}}, "location": "Rapperswil SG"}, "Walliseller Lauf, Wallisellen": {"latitude": NaN, "longitude": NaN, "race": "Walliseller Lauf, Wallisellen", "date": {"dim. 01.11.2015": {"year": 2015, "day": 1, "month": 11, "categories": {"M7": {"distance": 5, "rank": 10, "pace": 219000000000, "time": 1099.9}}, "weekday": "sunday", "livingplace": "Wermatswil"}, "dim. 02.11.2014": {"year": 2014, "day": 2, "month": 11, "categories": {"M7": {"distance": 5, "rank": 4, "pace": 226000000000, "time": 1131.8}}, "weekday": "sunday", "livingplace": "Wermatswil"}}, "location": "Wallisellen"}, "Langenthaler Stadtlauf": {"latitude": 47.2120786, "longitude": 7.790562299999999, "race": "Langenthaler Stadtlauf", "date": {"sam. 22.11.2014": {"year": 2014, "day": 22, "month": 11, "categories": {"JunM-U20": {"distance": 5, "rank": 12, "pace": 219000000000, "time": 1097.0}}, "weekday": "saturday", "livingplace": "Wermatswil"}}, "location": "Langenthal"}, "Z\u00fcrcher Silvesterlauf, Z\u00fcrich": {"latitude": 47.3768866, "longitude": 8.541694, "race": "Z\u00fcrcher Silvesterlauf, Z\u00fcrich", "date": {"dim. 12.12.2010": {"year": 2010, "day": 12, "month": 12, "categories": {"Knaben A": {"distance": 3, "rank": 40, "pace": 249000000000, "time": 649.8}}, "weekday": "sunday", "livingplace": "Wermatswil"}}, "location": "Z\u00fcrich"}, "Kerzerslauf": {"latitude": 46.97488999999999, "longitude": 7.1954365, "race": "Kerzerslauf", "date": {"sam. 15.03.2014": {"year": 2014, "day": 15, "month": 3, "categories": {"5-U20M": {"distance": 5, "rank": 21, "pace": 235000000000, "time": 1179.7}}, "weekday": "saturday", "livingplace": "Wermatswil"}}, "location": "Kerzers"}}, "birth": 1995}