{"name": "Baumann Christine", "sex": "F", "races": {"Schweizer Frauenlauf Bern": {"latitude": 46.9479739, "longitude": 7.4474468, "race": "Schweizer Frauenlauf Bern", "date": {"dim. 14.06.2009": {"year": 2009, "day": 14, "month": 6, "categories": {"10-W35": {"distance": 10, "rank": 102, "pace": 312000000000, "time": 3123.5}}, "weekday": "sunday", "livingplace": "Glis"}}, "location": "Bern"}, "Winterthur Marathon": {"latitude": 39.8088766, "longitude": -75.6037351, "race": "Winterthur Marathon", "date": {"dim. 06.05.2012": {"year": 2012, "day": 6, "month": 5, "categories": {"M-F30": {"distance": 42, "rank": 11, "pace": 378000000000, "time": 15969.4}}, "weekday": "sunday", "livingplace": "Glis"}}, "location": "Winterthur"}, "Basel City Marathon": {"latitude": 47.5595986, "longitude": 7.5885761, "race": "Basel City Marathon", "date": {"dim. 28.08.2005": {"year": 2005, "day": 28, "month": 8, "categories": {"F30": {"distance": 42, "rank": 73, "pace": 373000000000, "time": 15776.9}}, "weekday": "sunday", "livingplace": "Basel"}}, "location": "Basel"}, "Int Greifenseelauf, Uster": {"latitude": 47.3482747, "longitude": 8.717873899999999, "race": "Int Greifenseelauf, Uster", "date": {"sam. 17.09.2005": {"year": 2005, "day": 17, "month": 9, "categories": {"H/W30": {"distance": 21, "rank": 342, "pace": 364000000000, "time": 7680.8}}, "weekday": "saturday", "livingplace": "Basel"}, "sam. 18.09.2004": {"year": 2004, "day": 18, "month": 9, "categories": {"H/W30": {"distance": 21, "rank": 441, "pace": 396000000000, "time": 8362.5}}, "weekday": "saturday", "livingplace": "Basel"}}, "location": "Uster"}, "Kerzerslauf": {"latitude": 46.97488999999999, "longitude": 7.1954365, "race": "Kerzerslauf", "date": {"sam. 15.03.2003": {"year": 2003, "day": 15, "month": 3, "categories": {"F20": {"distance": 15, "rank": 237, "pace": 366000000000, "time": 5501.7}}, "weekday": "saturday", "livingplace": "Glis"}, "sam. 20.03.2004": {"year": 2004, "day": 20, "month": 3, "categories": {"F20": {"distance": 15, "rank": 229, "pace": 360000000000, "time": 5413.9}}, "weekday": "saturday", "livingplace": "Basel"}}, "location": "Kerzers"}, "Z\u00fcrich Marathon, Teamrun und Cityrun": {"latitude": 47.3768866, "longitude": 8.541694, "race": "Z\u00fcrich Marathon, Teamrun und Cityrun", "date": {"dim. 09.04.2006": {"year": 2006, "day": 9, "month": 4, "categories": {"W30": {"distance": 42, "rank": 299, "pace": 387000000000, "time": 16341.0}}, "weekday": "sunday", "livingplace": "Basel"}}, "location": "Z\u00fcrich"}}, "birth": 1973}