{"name": "Baumberger Marine", "sex": "F", "races": {"BCN Tour M\u00f4tier": {"latitude": 46.9262933, "longitude": 6.6324944, "race": "BCN Tour M\u00f4tier", "date": {"mer. 19.05.2010": {"year": 2010, "day": 19, "month": 5, "categories": {"DJ": {"distance": 10, "rank": 13, "pace": 323000000000, "time": 3203.1}}, "weekday": "wednesday", "livingplace": "Les Brenets"}}, "location": "Couvet"}, "BCN Tour La Br\u00e9vine": {"latitude": 46.999113, "longitude": 6.733554799999999, "race": "BCN Tour La Br\u00e9vine", "date": {"mer. 04.05.2011": {"year": 2011, "day": 4, "month": 5, "categories": {"DJ": {"distance": 10, "rank": 17, "pace": 351000000000, "time": 3511.4}}, "weekday": "wednesday", "livingplace": "Les Brenets"}}, "location": "Les Ponts-de-Martel"}, "BCN Tour Neuch\u00e2tel": {"latitude": 46.9899874, "longitude": 6.9292732, "race": "BCN Tour Neuch\u00e2tel", "date": {"mer. 26.05.2010": {"year": 2010, "day": 26, "month": 5, "categories": {"DJ": {"distance": 10, "rank": 15, "pace": 418000000000, "time": 4061.0}}, "weekday": "wednesday", "livingplace": "Les Brenets"}}, "location": "Neuch\u00e2tel"}, "BCN Tour Les Ponts de Martel": {"latitude": 46.9262933, "longitude": 6.6324944, "race": "BCN Tour Les Ponts de Martel", "date": {"mer. 18.05.2011": {"year": 2011, "day": 18, "month": 5, "categories": {"DJ": {"distance": 13, "rank": 12, "pace": 337000000000, "time": 4314.4}}, "weekday": "wednesday", "livingplace": "Les Brenets"}}, "location": "Couvet"}, "20km de Lausanne": {"latitude": 46.5196535, "longitude": 6.6322734, "race": "20km de Lausanne", "date": {"sam. 26.04.2014": {"year": 2014, "day": 26, "month": 4, "categories": {"10-F20": {"distance": 10, "rank": 304, "pace": 337000000000, "time": 3379.5}}, "weekday": "saturday", "livingplace": "Lausanne"}}, "location": "Lausanne"}, "BCN Tour La Chaux-de-fonds": {"latitude": 47.1034892, "longitude": 6.832783800000001, "race": "BCN Tour La Chaux-de-fonds", "date": {"mer. 12.05.2010": {"year": 2010, "day": 12, "month": 5, "categories": {"DJ": {"distance": 11, "rank": 17, "pace": 430000000000, "time": 4607.4}}, "weekday": "wednesday", "livingplace": "Les Brenets"}}, "location": "La Chaux-de-Fonds"}, "BCN Tour Colombier": {"latitude": 46.9668714, "longitude": 6.8589727, "race": "BCN Tour Colombier", "date": {"mer. 21.04.2010": {"year": 2010, "day": 21, "month": 4, "categories": {"DJ": {"distance": 10, "rank": 12, "pace": 360000000000, "time": 3608.0}}, "weekday": "wednesday", "livingplace": "Les Brenets"}}, "location": "Colombier NE"}}, "birth": 1993}