{"name": "Baumgartner Yanik", "sex": "M", "races": {"Herbstlauf Burgdorf": {"latitude": 45.277123, "longitude": -115.9129022, "race": "Herbstlauf Burgdorf", "date": {"sam. 22.10.2011": {"year": 2011, "day": 22, "month": 10, "categories": {"SoftK": {"distance": 0, "rank": 24, "pace": 261000000000, "time": 130.9}}, "weekday": "saturday", "livingplace": "Derendingen"}}, "location": "Burgdorf"}, "Derendinger Abendlauf, Derendingen": {"latitude": 47.1952433, "longitude": 7.585593099999999, "race": "Derendinger Abendlauf, Derendingen", "date": {"ven. 29.06.2012": {"year": 2012, "day": 29, "month": 6, "categories": {"SK": {"distance": 1, "rank": 7, "pace": 267000000000, "time": 186.9}}, "weekday": "friday", "livingplace": "Derendingen"}, "ven. 24.06.2011": {"year": 2011, "day": 24, "month": 6, "categories": {"SK": {"distance": 1, "rank": 18, "pace": 292000000000, "time": 204.6}}, "weekday": "friday", "livingplace": "Derendingen"}, "ven. 28.06.2013": {"year": 2013, "day": 28, "month": 6, "categories": {"CK": {"distance": 1, "rank": 10, "pace": 240000000000, "time": 288.6}}, "weekday": "friday", "livingplace": "Derendingen"}, "ven. 27.06.2014": {"year": 2014, "day": 27, "month": 6, "categories": {"CK": {"distance": 1, "rank": 4, "pace": 227000000000, "time": 272.4}}, "weekday": "friday", "livingplace": "Derendingen"}}, "location": "Derendingen"}, "Kerzerslauf": {"latitude": 46.97488999999999, "longitude": 7.1954365, "race": "Kerzerslauf", "date": {"sam. 17.03.2012": {"year": 2012, "day": 17, "month": 3, "categories": {"1-M7": {"distance": 0, "rank": 13, "pace": 225000000000, "time": 67.5}}, "weekday": "saturday", "livingplace": "Derendingen"}}, "location": "Kerzers"}, "Emmenlauf Utzenstorf": {"latitude": 47.12816670000001, "longitude": 7.5588034, "race": "Emmenlauf Utzenstorf", "date": {"mer. 15.08.2012": {"year": 2012, "day": 15, "month": 8, "categories": {"Soft_K": {"distance": 0, "rank": 9, "pace": 298000000000, "time": 149.1}}, "weekday": "wednesday", "livingplace": "Derendingen"}}, "location": "Utzenstorf"}, "Steinh\u00f6lzlilauf, Liebefeld": {"latitude": 46.933331, "longitude": 7.416668, "race": "Steinh\u00f6lzlilauf, Liebefeld", "date": {"dim. 04.12.2011": {"year": 2011, "day": 4, "month": 12, "categories": {"S-PicM": {"distance": 0, "rank": 11, "pace": 276000000000, "time": 110.6}}, "weekday": "sunday", "livingplace": "Derendingen"}}, "location": "Liebefeld"}}, "birth": 2005}