{"name": "Baumberger Sandrine", "sex": "F", "races": {"Tour du Pays de Vaud #2 - Genolier": {"latitude": 46.5955273, "longitude": 6.7702883, "race": "Tour du Pays de Vaud #2 - Genolier", "date": {"mer. 15.08.2012": {"year": 2012, "day": 15, "month": 8, "categories": {"D-Sen1": {"distance": 9, "rank": 32, "pace": 323000000000, "time": 2746.4}}, "weekday": "wednesday", "livingplace": "Cugy"}}, "location": "M\u00e9zi\u00e8res VD"}, "Tour du Pays de Vaud printanier #1 Chavornay": {"latitude": 46.3832683, "longitude": 6.2347852, "race": "Tour du Pays de Vaud printanier #1 Chavornay", "date": {"mer. 30.05.2012": {"year": 2012, "day": 30, "month": 5, "categories": {"D-Sen1": {"distance": 9, "rank": 11, "pace": 327000000000, "time": 2930.0}}, "weekday": "wednesday", "livingplace": "Cugy"}}, "location": "Nyon"}, "Tour du Pays de Vaud #3 - Mezi\u00e8res": {"latitude": 46.7784736, "longitude": 6.641183, "race": "Tour du Pays de Vaud #3 - Mezi\u00e8res", "date": {"mer. 22.08.2012": {"year": 2012, "day": 22, "month": 8, "categories": {"D-Sen1": {"distance": 8, "rank": 22, "pace": 340000000000, "time": 2858.7}}, "weekday": "wednesday", "livingplace": "Cugy"}}, "location": "Yverdon-les-Bains"}, "Tour du pays de Vaud #1 - Penthaz": {"latitude": 46.5993131, "longitude": 6.539251200000001, "race": "Tour du pays de Vaud #1 - Penthaz", "date": {"mer. 08.08.2012": {"year": 2012, "day": 8, "month": 8, "categories": {"D-Sen1": {"distance": 9, "rank": 39, "pace": 331000000000, "time": 2828.4}}, "weekday": "wednesday", "livingplace": "Cugy"}}, "location": "Penthaz"}, "Tour du Pays de Vaud #4 - La Sarraz": {"latitude": 46.7088129, "longitude": 6.5707689, "race": "Tour du Pays de Vaud #4 - La Sarraz", "date": {"mer. 29.08.2012": {"year": 2012, "day": 29, "month": 8, "categories": {"D-Sen1": {"distance": 9, "rank": 32, "pace": 317000000000, "time": 2701.4}}, "weekday": "wednesday", "livingplace": "Cugy"}}, "location": "Chavornay"}, "20km de Lausanne": {"latitude": 46.5196535, "longitude": 6.6322734, "race": "20km de Lausanne", "date": {"sam. 25.04.2015": {"year": 2015, "day": 25, "month": 4, "categories": {"10-F40": {"distance": 10, "rank": 350, "pace": 388000000000, "time": 3886.2}}, "weekday": "saturday", "livingplace": "Lausanne"}}, "location": "Lausanne"}, "Tour du Pays de Vaud printanier #2 Yens": {"latitude": 46.6698891, "longitude": 6.7975224, "race": "Tour du Pays de Vaud printanier #2 Yens", "date": {"mer. 06.06.2012": {"year": 2012, "day": 6, "month": 6, "categories": {"D-Sen1": {"distance": 9, "rank": 11, "pace": 328000000000, "time": 2986.0}}, "weekday": "wednesday", "livingplace": "Cugy"}}, "location": "Moudon"}}, "birth": 1974}