{"name": "Baumann Patric", "sex": "M", "races": {"Lucerne Marathon, Luzern": {"latitude": 47.05016819999999, "longitude": 8.3093072, "race": "Lucerne Marathon, Luzern", "date": {"dim. 28.10.2012": {"year": 2012, "day": 28, "month": 10, "categories": {"H-M20": {"distance": 21, "rank": 173, "pace": 276000000000, "time": 5835.9}}, "weekday": "sunday", "livingplace": "Wadenswil"}}, "location": "Luzern"}, "IWB Basel Marathon": {"latitude": 47.5595986, "longitude": 7.5885761, "race": "IWB Basel Marathon", "date": {"dim. 11.09.2011": {"year": 2011, "day": 11, "month": 9, "categories": {"M-42-M20": {"distance": 42, "rank": 5, "pace": 296000000000, "time": 12509.0}}, "weekday": "sunday", "livingplace": "Wadenswil"}, "dim. 23.09.2012": {"year": 2012, "day": 23, "month": 9, "categories": {"M-42-M20": {"distance": 42, "rank": 8, "pace": 287000000000, "time": 12119.1}}, "weekday": "sunday", "livingplace": "Wadenswil"}, "dim. 22.09.2013": {"year": 2013, "day": 22, "month": 9, "categories": {"M-42-M20": {"distance": 42, "rank": 12, "pace": 304000000000, "time": 12855.3}}, "weekday": "sunday", "livingplace": "Wadenswil"}}, "location": "Basel"}, "ASICS Bremgarter Reusslauf": {"latitude": 47.34917739999999, "longitude": 8.3397905, "race": "ASICS Bremgarter Reusslauf", "date": {"sam. 22.02.2014": {"year": 2014, "day": 22, "month": 2, "categories": {"11-M30": {"distance": 11, "rank": 187, "pace": 259000000000, "time": 2849.1}}, "weekday": "saturday", "livingplace": "Wadenswil"}}, "location": "Bremgarten AG"}, "Liestaler Stadtlauf": {"latitude": 47.4866143, "longitude": 7.7334272, "race": "Liestaler Stadtlauf", "date": {"mer. 26.08.2015": {"year": 2015, "day": 26, "month": 8, "categories": {"M30": {"distance": 12, "rank": 26, "pace": 295000000000, "time": 3542.0}}, "weekday": "wednesday", "livingplace": "Liestal"}}, "location": "Liestal"}, "Basel City Marathon": {"latitude": 47.5595986, "longitude": 7.5885761, "race": "Basel City Marathon", "date": {"dim. 28.08.2005": {"year": 2005, "day": 28, "month": 8, "categories": {"M20": {"distance": 42, "rank": 33, "pace": 299000000000, "time": 12622.1}}, "weekday": "sunday", "livingplace": "Bern"}}, "location": "Basel"}, "Z\u00fcrich Marathon, Teamrun und Cityrun": {"latitude": 47.3768866, "longitude": 8.541694, "race": "Z\u00fcrich Marathon, Teamrun und Cityrun", "date": {"dim. 06.04.2014": {"year": 2014, "day": 6, "month": 4, "categories": {"42-M30": {"distance": 42, "rank": 312, "pace": 313000000000, "time": 13213.6}}, "weekday": "sunday", "livingplace": "Wadenswil"}, "dim. 07.04.2013": {"year": 2013, "day": 7, "month": 4, "categories": {"42-M20": {"distance": 42, "rank": 137, "pace": 326000000000, "time": 13792.6}}, "weekday": "sunday", "livingplace": "Wadenswil"}}, "location": "Z\u00fcrich"}}, "birth": 1984}