{"name": "Baumstark Achim", "sex": "M", "races": {"Lucerne Marathon, Luzern": {"latitude": 47.05016819999999, "longitude": 8.3093072, "race": "Lucerne Marathon, Luzern", "date": {"dim. 25.10.2009": {"year": 2009, "day": 25, "month": 10, "categories": {"H-M40": {"distance": 21, "rank": 326, "pace": 282000000000, "time": 5963.6}}, "weekday": "sunday", "livingplace": "Ruschlikon"}, "dim. 31.10.2010": {"year": 2010, "day": 31, "month": 10, "categories": {"H-M40": {"distance": 21, "rank": 330, "pace": 278000000000, "time": 5876.4}}, "weekday": "sunday", "livingplace": "Ruschlikon"}}, "location": "Luzern"}, "Zermatt Marathon, Zermatt": {"latitude": NaN, "longitude": NaN, "race": "Zermatt Marathon, Zermatt", "date": {"sam. 05.07.2014": {"year": 2014, "day": 5, "month": 7, "categories": {"M-M50": {"distance": 42, "rank": 30, "pace": 436000000000, "time": 18433.1}}, "weekday": "saturday", "livingplace": "Ruschlikon"}}, "location": "Zermatt"}, "Lausanne Marathon": {"latitude": 46.5196535, "longitude": 6.6322734, "race": "Lausanne Marathon", "date": {"dim. 28.10.2012": {"year": 2012, "day": 28, "month": 10, "categories": {"42-H3": {"distance": 42, "rank": 100, "pace": 297000000000, "time": 12552.3}}, "weekday": "sunday", "livingplace": "Ruschlikon"}}, "location": "Lausanne"}, "Z\u00fcrcher Silvesterlauf, Z\u00fcrich": {"latitude": 47.3768866, "longitude": 8.541694, "race": "Z\u00fcrcher Silvesterlauf, Z\u00fcrich", "date": {"dim. 12.12.2010": {"year": 2010, "day": 12, "month": 12, "categories": {"8-MenAK2": {"distance": 9, "rank": 276, "pace": 259000000000, "time": 2234.8}}, "weekday": "sunday", "livingplace": "Zurich"}}, "location": "Z\u00fcrich"}, "Dreil\u00e4nder-Lauf, Basel": {"latitude": 47.5595986, "longitude": 7.5885761, "race": "Dreil\u00e4nder-Lauf, Basel", "date": {"dim. 25.05.2014": {"year": 2014, "day": 25, "month": 5, "categories": {"HM50": {"distance": 21, "rank": 10, "pace": 272000000000, "time": 5758.0}}, "weekday": "sunday", "livingplace": "Ruschlikon"}}, "location": "Basel"}, "Winterthur Marathon": {"latitude": 39.8088766, "longitude": -75.6037351, "race": "Winterthur Marathon", "date": {"dim. 16.05.2010": {"year": 2010, "day": 16, "month": 5, "categories": {"HM40": {"distance": 21, "rank": 97, "pace": 281000000000, "time": 5932.8}}, "weekday": "sunday", "livingplace": "Ruschlikon"}}, "location": "Winterthur"}, "Z\u00fcrich Marathon, Teamrun und Cityrun": {"latitude": 47.3768866, "longitude": 8.541694, "race": "Z\u00fcrich Marathon, Teamrun und Cityrun", "date": {"dim. 17.04.2011": {"year": 2011, "day": 17, "month": 4, "categories": {"42-M45": {"distance": 42, "rank": 153, "pace": 291000000000, "time": 12295.8}}, "weekday": "sunday", "livingplace": "Ruschlikon"}}, "location": "Z\u00fcrich"}}, "birth": 1964}