{"name": "Baumberger Patrick", "sex": "M", "races": {"Luzerner Stadtlauf": {"latitude": 47.05016819999999, "longitude": 8.3093072, "race": "Luzerner Stadtlauf", "date": {"sam. 03.05.2003": {"year": 2003, "day": 3, "month": 5, "categories": {"K/27": {"distance": 6, "rank": 338, "pace": 291000000000, "time": 1601.4}}, "weekday": "saturday", "livingplace": "Dietikon"}}, "location": "Luzern"}, "Jungfrau-Marathon, Interlaken": {"latitude": NaN, "longitude": NaN, "race": "Jungfrau-Marathon, Interlaken", "date": {"sam. 06.09.2008": {"year": 2008, "day": 6, "month": 9, "categories": {"M20": {"distance": 42, "rank": 604, "pace": 458000000000, "time": 19363.6}}, "weekday": "saturday", "livingplace": "Dietikon"}}, "location": "Interlaken"}, "Dietiker Neujahrslauf, Dietikon": {"latitude": 47.4053885, "longitude": 8.39977, "race": "Dietiker Neujahrslauf, Dietikon", "date": {"sam. 10.01.2015": {"year": 2015, "day": 10, "month": 1, "categories": {"C": {"distance": 12, "rank": 139, "pace": 295000000000, "time": 3577.0}}, "weekday": "saturday", "livingplace": "Dietikon"}}, "location": "Dietikon"}, "Z\u00fcrich Marathon, Teamrun und Cityrun": {"latitude": 47.3768866, "longitude": 8.541694, "race": "Z\u00fcrich Marathon, Teamrun und Cityrun", "date": {"dim. 03.04.2005": {"year": 2005, "day": 3, "month": 4, "categories": {"M30": {"distance": 42, "rank": 869, "pace": 316000000000, "time": 13350.4}}, "weekday": "sunday", "livingplace": "Dietikon"}, "dim. 04.04.2004": {"year": 2004, "day": 4, "month": 4, "categories": {"M30": {"distance": 42, "rank": 738, "pace": 302000000000, "time": 12769.5}}, "weekday": "sunday", "livingplace": "Dietikon"}}, "location": "Z\u00fcrich"}, "Basler Marathon-Tage": {"latitude": 47.5595986, "longitude": 7.5885761, "race": "Basler Marathon-Tage", "date": {"sam. 25.10.2003": {"year": 2003, "day": 25, "month": 10, "categories": {"M-HM/M30": {"distance": 21, "rank": 74, "pace": 285000000000, "time": 6022.3}}, "weekday": "saturday", "livingplace": "Dietikon"}}, "location": "Basel"}, "Int Greifenseelauf, Uster": {"latitude": 47.3482747, "longitude": 8.717873899999999, "race": "Int Greifenseelauf, Uster", "date": {"sam. 22.09.2007": {"year": 2007, "day": 22, "month": 9, "categories": {"H/M35": {"distance": 21, "rank": 397, "pace": 302000000000, "time": 6384.0}}, "weekday": "saturday", "livingplace": "Dietikon"}}, "location": "Uster"}}, "birth": 1971}