{"name": "Bays Jean-Michel", "sex": "M", "races": {"Basler Stadtlauf": {"latitude": 47.5595986, "longitude": 7.5885761, "race": "Basler Stadtlauf", "date": {"sam. 24.11.2012": {"year": 2012, "day": 24, "month": 11, "categories": {"M40": {"distance": 6, "rank": 261, "pace": 284000000000, "time": 1566.0}}, "weekday": "saturday", "livingplace": "Yverdon les Bains"}}, "location": "Basel"}, "Course de l'Escalade, Gen\u00e8ve": {"latitude": 46.2043907, "longitude": 6.1431577, "race": "Course de l'Escalade, Gen\u00e8ve", "date": {"sam. 01.12.2012": {"year": 2012, "day": 1, "month": 12, "categories": {"Esc-Hom3": {"distance": 7, "rank": 762, "pace": 308000000000, "time": 2238.0}}, "weekday": "saturday", "livingplace": "Yverdon les Bains"}}, "location": "Gen\u00e8ve"}, "Tour du pays de Vaud #6 - St  Prex": {"latitude": 46.4829113, "longitude": 6.458343500000001, "race": "Tour du pays de Vaud #6 - St  Prex", "date": {"mer. 14.09.2011": {"year": 2011, "day": 14, "month": 9, "categories": {"H-Sen2": {"distance": 9, "rank": 151, "pace": 308000000000, "time": 2655.3}}, "weekday": "wednesday", "livingplace": "Yverdon les Bains"}}, "location": "St-Prex"}, "Course de l'Avent, Yverdon": {"latitude": 46.8064773, "longitude": 7.161971899999999, "race": "Course de l'Avent, Yverdon", "date": {"dim. 28.11.2010": {"year": 2010, "day": 28, "month": 11, "categories": {"P-H43": {"distance": 6, "rank": 7, "pace": 287000000000, "time": 1773.9}}, "weekday": "sunday", "livingplace": "Yverdon les Bains"}, "dim. 27.11.2011": {"year": 2011, "day": 27, "month": 11, "categories": {"E-H4": {"distance": 8, "rank": 38, "pace": 291000000000, "time": 2256.0}}, "weekday": "sunday", "livingplace": "Yverdon les Bains"}}, "location": "Fribourg"}, "Corrida Bulloise, Bulle": {"latitude": 46.6154512, "longitude": 7.057726799999999, "race": "Corrida Bulloise, Bulle", "date": {"sam. 19.11.2011": {"year": 2011, "day": 19, "month": 11, "categories": {"M40": {"distance": 8, "rank": 157, "pace": 312000000000, "time": 2549.3}}, "weekday": "saturday", "livingplace": "Yverdon les Bains"}}, "location": "Bulle"}, "Tour du pays de Vaud #1 - Mezi\u00e8res": {"latitude": 46.7784736, "longitude": 6.641183, "race": "Tour du pays de Vaud #1 - Mezi\u00e8res", "date": {"mer. 10.08.2011": {"year": 2011, "day": 10, "month": 8, "categories": {"H-Sen2": {"distance": 9, "rank": 162, "pace": 324000000000, "time": 2757.8}}, "weekday": "wednesday", "livingplace": "Yverdon les Bains"}}, "location": "Yverdon-les-Bains"}, "10km, Payerne": {"latitude": 46.8220266, "longitude": 6.9405663, "race": "10km, Payerne", "date": {"sam. 16.04.2011": {"year": 2011, "day": 16, "month": 4, "categories": {"M40": {"distance": 10, "rank": 46, "pace": 314000000000, "time": 3141.9}}, "weekday": "saturday", "livingplace": "Yverdon les Bains"}}, "location": "Payerne"}, "20km de Lausanne": {"latitude": 46.5196535, "longitude": 6.6322734, "race": "20km de Lausanne", "date": {"sam. 30.04.2011": {"year": 2011, "day": 30, "month": 4, "categories": {"10-H40": {"distance": 10, "rank": 387, "pace": 346000000000, "time": 3469.8}}, "weekday": "saturday", "livingplace": "Yverdon les Bains"}, "sam. 28.04.2012": {"year": 2012, "day": 28, "month": 4, "categories": {"10-H40": {"distance": 10, "rank": 275, "pace": 327000000000, "time": 3272.9}}, "weekday": "saturday", "livingplace": "Yverdon les Bains"}}, "location": "Lausanne"}, "La Trotteuse-Tissot, La Chaux-de-Fonds": {"latitude": 47.1034892, "longitude": 6.832783800000001, "race": "La Trotteuse-Tissot, La Chaux-de-Fonds", "date": {"sam. 12.12.2015": {"year": 2015, "day": 12, "month": 12, "categories": {"GC-H40": {"distance": 8, "rank": 203, "pace": 318000000000, "time": 2548.6}}, "weekday": "saturday", "livingplace": "Yverdon les Bains"}}, "location": "La Chaux-de-Fonds"}, "Z\u00fcrich Marathon, Teamrun und Cityrun": {"latitude": 47.3768866, "longitude": 8.541694, "race": "Z\u00fcrich Marathon, Teamrun und Cityrun", "date": {"dim. 22.04.2012": {"year": 2012, "day": 22, "month": 4, "categories": {"10-M40": {"distance": 10, "rank": 107, "pace": 297000000000, "time": 2976.7}}, "weekday": "sunday", "livingplace": "Yverdon les Bains"}}, "location": "Z\u00fcrich"}, "Tour du Pays de Vaud #2 - Genolier": {"latitude": 46.5955273, "longitude": 6.7702883, "race": "Tour du Pays de Vaud #2 - Genolier", "date": {"mer. 17.08.2011": {"year": 2011, "day": 17, "month": 8, "categories": {"H-Sen2": {"distance": 9, "rank": 139, "pace": 340000000000, "time": 2890.5}}, "weekday": "wednesday", "livingplace": "Yverdon les Bains"}}, "location": "M\u00e9zi\u00e8res VD"}, "Tour du pays de Vaud #5 - Penthaz": {"latitude": 46.5993131, "longitude": 6.539251200000001, "race": "Tour du pays de Vaud #5 - Penthaz", "date": {"mer. 07.09.2011": {"year": 2011, "day": 7, "month": 9, "categories": {"H-Sen2": {"distance": 8, "rank": 129, "pace": 360000000000, "time": 3008.8}}, "weekday": "wednesday", "livingplace": "Yverdon les Bains"}}, "location": "Penthaz"}, "Tour du Pays de Vaud printanier #1 Chavornay": {"latitude": 46.3832683, "longitude": 6.2347852, "race": "Tour du Pays de Vaud printanier #1 Chavornay", "date": {"mer. 30.05.2012": {"year": 2012, "day": 30, "month": 5, "categories": {"H-Sen2": {"distance": 9, "rank": 60, "pace": 342000000000, "time": 3068.2}}, "weekday": "wednesday", "livingplace": "Yverdon les Bains"}}, "location": "Nyon"}, "Lausanne Marathon": {"latitude": 46.5196535, "longitude": 6.6322734, "race": "Lausanne Marathon", "date": {"dim. 31.10.2010": {"year": 2010, "day": 31, "month": 10, "categories": {"10-H3": {"distance": 10, "rank": 342, "pace": 321000000000, "time": 3210.4}}, "weekday": "sunday", "livingplace": "Yverdon les Bains"}, "dim. 30.10.2011": {"year": 2011, "day": 30, "month": 10, "categories": {"10-H3": {"distance": 10, "rank": 298, "pace": 309000000000, "time": 3092.2}}, "weekday": "sunday", "livingplace": "Yverdon les Bains"}, "dim. 28.10.2012": {"year": 2012, "day": 28, "month": 10, "categories": {"21-H3": {"distance": 21, "rank": 650, "pace": 337000000000, "time": 7124.0}}, "weekday": "sunday", "livingplace": "Yverdon les Bains"}}, "location": "Lausanne"}, "Morat-Fribourg": {"latitude": 46.92922110000001, "longitude": 7.120184, "race": "Morat-Fribourg", "date": {"sam. 06.10.2012": {"year": 2012, "day": 6, "month": 10, "categories": {"17-M40": {"distance": 17, "rank": 682, "pace": 359000000000, "time": 6266.9}}, "weekday": "saturday", "livingplace": "Yverdon les Bains"}}, "location": "Murten"}, "Kerzerslauf": {"latitude": 46.97488999999999, "longitude": 7.1954365, "race": "Kerzerslauf", "date": {"sam. 17.03.2012": {"year": 2012, "day": 17, "month": 3, "categories": {"15-M40": {"distance": 15, "rank": 569, "pace": 388000000000, "time": 5834.5}}, "weekday": "saturday", "livingplace": "Yverdon les Bains"}}, "location": "Kerzers"}, "ASICS Bremgarter Reusslauf": {"latitude": 47.34917739999999, "longitude": 8.3397905, "race": "ASICS Bremgarter Reusslauf", "date": {"sam. 25.02.2012": {"year": 2012, "day": 25, "month": 2, "categories": {"M40": {"distance": 11, "rank": 541, "pace": 316000000000, "time": 3482.7}}, "weekday": "saturday", "livingplace": "Yverdon les Bains"}}, "location": "Bremgarten AG"}}, "birth": 1970}