{"name": "Bazarbachi De Pury Rima", "sex": "F", "races": {"Tour du Pays de Vaud etape 5 - La Sarraz": {"latitude": 46.5993131, "longitude": 6.539251200000001, "race": "Tour du Pays de Vaud etape 5 - La Sarraz", "date": {"mer. 10.09.2008": {"year": 2008, "day": 10, "month": 9, "categories": {"DamSen1": {"distance": 9, "rank": 22, "pace": 311000000000, "time": 2681.1}}, "weekday": "wednesday", "livingplace": "Orbe"}}, "location": "Penthaz"}, "Tour du pays de Vaud #6 - St  Prex": {"latitude": 46.4829113, "longitude": 6.458343500000001, "race": "Tour du pays de Vaud #6 - St  Prex", "date": {"mer. 14.09.2011": {"year": 2011, "day": 14, "month": 9, "categories": {"D-Sen2": {"distance": 9, "rank": 11, "pace": 284000000000, "time": 2450.5}}, "weekday": "wednesday", "livingplace": "Orbe"}}, "location": "St-Prex"}, "Course de l'Avent, Yverdon": {"latitude": 46.8064773, "longitude": 7.161971899999999, "race": "Course de l'Avent, Yverdon", "date": {"dim. 28.11.2010": {"year": 2010, "day": 28, "month": 11, "categories": {"E-F43": {"distance": 8, "rank": 4, "pace": 274000000000, "time": 2122.6}}, "weekday": "sunday", "livingplace": "Orbe"}, "dim. 27.11.2011": {"year": 2011, "day": 27, "month": 11, "categories": {"E-F4": {"distance": 8, "rank": 4, "pace": 277000000000, "time": 2143.1}}, "weekday": "sunday", "livingplace": "Orbe"}}, "location": "Fribourg"}, "Tour du Pays de Vaud printanier #1 Chavornay": {"latitude": 46.3832683, "longitude": 6.2347852, "race": "Tour du Pays de Vaud printanier #1 Chavornay", "date": {"mer. 30.05.2012": {"year": 2012, "day": 30, "month": 5, "categories": {"D-Sen2": {"distance": 9, "rank": 5, "pace": 306000000000, "time": 2747.5}}, "weekday": "wednesday", "livingplace": "Orbe"}}, "location": "Nyon"}, "Tour du pays de Vaud #1 - Mezi\u00e8res": {"latitude": 46.7784736, "longitude": 6.641183, "race": "Tour du pays de Vaud #1 - Mezi\u00e8res", "date": {"mer. 10.08.2011": {"year": 2011, "day": 10, "month": 8, "categories": {"D-Sen2": {"distance": 9, "rank": 24, "pace": 303000000000, "time": 2580.8}}, "weekday": "wednesday", "livingplace": "Orbe"}}, "location": "Yverdon-les-Bains"}, "Tour du Pays de Vaud #3 - Mezi\u00e8res": {"latitude": 46.7784736, "longitude": 6.641183, "race": "Tour du Pays de Vaud #3 - Mezi\u00e8res", "date": {"mer. 22.08.2012": {"year": 2012, "day": 22, "month": 8, "categories": {"D-Sen2": {"distance": 8, "rank": 8, "pace": 318000000000, "time": 2677.9}}, "weekday": "wednesday", "livingplace": "Orbe"}}, "location": "Yverdon-les-Bains"}, "Les Traine-Savates, Cheseaux-sur-Lausanne": {"latitude": 46.585452, "longitude": 6.6047712, "race": "Les Traine-Savates, Cheseaux-sur-Lausanne", "date": {"sam. 09.04.2011": {"year": 2011, "day": 9, "month": 4, "categories": {"10-W40": {"distance": 10, "rank": 26, "pace": 305000000000, "time": 3173.4}}, "weekday": "saturday", "livingplace": "Orbe"}}, "location": "Cheseaux-sur-Lausanne"}, "Tour du Pays de Vaud #3 - Chavornay": {"latitude": 46.7784736, "longitude": 6.641183, "race": "Tour du Pays de Vaud #3 - Chavornay", "date": {"mer. 28.08.2013": {"year": 2013, "day": 28, "month": 8, "categories": {"D-Sen2": {"distance": 9, "rank": 6, "pace": 280000000000, "time": 2494.2}}, "weekday": "wednesday", "livingplace": "Orbe"}}, "location": "Yverdon-les-Bains"}, "Tour du Pays de Vaud #3, Chavornay": {"latitude": 46.7784736, "longitude": 6.641183, "race": "Tour du Pays de Vaud #3, Chavornay", "date": {"mer. 27.08.2014": {"year": 2014, "day": 27, "month": 8, "categories": {"D-Sen2": {"distance": 9, "rank": 16, "pace": 321000000000, "time": 2765.7}}, "weekday": "wednesday", "livingplace": "Yverdon les Bains"}}, "location": "Yverdon-les-Bains"}, "Tour du Pays de Vaud #2 - Genolier": {"latitude": 46.5955273, "longitude": 6.7702883, "race": "Tour du Pays de Vaud #2 - Genolier", "date": {"mer. 15.08.2012": {"year": 2012, "day": 15, "month": 8, "categories": {"D-Sen2": {"distance": 9, "rank": 15, "pace": 300000000000, "time": 2553.0}}, "weekday": "wednesday", "livingplace": "Orbe"}, "mer. 17.08.2011": {"year": 2011, "day": 17, "month": 8, "categories": {"D-Sen2": {"distance": 9, "rank": 13, "pace": 300000000000, "time": 2553.1}}, "weekday": "wednesday", "livingplace": "Orbe"}}, "location": "M\u00e9zi\u00e8res VD"}, "Tour du Pays de Vaud #4, La Sarraz": {"latitude": 46.7088129, "longitude": 6.5707689, "race": "Tour du Pays de Vaud #4, La Sarraz", "date": {"mer. 03.09.2014": {"year": 2014, "day": 3, "month": 9, "categories": {"D-Sen2": {"distance": 9, "rank": 14, "pace": 293000000000, "time": 2493.9}}, "weekday": "wednesday", "livingplace": "Yverdon les Bains"}}, "location": "Chavornay"}, "Tour du Pays de Vaud #2 - Mezi\u00e8res": {"latitude": 46.5955273, "longitude": 6.7702883, "race": "Tour du Pays de Vaud #2 - Mezi\u00e8res", "date": {"mer. 21.08.2013": {"year": 2013, "day": 21, "month": 8, "categories": {"D-Sen2": {"distance": 8, "rank": 8, "pace": 310000000000, "time": 2516.2}}, "weekday": "wednesday", "livingplace": "Orbe"}}, "location": "M\u00e9zi\u00e8res VD"}, "Tour du Pays de Vaud etape 2 - Genolier": {"latitude": 46.5955273, "longitude": 6.7702883, "race": "Tour du Pays de Vaud etape 2 - Genolier", "date": {"mer. 20.08.2008": {"year": 2008, "day": 20, "month": 8, "categories": {"DamSen1": {"distance": 8, "rank": 29, "pace": 328000000000, "time": 2728.3}}, "weekday": "wednesday", "livingplace": "Orbe"}}, "location": "M\u00e9zi\u00e8res VD"}, "Tour du Pays de Vaud etape 3 - Aubonne": {"latitude": 46.7829756, "longitude": 6.5728678, "race": "Tour du Pays de Vaud etape 3 - Aubonne", "date": {"mer. 27.08.2008": {"year": 2008, "day": 27, "month": 8, "categories": {"DamSen1": {"distance": 8, "rank": 25, "pace": 354000000000, "time": 2768.1}}, "weekday": "wednesday", "livingplace": "Orbe"}}, "location": "Champvent"}, "Tour du pays de Vaud #5 - Penthaz": {"latitude": 46.5993131, "longitude": 6.539251200000001, "race": "Tour du pays de Vaud #5 - Penthaz", "date": {"mer. 07.09.2011": {"year": 2011, "day": 7, "month": 9, "categories": {"D-Sen2": {"distance": 8, "rank": 24, "pace": 340000000000, "time": 2840.3}}, "weekday": "wednesday", "livingplace": "Orbe"}}, "location": "Penthaz"}, "Morat-Fribourg": {"latitude": 46.92922110000001, "longitude": 7.120184, "race": "Morat-Fribourg", "date": {"sam. 04.10.2014": {"year": 2014, "day": 4, "month": 10, "categories": {"17-W45": {"distance": 17, "rank": 46, "pace": 318000000000, "time": 5460.6}}, "weekday": "saturday", "livingplace": "Yverdon les Bains"}}, "location": "Murten"}, "Tour du Pays de Vaud #4 - La Sarraz": {"latitude": 46.7088129, "longitude": 6.5707689, "race": "Tour du Pays de Vaud #4 - La Sarraz", "date": {"mer. 29.08.2012": {"year": 2012, "day": 29, "month": 8, "categories": {"D-Sen2": {"distance": 9, "rank": 11, "pace": 288000000000, "time": 2451.7}}, "weekday": "wednesday", "livingplace": "Orbe"}, "mer. 04.09.2013": {"year": 2013, "day": 4, "month": 9, "categories": {"D-Sen2": {"distance": 9, "rank": 5, "pace": 287000000000, "time": 2441.0}}, "weekday": "wednesday", "livingplace": "Orbe"}}, "location": "Chavornay"}, "Tour du pays de Vaud #1 - Penthaz": {"latitude": 46.5993131, "longitude": 6.539251200000001, "race": "Tour du pays de Vaud #1 - Penthaz", "date": {"mer. 14.08.2013": {"year": 2013, "day": 14, "month": 8, "categories": {"D-Sen2": {"distance": 9, "rank": 11, "pace": 291000000000, "time": 2485.9}}, "weekday": "wednesday", "livingplace": "Orbe"}, "mer. 08.08.2012": {"year": 2012, "day": 8, "month": 8, "categories": {"D-Sen2": {"distance": 9, "rank": 7, "pace": 293000000000, "time": 2501.3}}, "weekday": "wednesday", "livingplace": "Orbe"}}, "location": "Penthaz"}}, "birth": 1969}