{"name": "Beaud Jean-Daniel", "sex": "M", "races": {"Tour du Pays de Vaud #4, La Sarraz": {"latitude": 46.7088129, "longitude": 6.5707689, "race": "Tour du Pays de Vaud #4, La Sarraz", "date": {"mer. 03.09.2014": {"year": 2014, "day": 3, "month": 9, "categories": {"H-Sen2": {"distance": 9, "rank": 47, "pace": 273000000000, "time": 2325.7}}, "weekday": "wednesday", "livingplace": "Eclagnens"}}, "location": "Chavornay"}, "Morat-Fribourg": {"latitude": 46.92922110000001, "longitude": 7.120184, "race": "Morat-Fribourg", "date": {"sam. 03.10.2015": {"year": 2015, "day": 3, "month": 10, "categories": {"17-M45": {"distance": 17, "rank": 177, "pace": 292000000000, "time": 5023.0}}, "weekday": "saturday", "livingplace": "Eclagnens"}, "sam. 04.10.2014": {"year": 2014, "day": 4, "month": 10, "categories": {"17-M45": {"distance": 17, "rank": 288, "pace": 306000000000, "time": 5260.6}}, "weekday": "saturday", "livingplace": "Eclagnens"}}, "location": "Murten"}, "Tour du Pays de Vaud #2, Mezi\u00e8res": {"latitude": 46.5955273, "longitude": 6.7702883, "race": "Tour du Pays de Vaud #2, Mezi\u00e8res", "date": {"mer. 20.08.2014": {"year": 2014, "day": 20, "month": 8, "categories": {"H-Sen2": {"distance": 8, "rank": 54, "pace": 304000000000, "time": 2468.3}}, "weekday": "wednesday", "livingplace": "Eclagnens"}}, "location": "M\u00e9zi\u00e8res VD"}, "20km de Lausanne": {"latitude": 46.5196535, "longitude": 6.6322734, "race": "20km de Lausanne", "date": {"sam. 28.04.2012": {"year": 2012, "day": 28, "month": 4, "categories": {"10-H40": {"distance": 10, "rank": 219, "pace": 315000000000, "time": 3150.8}}, "weekday": "saturday", "livingplace": "Eclagnens"}, "sam. 26.04.2014": {"year": 2014, "day": 26, "month": 4, "categories": {"10-H45": {"distance": 10, "rank": 95, "pace": 283000000000, "time": 2833.0}}, "weekday": "saturday", "livingplace": "Arch"}}, "location": "Lausanne"}, "Les Traine-Savates, Cheseaux-sur-Lausanne": {"latitude": 46.585452, "longitude": 6.6047712, "race": "Les Traine-Savates, Cheseaux-sur-Lausanne", "date": {"sam. 18.04.2015": {"year": 2015, "day": 18, "month": 4, "categories": {"10-M40": {"distance": 10, "rank": 81, "pace": 272000000000, "time": 2803.3}}, "weekday": "saturday", "livingplace": "Eclagnens"}, "sam. 14.04.2012": {"year": 2012, "day": 14, "month": 4, "categories": {"10-M40": {"distance": 10, "rank": 159, "pace": 323000000000, "time": 3361.1}}, "weekday": "saturday", "livingplace": "Eclagnens"}}, "location": "Cheseaux-sur-Lausanne"}, "Tour du Pays de Vaud #3, Chavornay": {"latitude": 46.7784736, "longitude": 6.641183, "race": "Tour du Pays de Vaud #3, Chavornay", "date": {"mer. 27.08.2014": {"year": 2014, "day": 27, "month": 8, "categories": {"H-Sen2": {"distance": 9, "rank": 94, "pace": 318000000000, "time": 2740.6}}, "weekday": "wednesday", "livingplace": "Eclagnens"}}, "location": "Yverdon-les-Bains"}}, "birth": 1969}