{"name": "Beaume Yann", "sex": "M", "races": {"Grand Prix Craft, Neuch\u00e2tel": {"latitude": 46.9899874, "longitude": 6.9292732, "race": "Grand Prix Craft, Neuch\u00e2tel", "date": {"dim. 16.12.2007": {"year": 2007, "day": 16, "month": 12, "categories": {"HE": {"distance": 7, "rank": 26, "pace": 267000000000, "time": 1872.5}}, "weekday": "sunday", "livingplace": "Les Bois"}}, "location": "Neuch\u00e2tel"}, "BCN Tour Le Landeron": {"latitude": 46.9668714, "longitude": 6.8589727, "race": "BCN Tour Le Landeron", "date": {"mer. 22.04.2009": {"year": 2009, "day": 22, "month": 4, "categories": {"HE": {"distance": 11, "rank": 102, "pace": 321000000000, "time": 3573.7}}, "weekday": "wednesday", "livingplace": "Gsfm"}}, "location": "Colombier NE"}, "BCN Tour Ponts-de-Martel": {"latitude": 47.0624261, "longitude": 6.9175754, "race": "BCN Tour Ponts-de-Martel", "date": {"mer. 28.04.2010": {"year": 2010, "day": 28, "month": 4, "categories": {"HS1": {"distance": 11, "rank": 143, "pace": 325000000000, "time": 3647.1}}, "weekday": "wednesday", "livingplace": "St Imier"}}, "location": "Ch\u00e9zard-St-Martin"}, "BCN Tour M\u00f4tier": {"latitude": 46.9262933, "longitude": 6.6324944, "race": "BCN Tour M\u00f4tier", "date": {"mer. 19.05.2010": {"year": 2010, "day": 19, "month": 5, "categories": {"HS1": {"distance": 10, "rank": 161, "pace": 305000000000, "time": 3020.2}}, "weekday": "wednesday", "livingplace": "St Imier"}}, "location": "Couvet"}, "BCN Tour Le Locle": {"latitude": 46.999113, "longitude": 6.733554799999999, "race": "BCN Tour Le Locle", "date": {"mer. 05.05.2010": {"year": 2010, "day": 5, "month": 5, "categories": {"HS1": {"distance": 11, "rank": 145, "pace": 313000000000, "time": 3415.9}}, "weekday": "wednesday", "livingplace": "St Imier"}}, "location": "Les Ponts-de-Martel"}, "BCN Tour Neuch\u00e2tel": {"latitude": 46.9899874, "longitude": 6.9292732, "race": "BCN Tour Neuch\u00e2tel", "date": {"mer. 26.05.2010": {"year": 2010, "day": 26, "month": 5, "categories": {"HS1": {"distance": 10, "rank": 165, "pace": 363000000000, "time": 3525.4}}, "weekday": "wednesday", "livingplace": "St Imier"}}, "location": "Neuch\u00e2tel"}, "BCN Tour La Chaux-de-fonds": {"latitude": 47.1034892, "longitude": 6.832783800000001, "race": "BCN Tour La Chaux-de-fonds", "date": {"mer. 12.05.2010": {"year": 2010, "day": 12, "month": 5, "categories": {"HS1": {"distance": 11, "rank": 180, "pace": 409000000000, "time": 4376.6}}, "weekday": "wednesday", "livingplace": "St Imier"}}, "location": "La Chaux-de-Fonds"}, "BCN Tour Colombier": {"latitude": 46.9668714, "longitude": 6.8589727, "race": "BCN Tour Colombier", "date": {"mer. 21.04.2010": {"year": 2010, "day": 21, "month": 4, "categories": {"HS1": {"distance": 10, "rank": 138, "pace": 342000000000, "time": 3428.1}}, "weekday": "wednesday", "livingplace": "St Imier"}}, "location": "Colombier NE"}}, "birth": 1980}