{"name": "Beausire Dominique", "sex": "F", "races": {"Tour du Pays de Vaud #4, La Sarraz": {"latitude": 46.7088129, "longitude": 6.5707689, "race": "Tour du Pays de Vaud #4, La Sarraz", "date": {"mer. 03.09.2014": {"year": 2014, "day": 3, "month": 9, "categories": {"D-Sen1": {"distance": 9, "rank": 37, "pace": 330000000000, "time": 2811.6}}, "weekday": "wednesday", "livingplace": "Bavois"}}, "location": "Chavornay"}, "Zermatt Marathon, Zermatt": {"latitude": NaN, "longitude": NaN, "race": "Zermatt Marathon, Zermatt", "date": {"sam. 04.07.2015": {"year": 2015, "day": 4, "month": 7, "categories": {"H-F30": {"distance": 21, "rank": 36, "pace": 577000000000, "time": 12193.0}}, "weekday": "saturday", "livingplace": "Bavois"}, "sam. 05.07.2014": {"year": 2014, "day": 5, "month": 7, "categories": {"H-F30": {"distance": 21, "rank": 31, "pace": 545000000000, "time": 11512.0}}, "weekday": "saturday", "livingplace": "Bavois"}}, "location": "Zermatt"}, "Morat-Fribourg": {"latitude": 46.92922110000001, "longitude": 7.120184, "race": "Morat-Fribourg", "date": {"sam. 05.10.2013": {"year": 2013, "day": 5, "month": 10, "categories": {"17-W35": {"distance": 17, "rank": 179, "pace": 344000000000, "time": 6005.2}}, "weekday": "saturday", "livingplace": "Bavois"}}, "location": "Murten"}, "Tour du Pays de Vaud #3 - Chavornay": {"latitude": 46.7784736, "longitude": 6.641183, "race": "Tour du Pays de Vaud #3 - Chavornay", "date": {"mer. 28.08.2013": {"year": 2013, "day": 28, "month": 8, "categories": {"D-Sen1": {"distance": 9, "rank": 36, "pace": 323000000000, "time": 2878.9}}, "weekday": "wednesday", "livingplace": "Bavois"}}, "location": "Yverdon-les-Bains"}, "20km de Lausanne": {"latitude": 46.5196535, "longitude": 6.6322734, "race": "20km de Lausanne", "date": {"sam. 27.04.2013": {"year": 2013, "day": 27, "month": 4, "categories": {"10-F30": {"distance": 10, "rank": 262, "pace": 335000000000, "time": 3359.6}}, "weekday": "saturday", "livingplace": "Bavois"}, "sam. 25.04.2015": {"year": 2015, "day": 25, "month": 4, "categories": {"10-F30": {"distance": 10, "rank": 189, "pace": 323000000000, "time": 3236.5}}, "weekday": "saturday", "livingplace": "Bavois"}}, "location": "Lausanne"}, "Tour du Pays de Vaud #4 - La Sarraz": {"latitude": 46.7088129, "longitude": 6.5707689, "race": "Tour du Pays de Vaud #4 - La Sarraz", "date": {"mer. 04.09.2013": {"year": 2013, "day": 4, "month": 9, "categories": {"D-Sen1": {"distance": 9, "rank": 32, "pace": 325000000000, "time": 2770.1}}, "weekday": "wednesday", "livingplace": "Bavois"}}, "location": "Chavornay"}, "Tour du pays de Vaud #1 - Penthaz": {"latitude": 46.5993131, "longitude": 6.539251200000001, "race": "Tour du pays de Vaud #1 - Penthaz", "date": {"mer. 14.08.2013": {"year": 2013, "day": 14, "month": 8, "categories": {"D-Sen1": {"distance": 9, "rank": 37, "pace": 329000000000, "time": 2809.8}}, "weekday": "wednesday", "livingplace": "Bavois"}}, "location": "Penthaz"}}, "birth": 1976}