{"name": "Becker Cyril", "sex": "M", "races": {"Tour du Pays de Vaud printanier #2 Yverdon-les-Bains": {"latitude": 46.6698891, "longitude": 6.7975224, "race": "Tour du Pays de Vaud printanier #2 Yverdon-les-Bains", "date": {"mer. 11.06.2014": {"year": 2014, "day": 11, "month": 6, "categories": {"H-Hom": {"distance": 9, "rank": 50, "pace": 348000000000, "time": 3170.9}}, "weekday": "wednesday", "livingplace": "Lutry"}}, "location": "Moudon"}, "Tour du Pays de Vaud printanier #3 - Yens": {"latitude": 46.7829756, "longitude": 6.5728678, "race": "Tour du Pays de Vaud printanier #3 - Yens", "date": {"mer. 18.06.2014": {"year": 2014, "day": 18, "month": 6, "categories": {"H-Hom": {"distance": 9, "rank": 46, "pace": 316000000000, "time": 2876.5}}, "weekday": "wednesday", "livingplace": "Lutry"}}, "location": "Champvent"}, "Tour du Pays de Vaud printanier #1 Moudon": {"latitude": 46.3832683, "longitude": 6.2347852, "race": "Tour du Pays de Vaud printanier #1 Moudon", "date": {"mer. 04.06.2014": {"year": 2014, "day": 4, "month": 6, "categories": {"H-Hom": {"distance": 8, "rank": 41, "pace": 299000000000, "time": 2515.8}}, "weekday": "wednesday", "livingplace": "Lutry"}}, "location": "Nyon"}, "Lausanne Marathon": {"latitude": 46.5196535, "longitude": 6.6322734, "race": "Lausanne Marathon", "date": {"sam. 24.10.2015": {"year": 2015, "day": 24, "month": 10, "categories": {"21-H20": {"distance": 21, "rank": 79, "pace": 266000000000, "time": 5616.5}}, "weekday": "saturday", "livingplace": "Lausanne"}}, "location": "Lausanne"}, "Course de l'Escalade, Gen\u00e8ve": {"latitude": 46.2043907, "longitude": 6.1431577, "race": "Course de l'Escalade, Gen\u00e8ve", "date": {"sam. 05.12.2015": {"year": 2015, "day": 5, "month": 12, "categories": {"Esc-Hom1": {"distance": 7, "rank": 337, "pace": 253000000000, "time": 1857.1}}, "weekday": "saturday", "livingplace": "Lausanne"}}, "location": "Gen\u00e8ve"}, "20km de Lausanne": {"latitude": 46.5196535, "longitude": 6.6322734, "race": "20km de Lausanne", "date": {"sam. 25.04.2015": {"year": 2015, "day": 25, "month": 4, "categories": {"10-H20": {"distance": 10, "rank": 223, "pace": 268000000000, "time": 2680.2}}, "weekday": "saturday", "livingplace": "Lausanne"}, "sam. 26.04.2014": {"year": 2014, "day": 26, "month": 4, "categories": {"10-H20": {"distance": 10, "rank": 724, "pace": 338000000000, "time": 3382.5}}, "weekday": "saturday", "livingplace": "Lutry"}}, "location": "Lausanne"}, "D\u00e9fi du vignoble, Cully": {"latitude": 45.565921, "longitude": -122.6066627, "race": "D\u00e9fi du vignoble, Cully", "date": {"mer. 14.05.2014": {"year": 2014, "day": 14, "month": 5, "categories": {"M20": {"distance": 4, "rank": 27, "pace": 522000000000, "time": 1902.8}}, "weekday": "wednesday", "livingplace": "Lutry"}}, "location": "Cully"}}, "birth": 1989}