{"name": "Beguinot Lucas", "sex": "M", "races": {"Tour du Chablais #2 Rennaz": {"latitude": 46.3835529, "longitude": 6.854975199999999, "race": "Tour du Chablais #2 Rennaz", "date": {"mer. 04.05.2011": {"year": 2011, "day": 4, "month": 5, "categories": {"M-Jun": {"distance": 9, "rank": 15, "pace": 279000000000, "time": 2611.8}}, "weekday": "wednesday", "livingplace": "Villars sur Ollon"}}, "location": "Bouveret"}, "Tour du Chablais #5 Les Mosses": {"latitude": 46.3603257, "longitude": 6.931504599999999, "race": "Tour du Chablais #5 Les Mosses", "date": {"mer. 25.05.2011": {"year": 2011, "day": 25, "month": 5, "categories": {"M-Jun": {"distance": 8, "rank": 14, "pace": 293000000000, "time": 2344.3}}, "weekday": "wednesday", "livingplace": "Villars sur Ollon"}}, "location": "Roche VD"}, "Tour du Chablais #3 Le Bouveret": {"latitude": 46.1782231, "longitude": 7.0223787, "race": "Tour du Chablais #3 Le Bouveret", "date": {"mer. 11.05.2011": {"year": 2011, "day": 11, "month": 5, "categories": {"M-Jun": {"distance": 10, "rank": 22, "pace": 280000000000, "time": 2809.2}}, "weekday": "wednesday", "livingplace": "Villars sur Ollon"}}, "location": "Evionnaz"}, "Tour du Chablais #4 Morgins": {"latitude": NaN, "longitude": NaN, "race": "Tour du Chablais #4 Morgins", "date": {"mer. 18.05.2011": {"year": 2011, "day": 18, "month": 5, "categories": {"M-Jun": {"distance": 8, "rank": 17, "pace": 284000000000, "time": 2377.2}}, "weekday": "wednesday", "livingplace": "Villars sur Ollon"}}, "location": "Les Mosses"}, "Tour du Chablais #6 Aigle": {"latitude": 46.3190253, "longitude": 6.970566, "race": "Tour du Chablais #6 Aigle", "date": {"mer. 01.06.2011": {"year": 2011, "day": 1, "month": 6, "categories": {"M-Jun": {"distance": 10, "rank": 17, "pace": 270000000000, "time": 2756.3}}, "weekday": "wednesday", "livingplace": "Villars sur Ollon"}}, "location": "Aigle"}, "Tour du Chablais #1 Lavey": {"latitude": 46.2957462, "longitude": 6.9916269, "race": "Tour du Chablais #1 Lavey", "date": {"mer. 27.04.2011": {"year": 2011, "day": 27, "month": 4, "categories": {"M-Jun": {"distance": 9, "rank": 20, "pace": 288000000000, "time": 2600.3}}, "weekday": "wednesday", "livingplace": "Villars sur Ollon"}}, "location": "Ollon VD"}, "Tour du Chablais #2 Bex": {"latitude": 46.3835529, "longitude": 6.854975199999999, "race": "Tour du Chablais #2 Bex", "date": {"mer. 18.04.2012": {"year": 2012, "day": 18, "month": 4, "categories": {"M-M20": {"distance": 8, "rank": 134, "pace": 287000000000, "time": 2297.8}}, "weekday": "wednesday", "livingplace": "Paris"}}, "location": "Bouveret"}, "Tour du Chablais #3 Collombey-Muraz": {"latitude": 46.1782231, "longitude": 7.0223787, "race": "Tour du Chablais #3 Collombey-Muraz", "date": {"mer. 25.04.2012": {"year": 2012, "day": 25, "month": 4, "categories": {"M-M20": {"distance": 9, "rank": 125, "pace": 285000000000, "time": 2564.6}}, "weekday": "wednesday", "livingplace": "Paris"}}, "location": "Evionnaz"}}, "birth": 1992}