{"name": "B\u00e9laz Steve", "sex": "M", "races": {"BCN Tour Couvet": {"latitude": 47.0624261, "longitude": 6.9175754, "race": "BCN Tour Couvet", "date": {"mer. 02.05.2012": {"year": 2012, "day": 2, "month": 5, "categories": {"HS1": {"distance": 11, "rank": 241, "pace": 382000000000, "time": 4260.3}}, "weekday": "wednesday", "livingplace": "Boudry"}}, "location": "Ch\u00e9zard-St-Martin"}, "BCN Tour La Chaux-de-Fonds": {"latitude": 46.9262933, "longitude": 6.6324944, "race": "BCN Tour La Chaux-de-Fonds", "date": {"mer. 23.05.2012": {"year": 2012, "day": 23, "month": 5, "categories": {"HS1": {"distance": 11, "rank": 253, "pace": 356000000000, "time": 3851.7}}, "weekday": "wednesday", "livingplace": "Boudry"}}, "location": "Couvet"}, "BCN Tour Les Ponts-de-Martel": {"latitude": 46.999113, "longitude": 6.733554799999999, "race": "BCN Tour Les Ponts-de-Martel", "date": {"mer. 09.05.2012": {"year": 2012, "day": 9, "month": 5, "categories": {"HS1": {"distance": 10, "rank": 230, "pace": 355000000000, "time": 3656.8}}, "weekday": "wednesday", "livingplace": "Boudry"}}, "location": "Les Ponts-de-Martel"}, "BCN Tour Neuch\u00e2tel": {"latitude": 46.9899874, "longitude": 6.9292732, "race": "BCN Tour Neuch\u00e2tel", "date": {"mer. 26.05.2010": {"year": 2010, "day": 26, "month": 5, "categories": {"HS1": {"distance": 10, "rank": 198, "pace": 397000000000, "time": 3854.9}}, "weekday": "wednesday", "livingplace": "Boudry"}, "mer. 30.05.2012": {"year": 2012, "day": 30, "month": 5, "categories": {"HS1": {"distance": 11, "rank": 243, "pace": 379000000000, "time": 4245.1}}, "weekday": "wednesday", "livingplace": "Boudry"}}, "location": "Neuch\u00e2tel"}, "BCN Tour Boudry": {"latitude": 46.9668714, "longitude": 6.8589727, "race": "BCN Tour Boudry", "date": {"mer. 26.04.2006": {"year": 2006, "day": 26, "month": 4, "categories": {"HS1": {"distance": 10, "rank": 139, "pace": 314000000000, "time": 3205.8}}, "weekday": "wednesday", "livingplace": "Areuse"}}, "location": "Colombier NE"}, "BCN Tour Le Landeron": {"latitude": 46.9668714, "longitude": 6.8589727, "race": "BCN Tour Le Landeron", "date": {"mer. 22.04.2009": {"year": 2009, "day": 22, "month": 4, "categories": {"HS1": {"distance": 11, "rank": 188, "pace": 346000000000, "time": 3846.8}}, "weekday": "wednesday", "livingplace": "Boudry"}}, "location": "Colombier NE"}, "BCN Tour La Chaux-de-fonds": {"latitude": 47.1034892, "longitude": 6.832783800000001, "race": "BCN Tour La Chaux-de-fonds", "date": {"mer. 12.05.2010": {"year": 2010, "day": 12, "month": 5, "categories": {"HS1": {"distance": 11, "rank": 178, "pace": 407000000000, "time": 4364.6}}, "weekday": "wednesday", "livingplace": "Boudry"}}, "location": "La Chaux-de-Fonds"}, "BCN Tour Colombier": {"latitude": 46.9668714, "longitude": 6.8589727, "race": "BCN Tour Colombier", "date": {"mer. 16.05.2012": {"year": 2012, "day": 16, "month": 5, "categories": {"HS1": {"distance": 11, "rank": 226, "pace": 340000000000, "time": 3675.7}}, "weekday": "wednesday", "livingplace": "Boudry"}, "mer. 21.04.2010": {"year": 2010, "day": 21, "month": 4, "categories": {"HS1": {"distance": 10, "rank": 154, "pace": 349000000000, "time": 3490.0}}, "weekday": "wednesday", "livingplace": "Boudry"}}, "location": "Colombier NE"}, "BCN Tour Cornaux": {"latitude": 46.9668714, "longitude": 6.8589727, "race": "BCN Tour Cornaux", "date": {"mer. 25.04.2012": {"year": 2012, "day": 25, "month": 4, "categories": {"HS1": {"distance": 11, "rank": 213, "pace": 391000000000, "time": 4306.5}}, "weekday": "wednesday", "livingplace": "Boudry"}}, "location": "Colombier NE"}}, "birth": 1974}