{"name": "Belcastro Vincenzo", "sex": "M", "races": {"BCN Tour La Chaux-de-Fonds": {"latitude": 46.9262933, "longitude": 6.6324944, "race": "BCN Tour La Chaux-de-Fonds", "date": {"mer. 23.05.2012": {"year": 2012, "day": 23, "month": 5, "categories": {"HS1": {"distance": 11, "rank": 275, "pace": 380000000000, "time": 4109.0}}, "weekday": "wednesday", "livingplace": "La Sarraz"}}, "location": "Couvet"}, "BCN Tour Neuch\u00e2tel": {"latitude": 46.9899874, "longitude": 6.9292732, "race": "BCN Tour Neuch\u00e2tel", "date": {"mer. 30.05.2012": {"year": 2012, "day": 30, "month": 5, "categories": {"HS1": {"distance": 11, "rank": 253, "pace": 393000000000, "time": 4412.2}}, "weekday": "wednesday", "livingplace": "La Sarraz"}, "mer. 25.05.2011": {"year": 2011, "day": 25, "month": 5, "categories": {"HS1": {"distance": 11, "rank": 279, "pace": 415000000000, "time": 4739.0}}, "weekday": "wednesday", "livingplace": "La Sarraz"}}, "location": "Neuch\u00e2tel"}, "Tour du pays de Vaud #1 - Mezi\u00e8res": {"latitude": 46.7784736, "longitude": 6.641183, "race": "Tour du pays de Vaud #1 - Mezi\u00e8res", "date": {"mer. 10.08.2011": {"year": 2011, "day": 10, "month": 8, "categories": {"H-Sen1": {"distance": 9, "rank": 133, "pace": 325000000000, "time": 2763.1}}, "weekday": "wednesday", "livingplace": "La Sarraz"}}, "location": "Yverdon-les-Bains"}, "Tour du pays de Vaud #5 - Penthaz": {"latitude": 46.5993131, "longitude": 6.539251200000001, "race": "Tour du pays de Vaud #5 - Penthaz", "date": {"mer. 07.09.2011": {"year": 2011, "day": 7, "month": 9, "categories": {"H-Sen1": {"distance": 8, "rank": 133, "pace": 363000000000, "time": 3037.3}}, "weekday": "wednesday", "livingplace": "La Sarraz"}}, "location": "Penthaz"}, "BCN Tour #5 Colombier": {"latitude": 46.9262933, "longitude": 6.6324944, "race": "BCN Tour #5 Colombier", "date": {"mer. 22.05.2013": {"year": 2013, "day": 22, "month": 5, "categories": {"HS1": {"distance": 11, "rank": 300, "pace": 344000000000, "time": 3619.2}}, "weekday": "wednesday", "livingplace": "La Sarraz"}}, "location": "Couvet"}, "BCN Tour Couvet": {"latitude": 47.0624261, "longitude": 6.9175754, "race": "BCN Tour Couvet", "date": {"mer. 02.05.2012": {"year": 2012, "day": 2, "month": 5, "categories": {"HS1": {"distance": 11, "rank": 261, "pace": 429000000000, "time": 4788.6}}, "weekday": "wednesday", "livingplace": "La Sarraz"}}, "location": "Ch\u00e9zard-St-Martin"}}, "birth": 1978}