{"name": "Belz Barbara", "sex": "F", "races": {"Derendinger Abendlauf, Derendingen": {"latitude": 47.1952433, "longitude": 7.585593099999999, "race": "Derendinger Abendlauf, Derendingen", "date": {"ven. 28.06.2013": {"year": 2013, "day": 28, "month": 6, "categories": {"F30": {"distance": 10, "rank": 6, "pace": 276000000000, "time": 2815.2}}, "weekday": "friday", "livingplace": "Zollikofen"}}, "location": "Derendingen"}, "Zermatt Marathon, Zermatt": {"latitude": NaN, "longitude": NaN, "race": "Zermatt Marathon, Zermatt", "date": {"sam. 05.07.2014": {"year": 2014, "day": 5, "month": 7, "categories": {"H-F30": {"distance": 21, "rank": 9, "pace": 447000000000, "time": 9441.1}}, "weekday": "saturday", "livingplace": "running.ACH"}}, "location": "Zermatt"}, "Basler Stadtlauf": {"latitude": 47.5595986, "longitude": 7.5885761, "race": "Basler Stadtlauf", "date": {"sam. 30.11.2013": {"year": 2013, "day": 30, "month": 11, "categories": {"F30": {"distance": 6, "rank": 17, "pace": 254000000000, "time": 1402.4}}, "weekday": "saturday", "livingplace": "Zollikofen"}}, "location": "Basel"}, "Corrida Bulloise, Bulle": {"latitude": 46.6154512, "longitude": 7.057726799999999, "race": "Corrida Bulloise, Bulle", "date": {"sam. 16.11.2013": {"year": 2013, "day": 16, "month": 11, "categories": {"F20": {"distance": 6, "rank": 48, "pace": 271000000000, "time": 1668.5}}, "weekday": "saturday", "livingplace": "Zollikofen"}}, "location": "Bulle"}, "Schweizer Frauenlauf Bern": {"latitude": 46.9479739, "longitude": 7.4474468, "race": "Schweizer Frauenlauf Bern", "date": {"dim. 15.06.2014": {"year": 2014, "day": 15, "month": 6, "categories": {"5-W30": {"distance": 5, "rank": 12, "pace": 255000000000, "time": 1275.5}}, "weekday": "sunday", "livingplace": "Burgdorf"}}, "location": "Bern"}, "ASICS Bremgarter Reusslauf": {"latitude": 47.34917739999999, "longitude": 8.3397905, "race": "ASICS Bremgarter Reusslauf", "date": {"sam. 28.02.2015": {"year": 2015, "day": 28, "month": 2, "categories": {"11-F30": {"distance": 11, "rank": 36, "pace": 277000000000, "time": 3048.2}}, "weekday": "saturday", "livingplace": "runningcoach.ch"}}, "location": "Bremgarten AG"}, "Gurtenclassic, Wabern": {"latitude": 46.92901639999999, "longitude": 7.448973199999999, "race": "Gurtenclassic, Wabern", "date": {"dim. 03.11.2013": {"year": 2013, "day": 3, "month": 11, "categories": {"KW20": {"distance": 8, "rank": 6, "pace": 329000000000, "time": 2764.2}}, "weekday": "sunday", "livingplace": "Zollikofen"}}, "location": "Wabern"}, "Z\u00fcrcher Silvesterlauf, Z\u00fcrich": {"latitude": 47.3768866, "longitude": 8.541694, "race": "Z\u00fcrcher Silvesterlauf, Z\u00fcrich", "date": {"dim. 15.12.2013": {"year": 2013, "day": 15, "month": 12, "categories": {"10-F30": {"distance": 10, "rank": 40, "pace": 267000000000, "time": 2677.0}}, "weekday": "sunday", "livingplace": "Zollikofen"}}, "location": "Z\u00fcrich"}, "Kerzerslauf": {"latitude": 46.97488999999999, "longitude": 7.1954365, "race": "Kerzerslauf", "date": {"sam. 15.03.2014": {"year": 2014, "day": 15, "month": 3, "categories": {"5-F20": {"distance": 5, "rank": 25, "pace": 270000000000, "time": 1353.2}}, "weekday": "saturday", "livingplace": "Burgdorf"}}, "location": "Kerzers"}}, "birth": 1982}