{"name": "Bender Gilles", "sex": "M", "races": {"Tour du Pays de Vaud #2 - Genolier": {"latitude": 46.5955273, "longitude": 6.7702883, "race": "Tour du Pays de Vaud #2 - Genolier", "date": {"mer. 15.08.2012": {"year": 2012, "day": 15, "month": 8, "categories": {"H-Sen2": {"distance": 9, "rank": 135, "pace": 333000000000, "time": 2834.5}}, "weekday": "wednesday", "livingplace": "Aigle"}}, "location": "M\u00e9zi\u00e8res VD"}, "Tour du pays de Vaud #1 - Penthaz": {"latitude": 46.5993131, "longitude": 6.539251200000001, "race": "Tour du pays de Vaud #1 - Penthaz", "date": {"mer. 08.08.2012": {"year": 2012, "day": 8, "month": 8, "categories": {"H-Sen2": {"distance": 9, "rank": 128, "pace": 326000000000, "time": 2786.4}}, "weekday": "wednesday", "livingplace": "Aigle"}}, "location": "Penthaz"}, "Course de l'Escalade, Gen\u00e8ve": {"latitude": 46.2043907, "longitude": 6.1431577, "race": "Course de l'Escalade, Gen\u00e8ve", "date": {"sam. 07.12.2002": {"year": 2002, "day": 7, "month": 12, "categories": {"DucH2": {"distance": 19, "rank": 786, "pace": 328000000000, "time": 6077.0}}, "weekday": "saturday", "livingplace": "Aigle"}}, "location": "Gen\u00e8ve"}, "Tour du Chablais #4 St  Maurice": {"latitude": NaN, "longitude": NaN, "race": "Tour du Chablais #4 St  Maurice", "date": {"mer. 24.04.2013": {"year": 2013, "day": 24, "month": 4, "categories": {"M-M40": {"distance": 10, "rank": 131, "pace": 326000000000, "time": 3260.8}}, "weekday": "wednesday", "livingplace": "Aigle"}}, "location": "Les Mosses"}, "Tour du Chablais #6 Monthey": {"latitude": 46.3190253, "longitude": 6.970566, "race": "Tour du Chablais #6 Monthey", "date": {"mer. 08.05.2013": {"year": 2013, "day": 8, "month": 5, "categories": {"M-M40": {"distance": 9, "rank": 112, "pace": 300000000000, "time": 2801.5}}, "weekday": "wednesday", "livingplace": "Aigle"}}, "location": "Aigle"}, "Tour du Pays de Vaud #3 - Mezi\u00e8res": {"latitude": 46.7784736, "longitude": 6.641183, "race": "Tour du Pays de Vaud #3 - Mezi\u00e8res", "date": {"mer. 22.08.2012": {"year": 2012, "day": 22, "month": 8, "categories": {"H-Sen2": {"distance": 8, "rank": 137, "pace": 351000000000, "time": 2952.8}}, "weekday": "wednesday", "livingplace": "Aigle"}}, "location": "Yverdon-les-Bains"}, "20km de Lausanne": {"latitude": 46.5196535, "longitude": 6.6322734, "race": "20km de Lausanne", "date": {"sam. 27.04.2013": {"year": 2013, "day": 27, "month": 4, "categories": {"20-H45": {"distance": 20, "rank": 271, "pace": 325000000000, "time": 6511.7}}, "weekday": "saturday", "livingplace": "Aigle"}, "sam. 28.04.2012": {"year": 2012, "day": 28, "month": 4, "categories": {"20-H40": {"distance": 20, "rank": 358, "pace": 342000000000, "time": 6853.8}}, "weekday": "saturday", "livingplace": "Aigle"}}, "location": "Lausanne"}, "Tour du Chablais #1 Martigny": {"latitude": 46.2957462, "longitude": 6.9916269, "race": "Tour du Chablais #1 Martigny", "date": {"mer. 23.04.2014": {"year": 2014, "day": 23, "month": 4, "categories": {"M-M40": {"distance": 9, "rank": 137, "pace": 328000000000, "time": 2792.2}}, "weekday": "wednesday", "livingplace": "Aigle"}}, "location": "Ollon VD"}, "Tour du Chablais #5 Bex": {"latitude": 46.3603257, "longitude": 6.931504599999999, "race": "Tour du Chablais #5 Bex", "date": {"mer. 09.05.2012": {"year": 2012, "day": 9, "month": 5, "categories": {"M-M40": {"distance": 9, "rank": 97, "pace": 295000000000, "time": 2615.7}}, "weekday": "wednesday", "livingplace": "Aigle"}}, "location": "Roche VD"}, "Tour du Chablais #4 Champ\u00e9ry": {"latitude": NaN, "longitude": NaN, "race": "Tour du Chablais #4 Champ\u00e9ry", "date": {"mer. 02.05.2012": {"year": 2012, "day": 2, "month": 5, "categories": {"M-M40": {"distance": 8, "rank": 120, "pace": 313000000000, "time": 2599.3}}, "weekday": "wednesday", "livingplace": "Aigle"}}, "location": "Les Mosses"}, "Tour du Chablais #3 Bouveret": {"latitude": 46.1782231, "longitude": 7.0223787, "race": "Tour du Chablais #3 Bouveret", "date": {"mer. 17.04.2013": {"year": 2013, "day": 17, "month": 4, "categories": {"M-M40": {"distance": 10, "rank": 136, "pace": 335000000000, "time": 3351.6}}, "weekday": "wednesday", "livingplace": "Aigle"}}, "location": "Evionnaz"}, "Tour du Chablais #1 Montreux": {"latitude": 46.2957462, "longitude": 6.9916269, "race": "Tour du Chablais #1 Montreux", "date": {"mer. 11.04.2012": {"year": 2012, "day": 11, "month": 4, "categories": {"M-M40": {"distance": 8, "rank": 145, "pace": 332000000000, "time": 2526.8}}, "weekday": "wednesday", "livingplace": "Aigle"}}, "location": "Ollon VD"}, "Tour du Chablais #3 Collombey-Muraz": {"latitude": 46.1782231, "longitude": 7.0223787, "race": "Tour du Chablais #3 Collombey-Muraz", "date": {"mer. 25.04.2012": {"year": 2012, "day": 25, "month": 4, "categories": {"M-M40": {"distance": 9, "rank": 132, "pace": 320000000000, "time": 2876.9}}, "weekday": "wednesday", "livingplace": "Aigle"}}, "location": "Evionnaz"}, "Montreux - Les Rochers de Naye": {"latitude": 46.4312213, "longitude": 6.9106799, "race": "Montreux - Les Rochers de Naye", "date": {"dim. 08.07.2012": {"year": 2012, "day": 8, "month": 7, "categories": {"M-HV\u00e9t1": {"distance": 19, "rank": 108, "pace": 565000000000, "time": 10624.7}}, "weekday": "sunday", "livingplace": "Aigle"}, "dim. 30.06.2002": {"year": 2002, "day": 30, "month": 6, "categories": {"Se": {"distance": 20, "rank": 80, "pace": 441000000000, "time": 8954.3}}, "weekday": "sunday", "livingplace": "Aigle"}}, "location": "Montreux"}, "Morat-Fribourg": {"latitude": 46.92922110000001, "longitude": 7.120184, "race": "Morat-Fribourg", "date": {"dim. 07.10.2001": {"year": 2001, "day": 7, "month": 10, "categories": {"M20": {"distance": 17, "rank": 1507, "pace": 313000000000, "time": 5377.2}}, "weekday": "sunday", "livingplace": "Aigle"}}, "location": "Murten"}, "Course p\u00e9destre Thyon-Dixence, Thyon": {"latitude": NaN, "longitude": NaN, "race": "Course p\u00e9destre Thyon-Dixence, Thyon", "date": {"dim. 05.08.2012": {"year": 2012, "day": 5, "month": 8, "categories": {"V\u00e9ter 1": {"distance": 16, "rank": 74, "pace": 544000000000, "time": 8905.9}}, "weekday": "sunday", "livingplace": "Aigle"}}, "location": "Thyon-Les Collons"}, "Tour du Pays de Vaud #4 - La Sarraz": {"latitude": 46.7088129, "longitude": 6.5707689, "race": "Tour du Pays de Vaud #4 - La Sarraz", "date": {"mer. 29.08.2012": {"year": 2012, "day": 29, "month": 8, "categories": {"H-Sen2": {"distance": 9, "rank": 140, "pace": 315000000000, "time": 2685.2}}, "weekday": "wednesday", "livingplace": "Aigle"}}, "location": "Chavornay"}, "Tour du Chablais #2 Bex": {"latitude": 46.3835529, "longitude": 6.854975199999999, "race": "Tour du Chablais #2 Bex", "date": {"mer. 18.04.2012": {"year": 2012, "day": 18, "month": 4, "categories": {"M-M40": {"distance": 8, "rank": 133, "pace": 318000000000, "time": 2544.5}}, "weekday": "wednesday", "livingplace": "Aigle"}}, "location": "Bouveret"}, "Tour du Chablais #6 Montreux": {"latitude": 46.3190253, "longitude": 6.970566, "race": "Tour du Chablais #6 Montreux", "date": {"mer. 16.05.2012": {"year": 2012, "day": 16, "month": 5, "categories": {"M-M40": {"distance": 9, "rank": 135, "pace": 297000000000, "time": 2753.8}}, "weekday": "wednesday", "livingplace": "Aigle"}}, "location": "Aigle"}}, "birth": 1968}