{"name": "Berchtold Pamela", "sex": "F", "races": {"Pfingstlauf Wohlen AG": {"latitude": 47.3493653, "longitude": 8.2768762, "race": "Pfingstlauf Wohlen AG", "date": {"sam. 18.05.2002": {"year": 2002, "day": 18, "month": 5, "categories": {"13": {"distance": 8, "rank": 17, "pace": 332000000000, "time": 2726.6}}, "weekday": "saturday", "livingplace": "Zurich"}}, "location": "Wohlen AG"}, "Schweizer Frauenlauf Bern": {"latitude": 46.9479739, "longitude": 7.4474468, "race": "Schweizer Frauenlauf Bern", "date": {"dim. 13.06.2004": {"year": 2004, "day": 13, "month": 6, "categories": {"W30": {"distance": 5, "rank": 572, "pace": 336000000000, "time": 1682.6}}, "weekday": "sunday", "livingplace": "Zuerich"}}, "location": "Bern"}, "Morat-Fribourg": {"latitude": 46.92922110000001, "longitude": 7.120184, "race": "Morat-Fribourg", "date": {"dim. 05.10.2003": {"year": 2003, "day": 5, "month": 10, "categories": {"W20": {"distance": 17, "rank": 320, "pace": 387000000000, "time": 6647.5}}, "weekday": "sunday", "livingplace": "Zurich"}}, "location": "Murten"}, "Winterthur Marathon": {"latitude": 39.8088766, "longitude": -75.6037351, "race": "Winterthur Marathon", "date": {"dim. 26.05.2002": {"year": 2002, "day": 26, "month": 5, "categories": {"HW20": {"distance": 21, "rank": 53, "pace": 344000000000, "time": 7235.8}}, "weekday": "sunday", "livingplace": "Zuerich"}, "dim. 25.05.2003": {"year": 2003, "day": 25, "month": 5, "categories": {"HW23": {"distance": 21, "rank": 74, "pace": 370000000000, "time": 7789.2}}, "weekday": "sunday", "livingplace": "Zuerich"}}, "location": "Winterthur"}, "Int Greifenseelauf, Uster": {"latitude": 47.3482747, "longitude": 8.717873899999999, "race": "Int Greifenseelauf, Uster", "date": {"sam. 20.09.2003": {"year": 2003, "day": 20, "month": 9, "categories": {"H/W30": {"distance": 21, "rank": 322, "pace": 410000000000, "time": 8669.3}}, "weekday": "saturday", "livingplace": "Zurich"}}, "location": "Uster"}}, "birth": 1973}