{"name": "Berger Fabien", "sex": "M", "races": {"Tour du Pays de Vaud #4, La Sarraz": {"latitude": 46.7088129, "longitude": 6.5707689, "race": "Tour du Pays de Vaud #4, La Sarraz", "date": {"mer. 03.09.2014": {"year": 2014, "day": 3, "month": 9, "categories": {"H-Sen1": {"distance": 9, "rank": 112, "pace": 310000000000, "time": 2637.6}}, "weekday": "wednesday", "livingplace": "Bofflens"}}, "location": "Chavornay"}, "20km de Lausanne": {"latitude": 46.5196535, "longitude": 6.6322734, "race": "20km de Lausanne", "date": {"sam. 25.04.2009": {"year": 2009, "day": 25, "month": 4, "categories": {"10-H30": {"distance": 10, "rank": 268, "pace": 290000000000, "time": 2909.8}}, "weekday": "saturday", "livingplace": "Bofflens"}}, "location": "Lausanne"}, "Morat-Fribourg": {"latitude": 46.92922110000001, "longitude": 7.120184, "race": "Morat-Fribourg", "date": {"sam. 03.10.2009": {"year": 2009, "day": 3, "month": 10, "categories": {"C-M20": {"distance": 17, "rank": 1207, "pace": 313000000000, "time": 5387.5}}, "weekday": "saturday", "livingplace": "Bofflens"}, "sam. 06.10.2007": {"year": 2007, "day": 6, "month": 10, "categories": {"C/M20": {"distance": 17, "rank": 1226, "pace": 317000000000, "time": 5450.2}}, "weekday": "saturday", "livingplace": "Bofflens"}}, "location": "Murten"}, "Les Traine-Savates, Cheseaux-sur-Lausanne": {"latitude": 46.585452, "longitude": 6.6047712, "race": "Les Traine-Savates, Cheseaux-sur-Lausanne", "date": {"sam. 04.04.2009": {"year": 2009, "day": 4, "month": 4, "categories": {"Hom Sen": {"distance": 10, "rank": 184, "pace": 309000000000, "time": 3216.9}}, "weekday": "saturday", "livingplace": "Bofflens"}}, "location": "Cheseaux-sur-Lausanne"}, "Tour du Pays de Vaud #3 - Chavornay": {"latitude": 46.7784736, "longitude": 6.641183, "race": "Tour du Pays de Vaud #3 - Chavornay", "date": {"mer. 28.08.2013": {"year": 2013, "day": 28, "month": 8, "categories": {"H-Sen1": {"distance": 9, "rank": 127, "pace": 317000000000, "time": 2821.9}}, "weekday": "wednesday", "livingplace": "Bofflens"}}, "location": "Yverdon-les-Bains"}}, "birth": 1979}