{"name": "B\u00e9rion Roger", "sex": "M", "races": {"Tour du Pays de Vaud printanier #2 Yverdon-les-Bains": {"latitude": 46.6698891, "longitude": 6.7975224, "race": "Tour du Pays de Vaud printanier #2 Yverdon-les-Bains", "date": {"mer. 05.06.2013": {"year": 2013, "day": 5, "month": 6, "categories": {"H-Sen3": {"distance": 9, "rank": 7, "pace": 266000000000, "time": 2428.9}}, "weekday": "wednesday", "livingplace": "Frasne"}}, "location": "Moudon"}, "Tour du pays de Vaud #6 - St  Prex": {"latitude": 46.4829113, "longitude": 6.458343500000001, "race": "Tour du pays de Vaud #6 - St  Prex", "date": {"mer. 14.09.2011": {"year": 2011, "day": 14, "month": 9, "categories": {"H-Sen3": {"distance": 9, "rank": 17, "pace": 257000000000, "time": 2214.1}}, "weekday": "wednesday", "livingplace": "Frasne"}}, "location": "St-Prex"}, "Tour du Pays de Vaud printanier #1 Chavornay": {"latitude": 46.3832683, "longitude": 6.2347852, "race": "Tour du Pays de Vaud printanier #1 Chavornay", "date": {"mer. 30.05.2012": {"year": 2012, "day": 30, "month": 5, "categories": {"H-Sen3": {"distance": 9, "rank": 10, "pace": 269000000000, "time": 2407.8}}, "weekday": "wednesday", "livingplace": "Frasne"}}, "location": "Nyon"}, "Tour du pays de Vaud #1 - Mezi\u00e8res": {"latitude": 46.7784736, "longitude": 6.641183, "race": "Tour du pays de Vaud #1 - Mezi\u00e8res", "date": {"mer. 10.08.2011": {"year": 2011, "day": 10, "month": 8, "categories": {"H-Sen3": {"distance": 9, "rank": 13, "pace": 260000000000, "time": 2210.6}}, "weekday": "wednesday", "livingplace": "Frasne"}}, "location": "Yverdon-les-Bains"}, "Tour du Pays de Vaud #3 - Mezi\u00e8res": {"latitude": 46.7784736, "longitude": 6.641183, "race": "Tour du Pays de Vaud #3 - Mezi\u00e8res", "date": {"mer. 22.08.2012": {"year": 2012, "day": 22, "month": 8, "categories": {"H-Sen3": {"distance": 8, "rank": 20, "pace": 282000000000, "time": 2375.1}}, "weekday": "wednesday", "livingplace": "Frasne"}}, "location": "Yverdon-les-Bains"}, "Tour du Pays de Vaud #3, Chavornay": {"latitude": 46.7784736, "longitude": 6.641183, "race": "Tour du Pays de Vaud #3, Chavornay", "date": {"mer. 27.08.2014": {"year": 2014, "day": 27, "month": 8, "categories": {"H-Sen3": {"distance": 9, "rank": 5, "pace": 253000000000, "time": 2184.2}}, "weekday": "wednesday", "livingplace": "Frasne"}}, "location": "Yverdon-les-Bains"}, "Tour du Pays de Vaud #2 - Genolier": {"latitude": 46.5955273, "longitude": 6.7702883, "race": "Tour du Pays de Vaud #2 - Genolier", "date": {"mer. 15.08.2012": {"year": 2012, "day": 15, "month": 8, "categories": {"H-Sen3": {"distance": 9, "rank": 31, "pace": 273000000000, "time": 2323.5}}, "weekday": "wednesday", "livingplace": "Frasne"}, "mer. 17.08.2011": {"year": 2011, "day": 17, "month": 8, "categories": {"H-Sen3": {"distance": 9, "rank": 13, "pace": 263000000000, "time": 2237.7}}, "weekday": "wednesday", "livingplace": "Frasne"}}, "location": "M\u00e9zi\u00e8res VD"}, "Tour du Pays de Vaud #4, La Sarraz": {"latitude": 46.7088129, "longitude": 6.5707689, "race": "Tour du Pays de Vaud #4, La Sarraz", "date": {"mer. 03.09.2014": {"year": 2014, "day": 3, "month": 9, "categories": {"H-Sen3": {"distance": 9, "rank": 6, "pace": 247000000000, "time": 2100.2}}, "weekday": "wednesday", "livingplace": "Frasne"}}, "location": "Chavornay"}, "Tour du Pays de Vaud printanier #3 - Yens": {"latitude": 46.7829756, "longitude": 6.5728678, "race": "Tour du Pays de Vaud printanier #3 - Yens", "date": {"mer. 12.06.2013": {"year": 2013, "day": 12, "month": 6, "categories": {"H-Sen3": {"distance": 9, "rank": 6, "pace": 258000000000, "time": 2348.2}}, "weekday": "wednesday", "livingplace": "Frasne"}}, "location": "Champvent"}, "Tour du Pays de Vaud #2, Mezi\u00e8res": {"latitude": 46.5955273, "longitude": 6.7702883, "race": "Tour du Pays de Vaud #2, Mezi\u00e8res", "date": {"mer. 20.08.2014": {"year": 2014, "day": 20, "month": 8, "categories": {"H-Sen3": {"distance": 8, "rank": 8, "pace": 271000000000, "time": 2198.0}}, "weekday": "wednesday", "livingplace": "Frasne"}}, "location": "M\u00e9zi\u00e8res VD"}, "Tour du Pays de Vaud printanier #1 Moudon": {"latitude": 46.3832683, "longitude": 6.2347852, "race": "Tour du Pays de Vaud printanier #1 Moudon", "date": {"mer. 29.05.2013": {"year": 2013, "day": 29, "month": 5, "categories": {"H-Sen3": {"distance": 8, "rank": 7, "pace": 255000000000, "time": 2188.7}}, "weekday": "wednesday", "livingplace": "Frasne"}}, "location": "Nyon"}, "Tour du pays de Vaud #5 - Penthaz": {"latitude": 46.5993131, "longitude": 6.539251200000001, "race": "Tour du pays de Vaud #5 - Penthaz", "date": {"mer. 07.09.2011": {"year": 2011, "day": 7, "month": 9, "categories": {"H-Sen3": {"distance": 8, "rank": 14, "pace": 288000000000, "time": 2411.0}}, "weekday": "wednesday", "livingplace": "Frasne"}}, "location": "Penthaz"}, "Tour du Pays de Vaud #4 - La Sarraz": {"latitude": 46.7088129, "longitude": 6.5707689, "race": "Tour du Pays de Vaud #4 - La Sarraz", "date": {"mer. 29.08.2012": {"year": 2012, "day": 29, "month": 8, "categories": {"H-Sen3": {"distance": 9, "rank": 17, "pace": 252000000000, "time": 2148.5}}, "weekday": "wednesday", "livingplace": "Frasne"}}, "location": "Chavornay"}, "Tour du Pays de Vaud printanier #2 Yens": {"latitude": 46.6698891, "longitude": 6.7975224, "race": "Tour du Pays de Vaud printanier #2 Yens", "date": {"mer. 06.06.2012": {"year": 2012, "day": 6, "month": 6, "categories": {"H-Sen3": {"distance": 9, "rank": 10, "pace": 269000000000, "time": 2452.3}}, "weekday": "wednesday", "livingplace": "Frasne"}}, "location": "Moudon"}}, "birth": 1958}