{"name": "Berman Alexander", "sex": "M", "races": {"crossrun, Therwil": {"latitude": 47.4990611, "longitude": 7.5532808, "race": "crossrun, Therwil", "date": {"dim. 01.09.2013": {"year": 2013, "day": 1, "month": 9, "categories": {"M20": {"distance": 10, "rank": 2, "pace": 225000000000, "time": 2255.7}}, "weekday": "sunday", "livingplace": "Reinach"}, "dim. 31.08.2014": {"year": 2014, "day": 31, "month": 8, "categories": {"M20": {"distance": 10, "rank": 3, "pace": 218000000000, "time": 2181.8}}, "weekday": "sunday", "livingplace": "Gempen"}}, "location": "Therwil"}, "Eiger Ultra Trail, Grindelwald": {"latitude": 46.624164, "longitude": 8.0413962, "race": "Eiger Ultra Trail, Grindelwald", "date": {"sam. 19.07.2014": {"year": 2014, "day": 19, "month": 7, "categories": {"C-H": {"distance": 16, "rank": 3, "pace": 332000000000, "time": 5320.9}}, "weekday": "saturday", "livingplace": "Gempen"}}, "location": "Grindelwald"}, "IWB Basel Marathon": {"latitude": 47.5595986, "longitude": 7.5885761, "race": "IWB Basel Marathon", "date": {"dim. 28.09.2014": {"year": 2014, "day": 28, "month": 9, "categories": {"10-M20": {"distance": 10, "rank": 1, "pace": 209000000000, "time": 2098.0}}, "weekday": "sunday", "livingplace": "Gempen"}}, "location": "Basel"}, "Basler Stadtlauf": {"latitude": 47.5595986, "longitude": 7.5885761, "race": "Basler Stadtlauf", "date": {"sam. 29.11.2014": {"year": 2014, "day": 29, "month": 11, "categories": {"M20": {"distance": 6, "rank": 19, "pace": 197000000000, "time": 1084.7}}, "weekday": "saturday", "livingplace": "Gempen"}}, "location": "Basel"}, "Int  Bieler Cross, Biel-Bienne": {"latitude": 47.1367785, "longitude": 7.2467909, "race": "Int  Bieler Cross, Biel-Bienne", "date": {"dim. 10.11.2013": {"year": 2013, "day": 10, "month": 11, "categories": {"M23": {"distance": 8, "rank": 8, "pace": 210000000000, "time": 1681.6}}, "weekday": "sunday", "livingplace": "Reinach"}}, "location": "Biel/Bienne"}, "Sierre-Zinal, Sierre": {"latitude": 46.29413110000001, "longitude": 7.533536199999999, "race": "Sierre-Zinal, Sierre", "date": {"dim. 10.08.2014": {"year": 2014, "day": 10, "month": 8, "categories": {"ElitesHo": {"distance": 31, "rank": 269, "pace": 473000000000, "time": 14691.3}}, "weekday": "sunday", "livingplace": "Reinach"}}, "location": "Sierre"}, "Gempenlauf, Dornach": {"latitude": 47.4790491, "longitude": 7.6170412, "race": "Gempenlauf, Dornach", "date": {"mer. 04.06.2014": {"year": 2014, "day": 4, "month": 6, "categories": {"M20": {"distance": 8, "rank": 14, "pace": 256000000000, "time": 2001.0}}, "weekday": "wednesday", "livingplace": "Gempen"}}, "location": "Dornach"}}, "birth": 1992}