{"name": "Berney Martial", "sex": "M", "races": {"Tour du Pays de Vaud #2 - Genolier": {"latitude": 46.5955273, "longitude": 6.7702883, "race": "Tour du Pays de Vaud #2 - Genolier", "date": {"mer. 15.08.2012": {"year": 2012, "day": 15, "month": 8, "categories": {"H-Sen2": {"distance": 9, "rank": 19, "pace": 238000000000, "time": 2026.1}}, "weekday": "wednesday", "livingplace": "Le Solliat"}, "mer. 17.08.2011": {"year": 2011, "day": 17, "month": 8, "categories": {"H-Sen1": {"distance": 9, "rank": 18, "pace": 246000000000, "time": 2096.2}}, "weekday": "wednesday", "livingplace": "Le Solliat"}}, "location": "M\u00e9zi\u00e8res VD"}, "Tour du pays de Vaud #6 - St  Prex": {"latitude": 46.4829113, "longitude": 6.458343500000001, "race": "Tour du pays de Vaud #6 - St  Prex", "date": {"mer. 14.09.2011": {"year": 2011, "day": 14, "month": 9, "categories": {"H-Sen1": {"distance": 9, "rank": 24, "pace": 239000000000, "time": 2063.6}}, "weekday": "wednesday", "livingplace": "Le Solliat"}}, "location": "St-Prex"}, "Tour du pays de Vaud #1 - Mezi\u00e8res": {"latitude": 46.7784736, "longitude": 6.641183, "race": "Tour du pays de Vaud #1 - Mezi\u00e8res", "date": {"mer. 10.08.2011": {"year": 2011, "day": 10, "month": 8, "categories": {"H-Sen1": {"distance": 9, "rank": 23, "pace": 244000000000, "time": 2075.0}}, "weekday": "wednesday", "livingplace": "Le Solliat"}}, "location": "Yverdon-les-Bains"}, "Tour du Pays de Vaud #3 - Mezi\u00e8res": {"latitude": 46.7784736, "longitude": 6.641183, "race": "Tour du Pays de Vaud #3 - Mezi\u00e8res", "date": {"mer. 22.08.2012": {"year": 2012, "day": 22, "month": 8, "categories": {"H-Sen2": {"distance": 8, "rank": 17, "pace": 255000000000, "time": 2143.2}}, "weekday": "wednesday", "livingplace": "Le Solliat"}}, "location": "Yverdon-les-Bains"}, "Course de l'Escalade, Gen\u00e8ve": {"latitude": 46.2043907, "longitude": 6.1431577, "race": "Course de l'Escalade, Gen\u00e8ve", "date": {"sam. 06.12.2003": {"year": 2003, "day": 6, "month": 12, "categories": {"HElite": {"distance": 7, "rank": 217, "pace": 223000000000, "time": 1622.6}}, "weekday": "saturday", "livingplace": "Le Solliat"}, "sam. 07.12.2002": {"year": 2002, "day": 7, "month": 12, "categories": {"HElite": {"distance": 7, "rank": 159, "pace": 220000000000, "time": 1598.4}}, "weekday": "saturday", "livingplace": "Le Solliat"}, "sam. 03.12.2005": {"year": 2005, "day": 3, "month": 12, "categories": {"HElite": {"distance": 7, "rank": 210, "pace": 227000000000, "time": 1646.3}}, "weekday": "saturday", "livingplace": "Le Solliat"}}, "location": "Gen\u00e8ve"}, "Tour du pays de Vaud #1 - Penthaz": {"latitude": 46.5993131, "longitude": 6.539251200000001, "race": "Tour du pays de Vaud #1 - Penthaz", "date": {"mer. 08.08.2012": {"year": 2012, "day": 8, "month": 8, "categories": {"H-Sen2": {"distance": 9, "rank": 23, "pace": 247000000000, "time": 2108.2}}, "weekday": "wednesday", "livingplace": "Le Solliat"}}, "location": "Penthaz"}, "Morat-Fribourg": {"latitude": 46.92922110000001, "longitude": 7.120184, "race": "Morat-Fribourg", "date": {"sam. 03.10.2015": {"year": 2015, "day": 3, "month": 10, "categories": {"17-M40": {"distance": 17, "rank": 57, "pace": 254000000000, "time": 4373.2}}, "weekday": "saturday", "livingplace": "Le Solliat"}}, "location": "Murten"}}, "birth": 1972}