{"name": "Berset Beno\u00eet", "sex": "M", "races": {"SwissCityMarathon - Lucerne, Luzern": {"latitude": 47.05016819999999, "longitude": 8.3093072, "race": "SwissCityMarathon - Lucerne, Luzern", "date": {"dim. 26.10.2014": {"year": 2014, "day": 26, "month": 10, "categories": {"M-M30": {"distance": 42, "rank": 332, "pace": 404000000000, "time": 17052.2}}, "weekday": "sunday", "livingplace": "Cournillens"}}, "location": "Luzern"}, "Course de l'Avent, Fribourg": {"latitude": 46.8064773, "longitude": 7.161971899999999, "race": "Course de l'Avent, Fribourg", "date": {"dim. 23.11.2014": {"year": 2014, "day": 23, "month": 11, "categories": {"P-H30": {"distance": 6, "rank": 14, "pace": 275000000000, "time": 1738.7}}, "weekday": "sunday", "livingplace": "Cournillens"}}, "location": "Fribourg"}, "Morat-Fribourg": {"latitude": 46.92922110000001, "longitude": 7.120184, "race": "Morat-Fribourg", "date": {"sam. 04.10.2008": {"year": 2008, "day": 4, "month": 10, "categories": {"C-M20": {"distance": 17, "rank": 44, "pace": 230000000000, "time": 3956.1}}, "weekday": "saturday", "livingplace": "CA Belfaux"}}, "location": "Murten"}, "Kerzerslauf": {"latitude": 46.97488999999999, "longitude": 7.1954365, "race": "Kerzerslauf", "date": {"sam. 17.03.2012": {"year": 2012, "day": 17, "month": 3, "categories": {"15-M35": {"distance": 15, "rank": 192, "pace": 285000000000, "time": 4278.2}}, "weekday": "saturday", "livingplace": "Courtepin"}, "sam. 15.03.2008": {"year": 2008, "day": 15, "month": 3, "categories": {"15/M20": {"distance": 15, "rank": 69, "pace": 228000000000, "time": 3431.7}}, "weekday": "saturday", "livingplace": "Cournillens"}, "sam. 17.03.2007": {"year": 2007, "day": 17, "month": 3, "categories": {"M20": {"distance": 15, "rank": 91, "pace": 229000000000, "time": 3448.1}}, "weekday": "saturday", "livingplace": "Courtepin"}}, "location": "Kerzers"}, "Z\u00fcrich Marathon, Teamrun und Cityrun": {"latitude": 47.3768866, "longitude": 8.541694, "race": "Z\u00fcrich Marathon, Teamrun und Cityrun", "date": {"dim. 01.04.2007": {"year": 2007, "day": 1, "month": 4, "categories": {"M30": {"distance": 42, "rank": 169, "pace": 261000000000, "time": 11030.9}}, "weekday": "sunday", "livingplace": "Courtepin"}, "dim. 09.04.2006": {"year": 2006, "day": 9, "month": 4, "categories": {"M30": {"distance": 42, "rank": 1373, "pace": 419000000000, "time": 17708.9}}, "weekday": "sunday", "livingplace": "Courtepin"}}, "location": "Z\u00fcrich"}}, "birth": 1975}