{"name": "Berset Fr\u00e9d\u00e9ric", "sex": "M", "races": {"Morat-Fribourg": {"latitude": 46.92922110000001, "longitude": 7.120184, "race": "Morat-Fribourg", "date": {"sam. 06.10.2012": {"year": 2012, "day": 6, "month": 10, "categories": {"17-M20": {"distance": 17, "rank": 999, "pace": 301000000000, "time": 5264.2}}, "weekday": "saturday", "livingplace": "Ecuvillens"}}, "location": "Murten"}, "Corrida Bulloise, Bulle": {"latitude": 46.6154512, "longitude": 7.057726799999999, "race": "Corrida Bulloise, Bulle", "date": {"sam. 17.11.2012": {"year": 2012, "day": 17, "month": 11, "categories": {"PopHomm": {"distance": 6, "rank": 232, "pace": 277000000000, "time": 1704.8}}, "weekday": "saturday", "livingplace": "Ecuvillens"}}, "location": "Bulle"}, "Groupe E Tour Fribourg #5 Fribourg": {"latitude": 46.8128615, "longitude": 7.131657799999999, "race": "Groupe E Tour Fribourg #5 Fribourg", "date": {"mer. 26.09.2012": {"year": 2012, "day": 26, "month": 9, "categories": {"HS1": {"distance": 11, "rank": 54, "pace": 301000000000, "time": 3228.2}}, "weekday": "wednesday", "livingplace": "Ecuvillens"}}, "location": "Givisiez"}, "Groupe E Tour Fribourg #3 Estavayer-le-Lac": {"latitude": 46.97488999999999, "longitude": 7.1954365, "race": "Groupe E Tour Fribourg #3 Estavayer-le-Lac", "date": {"mer. 12.09.2012": {"year": 2012, "day": 12, "month": 9, "categories": {"HS1": {"distance": 10, "rank": 50, "pace": 274000000000, "time": 2709.6}}, "weekday": "wednesday", "livingplace": "Ecuvillens"}}, "location": "Kerzers"}, "Sempacherseelauf, Sursee": {"latitude": NaN, "longitude": NaN, "race": "Sempacherseelauf, Sursee", "date": {"sam. 23.05.2015": {"year": 2015, "day": 23, "month": 5, "categories": {"21M30": {"distance": 21, "rank": 101, "pace": 286000000000, "time": 6044.8}}, "weekday": "saturday", "livingplace": "Ecuvillens"}}, "location": "Sursee"}, "Groupe E Tour Fribourg #2 Plafayon": {"latitude": 46.6175845, "longitude": 7.1654493, "race": "Groupe E Tour Fribourg #2 Plafayon", "date": {"mer. 05.09.2012": {"year": 2012, "day": 5, "month": 9, "categories": {"HS1": {"distance": 9, "rank": 51, "pace": 288000000000, "time": 2702.1}}, "weekday": "wednesday", "livingplace": "Ecuvillens"}}, "location": "Charmey (Gruy\u00e8re)"}, "Groupe E Tour Fribourg #4 Siviriez": {"latitude": 46.6585092, "longitude": 6.877722, "race": "Groupe E Tour Fribourg #4 Siviriez", "date": {"mer. 19.09.2012": {"year": 2012, "day": 19, "month": 9, "categories": {"HS1": {"distance": 9, "rank": 45, "pace": 303000000000, "time": 2857.2}}, "weekday": "wednesday", "livingplace": "Ecuvillens"}}, "location": "Siviriez"}}, "birth": 1981}