{"name": "Besancet C\u00e9line", "sex": "F", "races": {"Tour du Pays de Vaud #1, Penthaz": {"latitude": 46.5993131, "longitude": 6.539251200000001, "race": "Tour du Pays de Vaud #1, Penthaz", "date": {"mer. 13.08.2014": {"year": 2014, "day": 13, "month": 8, "categories": {"D-Sen2": {"distance": 9, "rank": 30, "pace": 342000000000, "time": 2925.0}}, "weekday": "wednesday", "livingplace": "Grandson"}}, "location": "Penthaz"}, "Zermatt Marathon, Zermatt": {"latitude": NaN, "longitude": NaN, "race": "Zermatt Marathon, Zermatt", "date": {"sam. 05.07.2014": {"year": 2014, "day": 5, "month": 7, "categories": {"M-F40": {"distance": 42, "rank": 25, "pace": 576000000000, "time": 24334.9}}, "weekday": "saturday", "livingplace": "Grandson"}}, "location": "Zermatt"}, "Morat-Fribourg": {"latitude": 46.92922110000001, "longitude": 7.120184, "race": "Morat-Fribourg", "date": {"sam. 04.10.2008": {"year": 2008, "day": 4, "month": 10, "categories": {"C-W35": {"distance": 17, "rank": 234, "pace": 399000000000, "time": 6867.2}}, "weekday": "saturday", "livingplace": "Ependes"}}, "location": "Murten"}, "Course de l'Avent, Yverdon": {"latitude": 46.8064773, "longitude": 7.161971899999999, "race": "Course de l'Avent, Yverdon", "date": {"dim. 28.11.2010": {"year": 2010, "day": 28, "month": 11, "categories": {"P-F43": {"distance": 6, "rank": 8, "pace": 320000000000, "time": 1972.5}}, "weekday": "sunday", "livingplace": "Grandson"}}, "location": "Fribourg"}, "Tour du Pays de Vaud #2, Mezi\u00e8res": {"latitude": 46.5955273, "longitude": 6.7702883, "race": "Tour du Pays de Vaud #2, Mezi\u00e8res", "date": {"mer. 20.08.2014": {"year": 2014, "day": 20, "month": 8, "categories": {"D-Sen2": {"distance": 8, "rank": 40, "pace": 388000000000, "time": 3150.8}}, "weekday": "wednesday", "livingplace": "Grandson"}}, "location": "M\u00e9zi\u00e8res VD"}, "SwissCityMarathon - Lucerne, Luzern": {"latitude": 47.05016819999999, "longitude": 8.3093072, "race": "SwissCityMarathon - Lucerne, Luzern", "date": {"dim. 25.10.2015": {"year": 2015, "day": 25, "month": 10, "categories": {"H-W40": {"distance": 21, "rank": 234, "pace": 367000000000, "time": 7758.4}}, "weekday": "sunday", "livingplace": "Grandson"}}, "location": "Luzern"}, "20km de Lausanne": {"latitude": 46.5196535, "longitude": 6.6322734, "race": "20km de Lausanne", "date": {"sam. 30.04.2011": {"year": 2011, "day": 30, "month": 4, "categories": {"10-F30": {"distance": 10, "rank": 255, "pace": 342000000000, "time": 3422.9}}, "weekday": "saturday", "livingplace": "Se bouger pour sa sante 4"}, "sam. 24.04.2010": {"year": 2010, "day": 24, "month": 4, "categories": {"10-F30": {"distance": 10, "rank": 212, "pace": 346000000000, "time": 3466.9}}, "weekday": "saturday", "livingplace": "Ton Hopital se bouge"}, "sam. 25.04.2015": {"year": 2015, "day": 25, "month": 4, "categories": {"10-F40": {"distance": 10, "rank": 262, "pace": 364000000000, "time": 3643.3}}, "weekday": "saturday", "livingplace": "Se bouger pour sa sante 2"}, "sam. 26.04.2014": {"year": 2014, "day": 26, "month": 4, "categories": {"10-F40": {"distance": 10, "rank": 200, "pace": 364000000000, "time": 3646.8}}, "weekday": "saturday", "livingplace": "Se bouger pour sa sante"}}, "location": "Lausanne"}, "Tour du Pays de Vaud #4, La Sarraz": {"latitude": 46.7088129, "longitude": 6.5707689, "race": "Tour du Pays de Vaud #4, La Sarraz", "date": {"mer. 03.09.2014": {"year": 2014, "day": 3, "month": 9, "categories": {"D-Sen2": {"distance": 9, "rank": 42, "pace": 356000000000, "time": 3030.2}}, "weekday": "wednesday", "livingplace": "Grandson"}}, "location": "Chavornay"}, "Tour du Pays de Vaud #3, Chavornay": {"latitude": 46.7784736, "longitude": 6.641183, "race": "Tour du Pays de Vaud #3, Chavornay", "date": {"mer. 27.08.2014": {"year": 2014, "day": 27, "month": 8, "categories": {"D-Sen2": {"distance": 9, "rank": 32, "pace": 365000000000, "time": 3146.7}}, "weekday": "wednesday", "livingplace": "Grandson"}}, "location": "Yverdon-les-Bains"}}, "birth": 1973}