{"name": "Bessot Pascal", "sex": "M", "races": {"BCN Tour #3 Dombresson": {"latitude": 46.999113, "longitude": 6.733554799999999, "race": "BCN Tour #3 Dombresson", "date": {"mer. 08.05.2013": {"year": 2013, "day": 8, "month": 5, "categories": {"HS2": {"distance": 10, "rank": 83, "pace": 270000000000, "time": 2677.2}}, "weekday": "wednesday", "livingplace": "Frambouhans"}}, "location": "Les Ponts-de-Martel"}, "BCN Tour #1 Corcelles": {"latitude": 46.9668714, "longitude": 6.8589727, "race": "BCN Tour #1 Corcelles", "date": {"mer. 24.04.2013": {"year": 2013, "day": 24, "month": 4, "categories": {"HS2": {"distance": 10, "rank": 325, "pace": 385000000000, "time": 3778.1}}, "weekday": "wednesday", "livingplace": "Frambouhans"}}, "location": "Colombier NE"}, "BCN Tour La Chaux-de-Fonds": {"latitude": 46.9262933, "longitude": 6.6324944, "race": "BCN Tour La Chaux-de-Fonds", "date": {"mer. 23.05.2012": {"year": 2012, "day": 23, "month": 5, "categories": {"HS1": {"distance": 11, "rank": 271, "pace": 375000000000, "time": 4054.1}}, "weekday": "wednesday", "livingplace": "Frambouhans"}}, "location": "Couvet"}, "BCN Tour Les Ponts-de-Martel": {"latitude": 46.999113, "longitude": 6.733554799999999, "race": "BCN Tour Les Ponts-de-Martel", "date": {"mer. 09.05.2012": {"year": 2012, "day": 9, "month": 5, "categories": {"HS1": {"distance": 10, "rank": 255, "pace": 380000000000, "time": 3916.4}}, "weekday": "wednesday", "livingplace": "Frambouhans"}}, "location": "Les Ponts-de-Martel"}, "La Trotteuse-Tissot, La Chaux-de-Fonds": {"latitude": 47.1034892, "longitude": 6.832783800000001, "race": "La Trotteuse-Tissot, La Chaux-de-Fonds", "date": {"sam. 17.12.2011": {"year": 2011, "day": 17, "month": 12, "categories": {"GC-H30": {"distance": 8, "rank": 100, "pace": 390000000000, "time": 3120.4}}, "weekday": "saturday", "livingplace": "Frambouhans"}}, "location": "La Chaux-de-Fonds"}, "BCN Tour Neuch\u00e2tel": {"latitude": 46.9899874, "longitude": 6.9292732, "race": "BCN Tour Neuch\u00e2tel", "date": {"mer. 30.05.2012": {"year": 2012, "day": 30, "month": 5, "categories": {"HS1": {"distance": 11, "rank": 244, "pace": 380000000000, "time": 4256.8}}, "weekday": "wednesday", "livingplace": "Frambouhans"}}, "location": "Neuch\u00e2tel"}, "BCN Tour Couvet": {"latitude": 47.0624261, "longitude": 6.9175754, "race": "BCN Tour Couvet", "date": {"mer. 02.05.2012": {"year": 2012, "day": 2, "month": 5, "categories": {"HS1": {"distance": 11, "rank": 72, "pace": 279000000000, "time": 3113.2}}, "weekday": "wednesday", "livingplace": "Frambouhans"}}, "location": "Ch\u00e9zard-St-Martin"}, "BCN Tour Colombier": {"latitude": 47.1034892, "longitude": 6.832783800000001, "race": "BCN Tour Colombier", "date": {"mer. 16.05.2012": {"year": 2012, "day": 16, "month": 5, "categories": {"HS1": {"distance": 11, "rank": 249, "pace": 352000000000, "time": 3806.5}}, "weekday": "wednesday", "livingplace": "Frambouhans"}}, "location": "La Chaux-de-Fonds"}, "BCN Tour #4 Fleurier": {"latitude": 47.1034892, "longitude": 6.832783800000001, "race": "BCN Tour #4 Fleurier", "date": {"mer. 15.05.2013": {"year": 2013, "day": 15, "month": 5, "categories": {"HS2": {"distance": 9, "rank": 287, "pace": 415000000000, "time": 3593.9}}, "weekday": "wednesday", "livingplace": "Frambouhans"}}, "location": "La Chaux-de-Fonds"}, "BCN Tour Cornaux": {"latitude": 46.9668714, "longitude": 6.8589727, "race": "BCN Tour Cornaux", "date": {"mer. 25.04.2012": {"year": 2012, "day": 25, "month": 4, "categories": {"HS1": {"distance": 11, "rank": 228, "pace": 402000000000, "time": 4423.4}}, "weekday": "wednesday", "livingplace": "Frambouhans"}}, "location": "Colombier NE"}}, "birth": 1973}