{"name": "Besson Christine", "sex": "F", "races": {"Tour du Chablais #1 Roche": {"latitude": 46.2957462, "longitude": 6.9916269, "race": "Tour du Chablais #1 Roche", "date": {"mer. 07.04.2010": {"year": 2010, "day": 7, "month": 4, "categories": {"F-F50": {"distance": 9, "rank": 9, "pace": 302000000000, "time": 2707.5}}, "weekday": "wednesday", "livingplace": "Val d'Illiez"}, "mer. 03.04.2013": {"year": 2013, "day": 3, "month": 4, "categories": {"F-F50": {"distance": 9, "rank": 24, "pace": 344000000000, "time": 3051.5}}, "weekday": "wednesday", "livingplace": "Val d'Illiez"}}, "location": "Ollon VD"}, "Tour du Chablais #2 Rennaz": {"latitude": 46.3835529, "longitude": 6.854975199999999, "race": "Tour du Chablais #2 Rennaz", "date": {"mer. 04.05.2011": {"year": 2011, "day": 4, "month": 5, "categories": {"F-F50": {"distance": 9, "rank": 10, "pace": 324000000000, "time": 3037.8}}, "weekday": "wednesday", "livingplace": "Val d'Illiez"}}, "location": "Bouveret"}, "Tour du Chablais #3 Bex": {"latitude": 46.1782231, "longitude": 7.0223787, "race": "Tour du Chablais #3 Bex", "date": {"mer. 21.04.2010": {"year": 2010, "day": 21, "month": 4, "categories": {"F-F50": {"distance": 10, "rank": 9, "pace": 318000000000, "time": 3181.4}}, "weekday": "wednesday", "livingplace": "Val d'Illiez"}}, "location": "Evionnaz"}, "Morat-Fribourg": {"latitude": 46.92922110000001, "longitude": 7.120184, "race": "Morat-Fribourg", "date": {"dim. 05.10.2003": {"year": 2003, "day": 5, "month": 10, "categories": {"W40": {"distance": 17, "rank": 99, "pace": 335000000000, "time": 5761.9}}, "weekday": "sunday", "livingplace": "Val d'Illiez"}, "sam. 06.10.2007": {"year": 2007, "day": 6, "month": 10, "categories": {"C/W45": {"distance": 17, "rank": 89, "pace": 345000000000, "time": 5925.5}}, "weekday": "saturday", "livingplace": "Val d Illiez"}}, "location": "Murten"}, "Tour du Chablais #3 Le Bouveret": {"latitude": 46.1782231, "longitude": 7.0223787, "race": "Tour du Chablais #3 Le Bouveret", "date": {"mer. 11.05.2011": {"year": 2011, "day": 11, "month": 5, "categories": {"F-F50": {"distance": 10, "rank": 9, "pace": 322000000000, "time": 3225.2}}, "weekday": "wednesday", "livingplace": "Val d'Illiez"}}, "location": "Evionnaz"}, "Tour du Chablais #4 Morgins": {"latitude": NaN, "longitude": NaN, "race": "Tour du Chablais #4 Morgins", "date": {"mer. 18.05.2011": {"year": 2011, "day": 18, "month": 5, "categories": {"F-F50": {"distance": 8, "rank": 9, "pace": 347000000000, "time": 2901.9}}, "weekday": "wednesday", "livingplace": "Val d'Illiez"}}, "location": "Les Mosses"}, "Tour du Chablais #1 Lavey": {"latitude": 46.2957462, "longitude": 6.9916269, "race": "Tour du Chablais #1 Lavey", "date": {"mer. 27.04.2011": {"year": 2011, "day": 27, "month": 4, "categories": {"F-F50": {"distance": 9, "rank": 12, "pace": 328000000000, "time": 2960.9}}, "weekday": "wednesday", "livingplace": "Val d'Illiez"}}, "location": "Ollon VD"}, "Tour du Chablais #5 Morgins": {"latitude": 46.3603257, "longitude": 6.931504599999999, "race": "Tour du Chablais #5 Morgins", "date": {"mer. 01.05.2013": {"year": 2013, "day": 1, "month": 5, "categories": {"F-F50": {"distance": 8, "rank": 34, "pace": 378000000000, "time": 2879.2}}, "weekday": "wednesday", "livingplace": "Val d'Illiez"}}, "location": "Roche VD"}, "Tour du Chablais #5 Leysin": {"latitude": 46.3603257, "longitude": 6.931504599999999, "race": "Tour du Chablais #5 Leysin", "date": {"mer. 05.05.2010": {"year": 2010, "day": 5, "month": 5, "categories": {"F-F50": {"distance": 8, "rank": 9, "pace": 339000000000, "time": 2869.3}}, "weekday": "wednesday", "livingplace": "Val d'Illiez"}}, "location": "Roche VD"}, "Tour du Chablais #1 Martigny": {"latitude": 46.2957462, "longitude": 6.9916269, "race": "Tour du Chablais #1 Martigny", "date": {"mer. 23.04.2014": {"year": 2014, "day": 23, "month": 4, "categories": {"F-F50": {"distance": 9, "rank": 18, "pace": 330000000000, "time": 2805.1}}, "weekday": "wednesday", "livingplace": "Val d'Illiez"}}, "location": "Ollon VD"}, "Tour du Chablais #4 Champ\u00e9ry": {"latitude": NaN, "longitude": NaN, "race": "Tour du Chablais #4 Champ\u00e9ry", "date": {"mer. 02.05.2012": {"year": 2012, "day": 2, "month": 5, "categories": {"F-F50": {"distance": 8, "rank": 26, "pace": 351000000000, "time": 2920.6}}, "weekday": "wednesday", "livingplace": "Val d'Illiez"}}, "location": "Les Mosses"}, "Tour du Chablais #5 Les Mosses": {"latitude": 46.3603257, "longitude": 6.931504599999999, "race": "Tour du Chablais #5 Les Mosses", "date": {"mer. 25.05.2011": {"year": 2011, "day": 25, "month": 5, "categories": {"F-F50": {"distance": 8, "rank": 7, "pace": 343000000000, "time": 2747.4}}, "weekday": "wednesday", "livingplace": "Val d'Illiez"}}, "location": "Roche VD"}, "Tour du Chablais #6 Aigle": {"latitude": 46.3190253, "longitude": 6.970566, "race": "Tour du Chablais #6 Aigle", "date": {"mer. 01.06.2011": {"year": 2011, "day": 1, "month": 6, "categories": {"F-F50": {"distance": 10, "rank": 10, "pace": 304000000000, "time": 3105.6}}, "weekday": "wednesday", "livingplace": "Val d'Illiez"}}, "location": "Aigle"}, "Tour du Chablais #4 Yvorne": {"latitude": NaN, "longitude": NaN, "race": "Tour du Chablais #4 Yvorne", "date": {"mer. 28.04.2010": {"year": 2010, "day": 28, "month": 4, "categories": {"F-F50": {"distance": 8, "rank": 9, "pace": 337000000000, "time": 2791.5}}, "weekday": "wednesday", "livingplace": "Val d'Illiez"}}, "location": "Les Mosses"}, "Tour du Chablais #3 Collombey-Muraz": {"latitude": 46.1782231, "longitude": 7.0223787, "race": "Tour du Chablais #3 Collombey-Muraz", "date": {"mer. 25.04.2012": {"year": 2012, "day": 25, "month": 4, "categories": {"F-F50": {"distance": 9, "rank": 22, "pace": 340000000000, "time": 3057.2}}, "weekday": "wednesday", "livingplace": "Val d'Illiez"}}, "location": "Evionnaz"}}, "birth": 1959}