{"name": "Betticher L\u00e9ane", "sex": "F", "races": {"Groupe E Tour Fribourg #4, Siviriez": {"latitude": 46.6585092, "longitude": 6.877722, "race": "Groupe E Tour Fribourg #4, Siviriez", "date": {"mer. 10.09.2014": {"year": 2014, "day": 10, "month": 9, "categories": {"EcolC-F": {"distance": 1, "rank": 2, "pace": 251000000000, "time": 314.6}}, "weekday": "wednesday", "livingplace": "Bourguillon"}}, "location": "Siviriez"}, "Morat-Fribourg": {"latitude": 46.92922110000001, "longitude": 7.120184, "race": "Morat-Fribourg", "date": {"sam. 05.10.2013": {"year": 2013, "day": 5, "month": 10, "categories": {"EcolFD": {"distance": 1, "rank": 1, "pace": 192000000000, "time": 134.7}}, "weekday": "saturday", "livingplace": "Fribourg"}, "sam. 01.10.2011": {"year": 2011, "day": 1, "month": 10, "categories": {"PousF": {"distance": 1, "rank": 1, "pace": 225000000000, "time": 158.0}}, "weekday": "saturday", "livingplace": "Bourguillon"}, "sam. 06.10.2012": {"year": 2012, "day": 6, "month": 10, "categories": {"EcolFD": {"distance": 1, "rank": 6, "pace": 216000000000, "time": 151.8}}, "weekday": "saturday", "livingplace": "Fribourg"}}, "location": "Murten"}, "Groupe E Tour Fribourg #2, Charmey": {"latitude": 46.6175845, "longitude": 7.1654493, "race": "Groupe E Tour Fribourg #2, Charmey", "date": {"mer. 27.08.2014": {"year": 2014, "day": 27, "month": 8, "categories": {"EcolC-F": {"distance": 1, "rank": 2, "pace": 271000000000, "time": 364.0}}, "weekday": "wednesday", "livingplace": "Bourguillon"}}, "location": "Charmey (Gruy\u00e8re)"}, "Corrida Bulloise, Bulle": {"latitude": 46.6154512, "longitude": 7.057726799999999, "race": "Corrida Bulloise, Bulle", "date": {"sam. 19.11.2011": {"year": 2011, "day": 19, "month": 11, "categories": {"FE_SA": {"distance": 1, "rank": 1, "pace": 307000000000, "time": 230.6}}, "weekday": "saturday", "livingplace": "Bourguillon"}}, "location": "Bulle"}, "Groupe E Tour Fribourg #3, Kerzers": {"latitude": 46.97488999999999, "longitude": 7.1954365, "race": "Groupe E Tour Fribourg #3, Kerzers", "date": {"mer. 03.09.2014": {"year": 2014, "day": 3, "month": 9, "categories": {"EcolC-F": {"distance": 1, "rank": 1, "pace": 271000000000, "time": 325.3}}, "weekday": "wednesday", "livingplace": "Bourguillon"}}, "location": "Kerzers"}, "Course de l'Avent, Fribourg": {"latitude": 46.8064773, "longitude": 7.161971899999999, "race": "Course de l'Avent, Fribourg", "date": {"dim. 23.11.2014": {"year": 2014, "day": 23, "month": 11, "categories": {"Pico-F": {"distance": 1, "rank": 1, "pace": 237000000000, "time": 285.1}}, "weekday": "sunday", "livingplace": "Bourguillon"}}, "location": "Fribourg"}, "Groupe E Tour Fribourg #5, Givisiez": {"latitude": 46.8128615, "longitude": 7.131657799999999, "race": "Groupe E Tour Fribourg #5, Givisiez", "date": {"mer. 17.09.2014": {"year": 2014, "day": 17, "month": 9, "categories": {"EcolC-F": {"distance": 2, "rank": 2, "pace": 237000000000, "time": 379.9}}, "weekday": "wednesday", "livingplace": "Bourguillon"}}, "location": "Givisiez"}, "Kerzerslauf": {"latitude": 46.97488999999999, "longitude": 7.1954365, "race": "Kerzerslauf", "date": {"sam. 21.03.2015": {"year": 2015, "day": 21, "month": 3, "categories": {"2-U10F": {"distance": 1, "rank": 6, "pace": 243000000000, "time": 340.5}}, "weekday": "saturday", "livingplace": "Bourguillon"}, "sam. 17.03.2012": {"year": 2012, "day": 17, "month": 3, "categories": {"1-F7": {"distance": 0, "rank": 8, "pace": 226000000000, "time": 67.9}}, "weekday": "saturday", "livingplace": "Bourguillon"}, "sam. 15.03.2014": {"year": 2014, "day": 15, "month": 3, "categories": {"M2-U10F": {"distance": 1, "rank": 4, "pace": 244000000000, "time": 342.8}}, "weekday": "saturday", "livingplace": "Bourguillon"}, "sam. 16.03.2013": {"year": 2013, "day": 16, "month": 3, "categories": {"1-U08F": {"distance": 0, "rank": 2, "pace": 207000000000, "time": 62.1}}, "weekday": "saturday", "livingplace": "Bourguillon"}}, "location": "Kerzers"}, "Groupe E Tour Fribourg #1, Cousset": {"latitude": 46.81832, "longitude": 6.977279999999999, "race": "Groupe E Tour Fribourg #1, Cousset", "date": {"mer. 20.08.2014": {"year": 2014, "day": 20, "month": 8, "categories": {"EcolC-F": {"distance": 1, "rank": 1, "pace": 246000000000, "time": 295.9}}, "weekday": "wednesday", "livingplace": "Bourguillon"}}, "location": "Cousset"}}, "birth": 2006}