{"name": "Bettinelli Florian", "sex": "M", "races": {"BCN Tour M\u00f4tier": {"latitude": 46.9262933, "longitude": 6.6324944, "race": "BCN Tour M\u00f4tier", "date": {"mer. 19.05.2010": {"year": 2010, "day": 19, "month": 5, "categories": {"HS2": {"distance": 10, "rank": 49, "pace": 255000000000, "time": 2528.6}}, "weekday": "wednesday", "livingplace": "Corcelles"}}, "location": "Couvet"}, "D\u00e9fi Val-de-Travers, Couvet": {"latitude": 46.9262933, "longitude": 6.6324944, "race": "D\u00e9fi Val-de-Travers, Couvet", "date": {"sam. 21.06.2008": {"year": 2008, "day": 21, "month": 6, "categories": {"MHS1": {"distance": 41, "rank": 14, "pace": 377000000000, "time": 15561.5}}, "weekday": "saturday", "livingplace": "Corcelles"}, "sam. 20.06.2009": {"year": 2009, "day": 20, "month": 6, "categories": {"MHS1": {"distance": 41, "rank": 9, "pace": 349000000000, "time": 14382.0}}, "weekday": "saturday", "livingplace": "Corcelles"}, "sam. 19.06.2010": {"year": 2010, "day": 19, "month": 6, "categories": {"42-HSen2": {"distance": 41, "rank": 11, "pace": 359000000000, "time": 14828.5}}, "weekday": "saturday", "livingplace": "Corcelles"}}, "location": "Couvet"}, "BCN Tour Ponts-de-Martel": {"latitude": 47.0624261, "longitude": 6.9175754, "race": "BCN Tour Ponts-de-Martel", "date": {"mer. 28.04.2010": {"year": 2010, "day": 28, "month": 4, "categories": {"HS2": {"distance": 11, "rank": 60, "pace": 274000000000, "time": 3076.5}}, "weekday": "wednesday", "livingplace": "Corcelles"}}, "location": "Ch\u00e9zard-St-Martin"}, "BCN Tour Boudry": {"latitude": 46.9668714, "longitude": 6.8589727, "race": "BCN Tour Boudry", "date": {"mer. 26.04.2006": {"year": 2006, "day": 26, "month": 4, "categories": {"HS1": {"distance": 10, "rank": 84, "pace": 284000000000, "time": 2897.0}}, "weekday": "wednesday", "livingplace": "La Chaux de Fonds"}}, "location": "Colombier NE"}, "BCN Tour Le Landeron": {"latitude": 46.9668714, "longitude": 6.8589727, "race": "BCN Tour Le Landeron", "date": {"mer. 22.04.2009": {"year": 2009, "day": 22, "month": 4, "categories": {"HS1": {"distance": 11, "rank": 70, "pace": 275000000000, "time": 3062.2}}, "weekday": "wednesday", "livingplace": "Corcelles"}}, "location": "Colombier NE"}, "BCN Tour La Chaux-de-fonds": {"latitude": 47.1034892, "longitude": 6.832783800000001, "race": "BCN Tour La Chaux-de-fonds", "date": {"mer. 12.05.2010": {"year": 2010, "day": 12, "month": 5, "categories": {"HS2": {"distance": 11, "rank": 65, "pace": 338000000000, "time": 3620.9}}, "weekday": "wednesday", "livingplace": "Corcelles"}}, "location": "La Chaux-de-Fonds"}, "BCN Tour Colombier": {"latitude": 46.9668714, "longitude": 6.8589727, "race": "BCN Tour Colombier", "date": {"mer. 23.04.2008": {"year": 2008, "day": 23, "month": 4, "categories": {"HS1": {"distance": 10, "rank": 66, "pace": 279000000000, "time": 2851.6}}, "weekday": "wednesday", "livingplace": "Corcelles"}, "mer. 21.04.2010": {"year": 2010, "day": 21, "month": 4, "categories": {"HS2": {"distance": 10, "rank": 54, "pace": 288000000000, "time": 2885.6}}, "weekday": "wednesday", "livingplace": "Corcelles"}}, "location": "Colombier NE"}, "BCN Tour Le Locle": {"latitude": 46.999113, "longitude": 6.733554799999999, "race": "BCN Tour Le Locle", "date": {"mer. 05.05.2010": {"year": 2010, "day": 5, "month": 5, "categories": {"HS2": {"distance": 11, "rank": 49, "pace": 265000000000, "time": 2891.8}}, "weekday": "wednesday", "livingplace": "Corcelles"}}, "location": "Les Ponts-de-Martel"}}, "birth": 1970}