{"name": "Beyeler Fr\u00e9d\u00e9ric", "sex": "M", "races": {"Tour du Pays de Vaud etape 5 - La Sarraz": {"latitude": 46.5993131, "longitude": 6.539251200000001, "race": "Tour du Pays de Vaud etape 5 - La Sarraz", "date": {"mer. 10.09.2008": {"year": 2008, "day": 10, "month": 9, "categories": {"HomSen3": {"distance": 9, "rank": 84, "pace": 359000000000, "time": 3092.5}}, "weekday": "wednesday", "livingplace": "Bettens"}}, "location": "Penthaz"}, "Morat-Fribourg": {"latitude": 46.92922110000001, "longitude": 7.120184, "race": "Morat-Fribourg", "date": {"sam. 04.10.2008": {"year": 2008, "day": 4, "month": 10, "categories": {"C-M50": {"distance": 17, "rank": 508, "pace": 383000000000, "time": 6591.5}}, "weekday": "saturday", "livingplace": "Bettens"}, "sam. 06.10.2007": {"year": 2007, "day": 6, "month": 10, "categories": {"C/M50": {"distance": 17, "rank": 425, "pace": 384000000000, "time": 6599.9}}, "weekday": "saturday", "livingplace": "Bettens"}}, "location": "Murten"}, "Tour du Pays de Vaud #2, Mezi\u00e8res": {"latitude": 46.5955273, "longitude": 6.7702883, "race": "Tour du Pays de Vaud #2, Mezi\u00e8res", "date": {"mer. 20.08.2014": {"year": 2014, "day": 20, "month": 8, "categories": {"H-Sen3": {"distance": 8, "rank": 80, "pace": 432000000000, "time": 3499.2}}, "weekday": "wednesday", "livingplace": "Bettens"}}, "location": "M\u00e9zi\u00e8res VD"}, "Tour du pays de Vaud #1 - Mezi\u00e8res": {"latitude": 46.7784736, "longitude": 6.641183, "race": "Tour du pays de Vaud #1 - Mezi\u00e8res", "date": {"mer. 10.08.2011": {"year": 2011, "day": 10, "month": 8, "categories": {"H-Sen3": {"distance": 9, "rank": 97, "pace": 378000000000, "time": 3217.8}}, "weekday": "wednesday", "livingplace": "Bettens"}}, "location": "Yverdon-les-Bains"}, "Tour du Pays de Vaud etape 1 - Le Mont sur Lausanne": {"latitude": 46.7784736, "longitude": 6.641183, "race": "Tour du Pays de Vaud etape 1 - Le Mont sur Lausanne", "date": {"mer. 13.08.2008": {"year": 2008, "day": 13, "month": 8, "categories": {"HomSen3": {"distance": 8, "rank": 77, "pace": 358000000000, "time": 3011.1}}, "weekday": "wednesday", "livingplace": "Bettens"}}, "location": "Yverdon-les-Bains"}, "Tour du pays de Vaud #1 - Penthaz": {"latitude": 46.5993131, "longitude": 6.539251200000001, "race": "Tour du pays de Vaud #1 - Penthaz", "date": {"mer. 14.08.2013": {"year": 2013, "day": 14, "month": 8, "categories": {"H-Sen3": {"distance": 9, "rank": 81, "pace": 388000000000, "time": 3317.7}}, "weekday": "wednesday", "livingplace": "Bettens"}}, "location": "Penthaz"}, "Tour du Pays de Vaud etape 3 - Aubonne": {"latitude": 46.7829756, "longitude": 6.5728678, "race": "Tour du Pays de Vaud etape 3 - Aubonne", "date": {"mer. 27.08.2008": {"year": 2008, "day": 27, "month": 8, "categories": {"HomSen3": {"distance": 8, "rank": 91, "pace": 394000000000, "time": 3074.8}}, "weekday": "wednesday", "livingplace": "Bettens"}}, "location": "Champvent"}, "Tour du Pays de Vaud #3, Chavornay": {"latitude": 46.7784736, "longitude": 6.641183, "race": "Tour du Pays de Vaud #3, Chavornay", "date": {"mer. 27.08.2014": {"year": 2014, "day": 27, "month": 8, "categories": {"H-Sen3": {"distance": 9, "rank": 90, "pace": 424000000000, "time": 3652.5}}, "weekday": "wednesday", "livingplace": "Bettens"}}, "location": "Yverdon-les-Bains"}, "Tour du Pays de Vaud #2 - Genolier": {"latitude": 46.5955273, "longitude": 6.7702883, "race": "Tour du Pays de Vaud #2 - Genolier", "date": {"mer. 17.08.2011": {"year": 2011, "day": 17, "month": 8, "categories": {"H-Sen3": {"distance": 9, "rank": 84, "pace": 404000000000, "time": 3434.0}}, "weekday": "wednesday", "livingplace": "Bettens"}}, "location": "M\u00e9zi\u00e8res VD"}, "Tour du Pays de Vaud #1, Penthaz": {"latitude": 46.5993131, "longitude": 6.539251200000001, "race": "Tour du Pays de Vaud #1, Penthaz", "date": {"mer. 13.08.2014": {"year": 2014, "day": 13, "month": 8, "categories": {"H-Sen3": {"distance": 9, "rank": 70, "pace": 400000000000, "time": 3413.2}}, "weekday": "wednesday", "livingplace": "Bettens"}}, "location": "Penthaz"}, "Tour du Pays de Vaud etape 2 - Genolier": {"latitude": 46.5955273, "longitude": 6.7702883, "race": "Tour du Pays de Vaud etape 2 - Genolier", "date": {"mer. 20.08.2008": {"year": 2008, "day": 20, "month": 8, "categories": {"HomSen3": {"distance": 8, "rank": 90, "pace": 361000000000, "time": 3000.0}}, "weekday": "wednesday", "livingplace": "Bettens"}, "mer. 19.08.2009": {"year": 2009, "day": 19, "month": 8, "categories": {"HSen3": {"distance": 8, "rank": 96, "pace": 394000000000, "time": 3193.7}}, "weekday": "wednesday", "livingplace": "Bettens"}}, "location": "M\u00e9zi\u00e8res VD"}, "Tour du Pays de Vaud #2 - Mezi\u00e8res": {"latitude": 46.5955273, "longitude": 6.7702883, "race": "Tour du Pays de Vaud #2 - Mezi\u00e8res", "date": {"mer. 21.08.2013": {"year": 2013, "day": 21, "month": 8, "categories": {"H-Sen3": {"distance": 8, "rank": 96, "pace": 421000000000, "time": 3413.0}}, "weekday": "wednesday", "livingplace": "Bettens"}}, "location": "M\u00e9zi\u00e8res VD"}, "Tour du pays de Vaud #6 - St  Prex": {"latitude": 46.4829113, "longitude": 6.458343500000001, "race": "Tour du pays de Vaud #6 - St  Prex", "date": {"mer. 14.09.2011": {"year": 2011, "day": 14, "month": 9, "categories": {"H-Sen3": {"distance": 9, "rank": 112, "pace": 360000000000, "time": 3103.8}}, "weekday": "wednesday", "livingplace": "Bettens"}}, "location": "St-Prex"}, "Tour du Pays de Vaud #3 - Chavornay": {"latitude": 46.7784736, "longitude": 6.641183, "race": "Tour du Pays de Vaud #3 - Chavornay", "date": {"mer. 28.08.2013": {"year": 2013, "day": 28, "month": 8, "categories": {"H-Sen3": {"distance": 9, "rank": 109, "pace": 379000000000, "time": 3379.8}}, "weekday": "wednesday", "livingplace": "Bettens"}}, "location": "Yverdon-les-Bains"}}, "birth": 1955}