{"name": "Bidaud Christian", "sex": "M", "races": {"Tour du Chablais #1 Roche": {"latitude": 46.2957462, "longitude": 6.9916269, "race": "Tour du Chablais #1 Roche", "date": {"mer. 07.04.2010": {"year": 2010, "day": 7, "month": 4, "categories": {"M-M50": {"distance": 9, "rank": 48, "pace": 295000000000, "time": 2643.8}}, "weekday": "wednesday", "livingplace": "Vouvry"}}, "location": "Ollon VD"}, "Tour du Chablais #2 Rennaz": {"latitude": 46.3835529, "longitude": 6.854975199999999, "race": "Tour du Chablais #2 Rennaz", "date": {"mer. 04.05.2011": {"year": 2011, "day": 4, "month": 5, "categories": {"M-M50": {"distance": 9, "rank": 65, "pace": 297000000000, "time": 2782.8}}, "weekday": "wednesday", "livingplace": "Vouvry"}}, "location": "Bouveret"}, "Morat-Fribourg": {"latitude": 46.92922110000001, "longitude": 7.120184, "race": "Morat-Fribourg", "date": {"sam. 06.10.2012": {"year": 2012, "day": 6, "month": 10, "categories": {"17-M55": {"distance": 17, "rank": 140, "pace": 323000000000, "time": 5649.9}}, "weekday": "saturday", "livingplace": "Vouvry"}, "sam. 03.10.2015": {"year": 2015, "day": 3, "month": 10, "categories": {"8-JoggM": {"distance": 9, "rank": 292, "pace": 416000000000, "time": 3615.6}}, "weekday": "saturday", "livingplace": "Vouvry"}, "sam. 02.10.2010": {"year": 2010, "day": 2, "month": 10, "categories": {"17-M50": {"distance": 17, "rank": 357, "pace": 344000000000, "time": 5909.0}}, "weekday": "saturday", "livingplace": "Vouvry"}, "sam. 05.10.2013": {"year": 2013, "day": 5, "month": 10, "categories": {"17-M55": {"distance": 17, "rank": 157, "pace": 322000000000, "time": 5624.8}}, "weekday": "saturday", "livingplace": "Vouvry"}, "sam. 03.10.2009": {"year": 2009, "day": 3, "month": 10, "categories": {"C-M50": {"distance": 17, "rank": 201, "pace": 309000000000, "time": 5322.5}}, "weekday": "saturday", "livingplace": "Vouvry"}, "sam. 01.10.2011": {"year": 2011, "day": 1, "month": 10, "categories": {"17-M50": {"distance": 17, "rank": 327, "pace": 334000000000, "time": 5748.3}}, "weekday": "saturday", "livingplace": "Vouvry"}, "sam. 04.10.2008": {"year": 2008, "day": 4, "month": 10, "categories": {"C-M50": {"distance": 17, "rank": 319, "pace": 324000000000, "time": 5579.0}}, "weekday": "saturday", "livingplace": "Vouvry"}, "sam. 06.10.2007": {"year": 2007, "day": 6, "month": 10, "categories": {"C/M50": {"distance": 17, "rank": 223, "pace": 316000000000, "time": 5432.2}}, "weekday": "saturday", "livingplace": "Vouvry"}}, "location": "Murten"}, "Tour du Chablais #4 St  Maurice": {"latitude": NaN, "longitude": NaN, "race": "Tour du Chablais #4 St  Maurice", "date": {"mer. 24.04.2013": {"year": 2013, "day": 24, "month": 4, "categories": {"M-M50": {"distance": 10, "rank": 51, "pace": 302000000000, "time": 3026.3}}, "weekday": "wednesday", "livingplace": "Vouvry"}}, "location": "Les Mosses"}, "Tour du Chablais #3 Le Bouveret": {"latitude": 46.1782231, "longitude": 7.0223787, "race": "Tour du Chablais #3 Le Bouveret", "date": {"mer. 11.05.2011": {"year": 2011, "day": 11, "month": 5, "categories": {"M-M50": {"distance": 10, "rank": 65, "pace": 302000000000, "time": 3029.4}}, "weekday": "wednesday", "livingplace": "Vouvry"}}, "location": "Evionnaz"}, "Tour du Chablais #6 Monthey": {"latitude": 46.3190253, "longitude": 6.970566, "race": "Tour du Chablais #6 Monthey", "date": {"mer. 08.05.2013": {"year": 2013, "day": 8, "month": 5, "categories": {"M-M50": {"distance": 9, "rank": 56, "pace": 295000000000, "time": 2758.4}}, "weekday": "wednesday", "livingplace": "Vouvry"}}, "location": "Aigle"}, "20km de Lausanne": {"latitude": 46.5196535, "longitude": 6.6322734, "race": "20km de Lausanne", "date": {"sam. 30.04.2011": {"year": 2011, "day": 30, "month": 4, "categories": {"20-H50": {"distance": 20, "rank": 188, "pace": 332000000000, "time": 6656.9}}, "weekday": "saturday", "livingplace": "Vouvry"}, "sam. 25.04.2009": {"year": 2009, "day": 25, "month": 4, "categories": {"20-H50": {"distance": 20, "rank": 95, "pace": 305000000000, "time": 6102.2}}, "weekday": "saturday", "livingplace": "Vouvry"}}, "location": "Lausanne"}, "Tour du Chablais #1 Lavey": {"latitude": 46.2957462, "longitude": 6.9916269, "race": "Tour du Chablais #1 Lavey", "date": {"mer. 27.04.2011": {"year": 2011, "day": 27, "month": 4, "categories": {"M-M50": {"distance": 9, "rank": 57, "pace": 299000000000, "time": 2697.8}}, "weekday": "wednesday", "livingplace": "Vouvry"}}, "location": "Ollon VD"}, "Tour du Chablais #2 Yvorne": {"latitude": 46.3835529, "longitude": 6.854975199999999, "race": "Tour du Chablais #2 Yvorne", "date": {"mer. 10.04.2013": {"year": 2013, "day": 10, "month": 4, "categories": {"M-M50": {"distance": 8, "rank": 48, "pace": 332000000000, "time": 2656.9}}, "weekday": "wednesday", "livingplace": "Vouvry"}}, "location": "Bouveret"}, "Tour du Chablais #5 Leysin": {"latitude": 46.3603257, "longitude": 6.931504599999999, "race": "Tour du Chablais #5 Leysin", "date": {"mer. 05.05.2010": {"year": 2010, "day": 5, "month": 5, "categories": {"M-M50": {"distance": 8, "rank": 46, "pace": 326000000000, "time": 2762.5}}, "weekday": "wednesday", "livingplace": "Vouvry"}}, "location": "Roche VD"}, "Tour du Chablais #1 Martigny": {"latitude": 46.2957462, "longitude": 6.9916269, "race": "Tour du Chablais #1 Martigny", "date": {"mer. 23.04.2014": {"year": 2014, "day": 23, "month": 4, "categories": {"M-M50": {"distance": 9, "rank": 65, "pace": 301000000000, "time": 2561.5}}, "weekday": "wednesday", "livingplace": "Vouvry"}}, "location": "Ollon VD"}, "Tour du Chablais #4 Champ\u00e9ry": {"latitude": NaN, "longitude": NaN, "race": "Tour du Chablais #4 Champ\u00e9ry", "date": {"mer. 02.05.2012": {"year": 2012, "day": 2, "month": 5, "categories": {"M-M50": {"distance": 8, "rank": 54, "pace": 299000000000, "time": 2482.3}}, "weekday": "wednesday", "livingplace": "Vouvry"}}, "location": "Les Mosses"}, "Tour du Chablais #5 Morgins": {"latitude": 46.3603257, "longitude": 6.931504599999999, "race": "Tour du Chablais #5 Morgins", "date": {"mer. 01.05.2013": {"year": 2013, "day": 1, "month": 5, "categories": {"M-M50": {"distance": 8, "rank": 37, "pace": 313000000000, "time": 2380.2}}, "weekday": "wednesday", "livingplace": "Vouvry"}}, "location": "Roche VD"}, "Jungfrau-Marathon, Interlaken": {"latitude": NaN, "longitude": NaN, "race": "Jungfrau-Marathon, Interlaken", "date": {"sam. 05.09.2009": {"year": 2009, "day": 5, "month": 9, "categories": {"M50": {"distance": 42, "rank": 386, "pace": 493000000000, "time": 20810.7}}, "weekday": "saturday", "livingplace": "Vouvry"}}, "location": "Interlaken"}, "Lausanne Marathon": {"latitude": 46.5196535, "longitude": 6.6322734, "race": "Lausanne Marathon", "date": {"dim. 28.10.2012": {"year": 2012, "day": 28, "month": 10, "categories": {"21-H4": {"distance": 21, "rank": 186, "pace": 319000000000, "time": 6741.7}}, "weekday": "sunday", "livingplace": "Vouvry"}}, "location": "Lausanne"}, "Tour du Chablais #6 Aigle": {"latitude": 46.3190253, "longitude": 6.970566, "race": "Tour du Chablais #6 Aigle", "date": {"mer. 01.06.2011": {"year": 2011, "day": 1, "month": 6, "categories": {"M-M50": {"distance": 10, "rank": 55, "pace": 295000000000, "time": 3009.3}}, "weekday": "wednesday", "livingplace": "Vouvry"}}, "location": "Aigle"}, "Tour du Chablais #2 St-Gingolph": {"latitude": 46.3835529, "longitude": 6.854975199999999, "race": "Tour du Chablais #2 St-Gingolph", "date": {"mer. 14.04.2010": {"year": 2010, "day": 14, "month": 4, "categories": {"M-M50": {"distance": 8, "rank": 49, "pace": 323000000000, "time": 2701.9}}, "weekday": "wednesday", "livingplace": "Vouvry"}}, "location": "Bouveret"}, "Kerzerslauf": {"latitude": 46.97488999999999, "longitude": 7.1954365, "race": "Kerzerslauf", "date": {"sam. 20.03.2010": {"year": 2010, "day": 20, "month": 3, "categories": {"15-M50": {"distance": 15, "rank": 296, "pace": 311000000000, "time": 4669.8}}, "weekday": "saturday", "livingplace": "Vouvry"}, "sam. 21.03.2009": {"year": 2009, "day": 21, "month": 3, "categories": {"15-M50": {"distance": 15, "rank": 326, "pace": 317000000000, "time": 4769.9}}, "weekday": "saturday", "livingplace": "Vouvry"}, "sam. 15.03.2008": {"year": 2008, "day": 15, "month": 3, "categories": {"15/M50": {"distance": 15, "rank": 328, "pace": 320000000000, "time": 4800.1}}, "weekday": "saturday", "livingplace": "Vouvry"}}, "location": "Kerzers"}, "Tour du Chablais #3 Collombey-Muraz": {"latitude": 46.1782231, "longitude": 7.0223787, "race": "Tour du Chablais #3 Collombey-Muraz", "date": {"mer. 25.04.2012": {"year": 2012, "day": 25, "month": 4, "categories": {"M-M50": {"distance": 9, "rank": 53, "pace": 297000000000, "time": 2675.8}}, "weekday": "wednesday", "livingplace": "Vouvry"}}, "location": "Evionnaz"}, "Tour du Chablais #3 Bex": {"latitude": 46.1782231, "longitude": 7.0223787, "race": "Tour du Chablais #3 Bex", "date": {"mer. 21.04.2010": {"year": 2010, "day": 21, "month": 4, "categories": {"M-M50": {"distance": 10, "rank": 48, "pace": 299000000000, "time": 2992.0}}, "weekday": "wednesday", "livingplace": "Vouvry"}}, "location": "Evionnaz"}, "Course de l'Escalade, Gen\u00e8ve": {"latitude": 46.2043907, "longitude": 6.1431577, "race": "Course de l'Escalade, Gen\u00e8ve", "date": {"sam. 02.12.2006": {"year": 2006, "day": 2, "month": 12, "categories": {"Hommes4": {"distance": 7, "rank": 464, "pace": 293000000000, "time": 2129.2}}, "weekday": "saturday", "livingplace": "Vouvry"}}, "location": "Gen\u00e8ve"}, "Tour du Chablais #4 Morgins": {"latitude": NaN, "longitude": NaN, "race": "Tour du Chablais #4 Morgins", "date": {"mer. 18.05.2011": {"year": 2011, "day": 18, "month": 5, "categories": {"M-M50": {"distance": 8, "rank": 55, "pace": 320000000000, "time": 2672.4}}, "weekday": "wednesday", "livingplace": "Vouvry"}}, "location": "Les Mosses"}, "Tour du Chablais #6 Mouthey": {"latitude": 46.3190253, "longitude": 6.970566, "race": "Tour du Chablais #6 Mouthey", "date": {"mer. 12.05.2010": {"year": 2010, "day": 12, "month": 5, "categories": {"M-M50": {"distance": 9, "rank": 47, "pace": 285000000000, "time": 2624.4}}, "weekday": "wednesday", "livingplace": "Vouvry"}}, "location": "Aigle"}, "Tour du Chablais #1 Montreux": {"latitude": 46.2957462, "longitude": 6.9916269, "race": "Tour du Chablais #1 Montreux", "date": {"mer. 11.04.2012": {"year": 2012, "day": 11, "month": 4, "categories": {"M-M50": {"distance": 8, "rank": 64, "pace": 322000000000, "time": 2450.5}}, "weekday": "wednesday", "livingplace": "Vouvry"}}, "location": "Ollon VD"}, "Tour du Chablais #3 Bouveret": {"latitude": 46.1782231, "longitude": 7.0223787, "race": "Tour du Chablais #3 Bouveret", "date": {"mer. 17.04.2013": {"year": 2013, "day": 17, "month": 4, "categories": {"M-M50": {"distance": 10, "rank": 49, "pace": 300000000000, "time": 3001.5}}, "weekday": "wednesday", "livingplace": "Vouvry"}}, "location": "Evionnaz"}, "Tour du Chablais #2 Bex": {"latitude": 46.3835529, "longitude": 6.854975199999999, "race": "Tour du Chablais #2 Bex", "date": {"mer. 18.04.2012": {"year": 2012, "day": 18, "month": 4, "categories": {"M-M50": {"distance": 8, "rank": 60, "pace": 306000000000, "time": 2451.4}}, "weekday": "wednesday", "livingplace": "Vouvry"}}, "location": "Bouveret"}, "Tour du Chablais #6 Montreux": {"latitude": 46.3190253, "longitude": 6.970566, "race": "Tour du Chablais #6 Montreux", "date": {"mer. 16.05.2012": {"year": 2012, "day": 16, "month": 5, "categories": {"M-M50": {"distance": 9, "rank": 67, "pace": 297000000000, "time": 2754.0}}, "weekday": "wednesday", "livingplace": "Vouvry"}}, "location": "Aigle"}, "Tour du Chablais #5 Les Mosses": {"latitude": 46.3603257, "longitude": 6.931504599999999, "race": "Tour du Chablais #5 Les Mosses", "date": {"mer. 25.05.2011": {"year": 2011, "day": 25, "month": 5, "categories": {"M-M50": {"distance": 8, "rank": 47, "pace": 324000000000, "time": 2596.9}}, "weekday": "wednesday", "livingplace": "Vouvry"}}, "location": "Roche VD"}}, "birth": 1957}