{"name": "Biedermann Alain", "sex": "M", "races": {"Tour du Pays de Vaud #2 - Genolier": {"latitude": 46.5955273, "longitude": 6.7702883, "race": "Tour du Pays de Vaud #2 - Genolier", "date": {"mer. 18.08.2010": {"year": 2010, "day": 18, "month": 8, "categories": {"HSen2": {"distance": 8, "rank": 132, "pace": 323000000000, "time": 2616.3}}, "weekday": "wednesday", "livingplace": "Aubonne"}}, "location": "M\u00e9zi\u00e8res VD"}, "Tour du pays de Vaud #1 \u2013 St  Prex": {"latitude": 46.7784736, "longitude": 6.641183, "race": "Tour du pays de Vaud #1 \u2013 St  Prex", "date": {"mer. 11.08.2010": {"year": 2010, "day": 11, "month": 8, "categories": {"HSen2": {"distance": 8, "rank": 120, "pace": 330000000000, "time": 2775.1}}, "weekday": "wednesday", "livingplace": "Aubonne"}}, "location": "Yverdon-les-Bains"}, "Tour du Pays de Vaud #5 - La Sarraz": {"latitude": 46.5993131, "longitude": 6.539251200000001, "race": "Tour du Pays de Vaud #5 - La Sarraz", "date": {"mer. 08.09.2010": {"year": 2010, "day": 8, "month": 9, "categories": {"HSen2": {"distance": 9, "rank": 143, "pace": 346000000000, "time": 3149.1}}, "weekday": "wednesday", "livingplace": "Aubonne"}}, "location": "Penthaz"}, "Morat-Fribourg": {"latitude": 46.92922110000001, "longitude": 7.120184, "race": "Morat-Fribourg", "date": {"sam. 02.10.2010": {"year": 2010, "day": 2, "month": 10, "categories": {"17-M45": {"distance": 17, "rank": 563, "pace": 357000000000, "time": 6130.7}}, "weekday": "saturday", "livingplace": "Aubonne"}}, "location": "Murten"}, "20km de Lausanne": {"latitude": 46.5196535, "longitude": 6.6322734, "race": "20km de Lausanne", "date": {"sam. 30.04.2011": {"year": 2011, "day": 30, "month": 4, "categories": {"20-H45": {"distance": 20, "rank": 402, "pace": 368000000000, "time": 7379.9}}, "weekday": "saturday", "livingplace": "Aubonne"}}, "location": "Lausanne"}}, "birth": 1962}