{"name": "Bielser Yannick", "sex": "M", "races": {"BCN Tour M\u00f4tier": {"latitude": 46.9262933, "longitude": 6.6324944, "race": "BCN Tour M\u00f4tier", "date": {"mer. 19.05.2010": {"year": 2010, "day": 19, "month": 5, "categories": {"HE": {"distance": 10, "rank": 44, "pace": 262000000000, "time": 2594.6}}, "weekday": "wednesday", "livingplace": "Motiers"}}, "location": "Couvet"}, "D\u00e9fi Val-de-Travers, Couvet": {"latitude": 46.9262933, "longitude": 6.6324944, "race": "D\u00e9fi Val-de-Travers, Couvet", "date": {"sam. 20.06.2009": {"year": 2009, "day": 20, "month": 6, "categories": {"SH": {"distance": 20, "rank": 14, "pace": 319000000000, "time": 6292.9}}, "weekday": "saturday", "livingplace": "Motiers"}, "sam. 19.06.2010": {"year": 2010, "day": 19, "month": 6, "categories": {"42-Hom": {"distance": 41, "rank": 7, "pace": 433000000000, "time": 17846.9}}, "weekday": "saturday", "livingplace": "Motiers"}}, "location": "Couvet"}, "BCN Tour Neuch\u00e2tel": {"latitude": 46.9899874, "longitude": 6.9292732, "race": "BCN Tour Neuch\u00e2tel", "date": {"mer. 26.05.2010": {"year": 2010, "day": 26, "month": 5, "categories": {"HE": {"distance": 10, "rank": 61, "pace": 292000000000, "time": 2838.9}}, "weekday": "wednesday", "livingplace": "Motiers"}}, "location": "Neuch\u00e2tel"}, "BCN Tour Le Locle": {"latitude": 46.999113, "longitude": 6.733554799999999, "race": "BCN Tour Le Locle", "date": {"mer. 05.05.2010": {"year": 2010, "day": 5, "month": 5, "categories": {"HE": {"distance": 11, "rank": 50, "pace": 276000000000, "time": 3016.9}}, "weekday": "wednesday", "livingplace": "Motiers"}}, "location": "Les Ponts-de-Martel"}, "BCN Tour Ponts-de-Martel": {"latitude": 47.0624261, "longitude": 6.9175754, "race": "BCN Tour Ponts-de-Martel", "date": {"mer. 28.04.2010": {"year": 2010, "day": 28, "month": 4, "categories": {"HE": {"distance": 11, "rank": 42, "pace": 284000000000, "time": 3184.4}}, "weekday": "wednesday", "livingplace": "Motiers"}}, "location": "Ch\u00e9zard-St-Martin"}, "BCN Tour La Chaux-de-fonds": {"latitude": 47.1034892, "longitude": 6.832783800000001, "race": "BCN Tour La Chaux-de-fonds", "date": {"mer. 12.05.2010": {"year": 2010, "day": 12, "month": 5, "categories": {"HE": {"distance": 11, "rank": 56, "pace": 340000000000, "time": 3640.3}}, "weekday": "wednesday", "livingplace": "Motiers"}}, "location": "La Chaux-de-Fonds"}, "BCN Tour Colombier": {"latitude": 46.9668714, "longitude": 6.8589727, "race": "BCN Tour Colombier", "date": {"mer. 21.04.2010": {"year": 2010, "day": 21, "month": 4, "categories": {"HE": {"distance": 10, "rank": 56, "pace": 308000000000, "time": 3080.4}}, "weekday": "wednesday", "livingplace": "Motiers"}}, "location": "Colombier NE"}}, "birth": 1985}