{"name": "Bijsterveld Frank", "sex": "M", "races": {"Tour du Pays de Vaud #2 - Genolier": {"latitude": 46.5955273, "longitude": 6.7702883, "race": "Tour du Pays de Vaud #2 - Genolier", "date": {"mer. 15.08.2012": {"year": 2012, "day": 15, "month": 8, "categories": {"H-Sen2": {"distance": 9, "rank": 147, "pace": 348000000000, "time": 2965.2}}, "weekday": "wednesday", "livingplace": "St Prex"}}, "location": "M\u00e9zi\u00e8res VD"}, "Tour du Pays de Vaud #3 - Mezi\u00e8res": {"latitude": 46.7784736, "longitude": 6.641183, "race": "Tour du Pays de Vaud #3 - Mezi\u00e8res", "date": {"mer. 22.08.2012": {"year": 2012, "day": 22, "month": 8, "categories": {"H-Sen2": {"distance": 8, "rank": 141, "pace": 356000000000, "time": 2995.2}}, "weekday": "wednesday", "livingplace": "St Prex"}}, "location": "Yverdon-les-Bains"}, "Tour du Pays de Vaud printanier #3 - Yens": {"latitude": 46.7829756, "longitude": 6.5728678, "race": "Tour du Pays de Vaud printanier #3 - Yens", "date": {"mer. 12.06.2013": {"year": 2013, "day": 12, "month": 6, "categories": {"H-Sen2": {"distance": 9, "rank": 86, "pace": 346000000000, "time": 3152.5}}, "weekday": "wednesday", "livingplace": "St Prex"}}, "location": "Champvent"}, "Tour du Pays de Vaud #2 - Mezi\u00e8res": {"latitude": 46.5955273, "longitude": 6.7702883, "race": "Tour du Pays de Vaud #2 - Mezi\u00e8res", "date": {"mer. 21.08.2013": {"year": 2013, "day": 21, "month": 8, "categories": {"H-Sen2": {"distance": 8, "rank": 139, "pace": 356000000000, "time": 2889.6}}, "weekday": "wednesday", "livingplace": "St Prex"}}, "location": "M\u00e9zi\u00e8res VD"}, "Tour du Pays de Vaud printanier #1 Moudon": {"latitude": 46.3832683, "longitude": 6.2347852, "race": "Tour du Pays de Vaud printanier #1 Moudon", "date": {"mer. 29.05.2013": {"year": 2013, "day": 29, "month": 5, "categories": {"H-Sen2": {"distance": 8, "rank": 65, "pace": 344000000000, "time": 2945.5}}, "weekday": "wednesday", "livingplace": "St Prex"}}, "location": "Nyon"}, "Lausanne Marathon": {"latitude": 46.5196535, "longitude": 6.6322734, "race": "Lausanne Marathon", "date": {"dim. 30.10.2011": {"year": 2011, "day": 30, "month": 10, "categories": {"10-H3": {"distance": 10, "rank": 297, "pace": 308000000000, "time": 3089.3}}, "weekday": "sunday", "livingplace": "St Prex"}}, "location": "Lausanne"}, "Tour du pays de Vaud #1 - Penthaz": {"latitude": 46.5993131, "longitude": 6.539251200000001, "race": "Tour du pays de Vaud #1 - Penthaz", "date": {"mer. 14.08.2013": {"year": 2013, "day": 14, "month": 8, "categories": {"H-Sen2": {"distance": 9, "rank": 155, "pace": 338000000000, "time": 2887.3}}, "weekday": "wednesday", "livingplace": "St Prex"}, "mer. 08.08.2012": {"year": 2012, "day": 8, "month": 8, "categories": {"H-Sen2": {"distance": 9, "rank": 147, "pace": 344000000000, "time": 2936.6}}, "weekday": "wednesday", "livingplace": "St Prex"}}, "location": "Penthaz"}, "Tour du Pays de Vaud #3 - Chavornay": {"latitude": 46.7784736, "longitude": 6.641183, "race": "Tour du Pays de Vaud #3 - Chavornay", "date": {"mer. 28.08.2013": {"year": 2013, "day": 28, "month": 8, "categories": {"H-Sen2": {"distance": 9, "rank": 170, "pace": 345000000000, "time": 3073.0}}, "weekday": "wednesday", "livingplace": "St Prex"}}, "location": "Yverdon-les-Bains"}, "Tour du Pays de Vaud printanier #2 Yverdon-les-Bains": {"latitude": 46.6698891, "longitude": 6.7975224, "race": "Tour du Pays de Vaud printanier #2 Yverdon-les-Bains", "date": {"mer. 05.06.2013": {"year": 2013, "day": 5, "month": 6, "categories": {"H-Sen2": {"distance": 9, "rank": 68, "pace": 337000000000, "time": 3071.7}}, "weekday": "wednesday", "livingplace": "St Prex"}}, "location": "Moudon"}}, "birth": 1968}