{"name": "Billas Laurent", "sex": "M", "races": {"BCN Tour #1 Corcelles": {"latitude": 46.9668714, "longitude": 6.8589727, "race": "BCN Tour #1 Corcelles", "date": {"mer. 24.04.2013": {"year": 2013, "day": 24, "month": 4, "categories": {"HS2": {"distance": 10, "rank": 94, "pace": 281000000000, "time": 2761.3}}, "weekday": "wednesday", "livingplace": "Bellmund"}}, "location": "Colombier NE"}, "BCN Tour M\u00f4tier": {"latitude": 46.9262933, "longitude": 6.6324944, "race": "BCN Tour M\u00f4tier", "date": {"mer. 19.05.2010": {"year": 2010, "day": 19, "month": 5, "categories": {"HS2": {"distance": 10, "rank": 70, "pace": 266000000000, "time": 2639.6}}, "weekday": "wednesday", "livingplace": "Bellmund"}}, "location": "Couvet"}, "BCN Tour Les Ponts-de-Martel": {"latitude": 46.999113, "longitude": 6.733554799999999, "race": "BCN Tour Les Ponts-de-Martel", "date": {"mer. 09.05.2012": {"year": 2012, "day": 9, "month": 5, "categories": {"HS2": {"distance": 10, "rank": 54, "pace": 271000000000, "time": 2800.9}}, "weekday": "wednesday", "livingplace": "Bellmund"}}, "location": "Les Ponts-de-Martel"}, "BCN Tour Fontaine Cernier": {"latitude": 47.0624261, "longitude": 6.9175754, "race": "BCN Tour Fontaine Cernier", "date": {"mer. 27.04.2011": {"year": 2011, "day": 27, "month": 4, "categories": {"HS2": {"distance": 10, "rank": 59, "pace": 264000000000, "time": 2722.2}}, "weekday": "wednesday", "livingplace": "Bellmund"}}, "location": "Ch\u00e9zard-St-Martin"}, "BCN Tour Le Landeron": {"latitude": 46.9668714, "longitude": 6.8589727, "race": "BCN Tour Le Landeron", "date": {"mer. 22.04.2009": {"year": 2009, "day": 22, "month": 4, "categories": {"HS2": {"distance": 11, "rank": 97, "pace": 295000000000, "time": 3280.2}}, "weekday": "wednesday", "livingplace": "Bellmund"}}, "location": "Colombier NE"}, "BCN Tour Le Locle": {"latitude": 46.999113, "longitude": 6.733554799999999, "race": "BCN Tour Le Locle", "date": {"mer. 05.05.2010": {"year": 2010, "day": 5, "month": 5, "categories": {"HS2": {"distance": 11, "rank": 62, "pace": 275000000000, "time": 3008.2}}, "weekday": "wednesday", "livingplace": "Bellmund"}}, "location": "Les Ponts-de-Martel"}, "BCN Tour Neuch\u00e2tel": {"latitude": 46.9899874, "longitude": 6.9292732, "race": "BCN Tour Neuch\u00e2tel", "date": {"mer. 26.05.2010": {"year": 2010, "day": 26, "month": 5, "categories": {"HS2": {"distance": 10, "rank": 85, "pace": 305000000000, "time": 2963.6}}, "weekday": "wednesday", "livingplace": "Bellmund"}, "mer. 30.05.2012": {"year": 2012, "day": 30, "month": 5, "categories": {"HS2": {"distance": 11, "rank": 64, "pace": 287000000000, "time": 3217.2}}, "weekday": "wednesday", "livingplace": "Bellmund"}, "mer. 25.05.2011": {"year": 2011, "day": 25, "month": 5, "categories": {"HS2": {"distance": 11, "rank": 73, "pace": 285000000000, "time": 3252.6}}, "weekday": "wednesday", "livingplace": "Bellmund"}}, "location": "Neuch\u00e2tel"}, "BCN Tour Auvernier": {"latitude": 46.9668714, "longitude": 6.8589727, "race": "BCN Tour Auvernier", "date": {"mer. 20.04.2011": {"year": 2011, "day": 20, "month": 4, "categories": {"HS2": {"distance": 11, "rank": 76, "pace": 288000000000, "time": 3112.4}}, "weekday": "wednesday", "livingplace": "Bellmund"}}, "location": "Colombier NE"}, "Bieler Lauftage, Biel Bienne": {"latitude": 47.1367785, "longitude": 7.2467909, "race": "Bieler Lauftage, Biel Bienne", "date": {"ven. 13.06.2008": {"year": 2008, "day": 13, "month": 6, "categories": {"H/M40": {"distance": 21, "rank": 18, "pace": 280000000000, "time": 5919.0}}, "weekday": "friday", "livingplace": "Bellmund"}, "jeu. 11.06.2015": {"year": 2015, "day": 11, "month": 6, "categories": {"H-M45": {"distance": 21, "rank": 13, "pace": 282000000000, "time": 5959.6}}, "weekday": "thursday", "livingplace": "Bellmund"}, "ven. 09.06.2006": {"year": 2006, "day": 9, "month": 6, "categories": {"H/M35": {"distance": 21, "rank": 6, "pace": 301000000000, "time": 6367.6}}, "weekday": "friday", "livingplace": "Bellmund"}, "ven. 17.06.2005": {"year": 2005, "day": 17, "month": 6, "categories": {"H/M35": {"distance": 21, "rank": 8, "pace": 307000000000, "time": 6498.7}}, "weekday": "friday", "livingplace": "Bellmund"}}, "location": "Biel/Bienne"}, "Kerzerslauf": {"latitude": 46.97488999999999, "longitude": 7.1954365, "race": "Kerzerslauf", "date": {"sam. 21.03.2015": {"year": 2015, "day": 21, "month": 3, "categories": {"15-M45": {"distance": 15, "rank": 88, "pace": 256000000000, "time": 3843.5}}, "weekday": "saturday", "livingplace": "Bellmund"}}, "location": "Kerzers"}, "BCN Tour La Chaux-de-Fonds": {"latitude": 47.1034892, "longitude": 6.832783800000001, "race": "BCN Tour La Chaux-de-Fonds", "date": {"mer. 23.05.2012": {"year": 2012, "day": 23, "month": 5, "categories": {"HS2": {"distance": 11, "rank": 63, "pace": 274000000000, "time": 2964.3}}, "weekday": "wednesday", "livingplace": "Bellmund"}, "mer. 11.05.2011": {"year": 2011, "day": 11, "month": 5, "categories": {"HS2": {"distance": 11, "rank": 80, "pace": 322000000000, "time": 3450.1}}, "weekday": "wednesday", "livingplace": "Bellmund"}}, "location": "La Chaux-de-Fonds"}, "Jungfrau-Marathon, Interlaken": {"latitude": NaN, "longitude": NaN, "race": "Jungfrau-Marathon, Interlaken", "date": {"sam. 08.09.2012": {"year": 2012, "day": 8, "month": 9, "categories": {"SO-M40": {"distance": 42, "rank": 268, "pace": 414000000000, "time": 17473.8}}, "weekday": "saturday", "livingplace": "Bellmund"}}, "location": "Interlaken"}, "BCN Tour La Br\u00e9vine": {"latitude": 46.999113, "longitude": 6.733554799999999, "race": "BCN Tour La Br\u00e9vine", "date": {"mer. 04.05.2011": {"year": 2011, "day": 4, "month": 5, "categories": {"HS2": {"distance": 10, "rank": 70, "pace": 280000000000, "time": 2804.6}}, "weekday": "wednesday", "livingplace": "Bellmund"}}, "location": "Les Ponts-de-Martel"}, "BCN Tour Ponts-de-Martel": {"latitude": 47.0624261, "longitude": 6.9175754, "race": "BCN Tour Ponts-de-Martel", "date": {"mer. 28.04.2010": {"year": 2010, "day": 28, "month": 4, "categories": {"HS2": {"distance": 11, "rank": 83, "pace": 287000000000, "time": 3217.9}}, "weekday": "wednesday", "livingplace": "Bellmund"}}, "location": "Ch\u00e9zard-St-Martin"}, "BCN Tour Les Ponts de Martel": {"latitude": 46.9262933, "longitude": 6.6324944, "race": "BCN Tour Les Ponts de Martel", "date": {"mer. 18.05.2011": {"year": 2011, "day": 18, "month": 5, "categories": {"HS2": {"distance": 13, "rank": 63, "pace": 281000000000, "time": 3609.2}}, "weekday": "wednesday", "livingplace": "Bellmund"}}, "location": "Couvet"}, "BCN Tour #5 Colombier": {"latitude": 46.9262933, "longitude": 6.6324944, "race": "BCN Tour #5 Colombier", "date": {"mer. 22.05.2013": {"year": 2013, "day": 22, "month": 5, "categories": {"HS2": {"distance": 11, "rank": 54, "pace": 245000000000, "time": 2582.7}}, "weekday": "wednesday", "livingplace": "Bellmund"}}, "location": "Couvet"}, "BCN Tour La Chaux-de-fonds": {"latitude": 47.1034892, "longitude": 6.832783800000001, "race": "BCN Tour La Chaux-de-fonds", "date": {"mer. 12.05.2010": {"year": 2010, "day": 12, "month": 5, "categories": {"HS2": {"distance": 11, "rank": 85, "pace": 348000000000, "time": 3723.9}}, "weekday": "wednesday", "livingplace": "Bellmund"}}, "location": "La Chaux-de-Fonds"}, "BCN Tour Colombier": {"latitude": 46.9668714, "longitude": 6.8589727, "race": "BCN Tour Colombier", "date": {"mer. 16.05.2012": {"year": 2012, "day": 16, "month": 5, "categories": {"HS2": {"distance": 11, "rank": 53, "pace": 265000000000, "time": 2865.1}}, "weekday": "wednesday", "livingplace": "Bellmund"}, "mer. 21.04.2010": {"year": 2010, "day": 21, "month": 4, "categories": {"HS2": {"distance": 10, "rank": 88, "pace": 305000000000, "time": 3059.8}}, "weekday": "wednesday", "livingplace": "Bellmund"}}, "location": "Colombier NE"}, "BCN Tour #3 Dombresson": {"latitude": 46.999113, "longitude": 6.733554799999999, "race": "BCN Tour #3 Dombresson", "date": {"mer. 08.05.2013": {"year": 2013, "day": 8, "month": 5, "categories": {"HS2": {"distance": 10, "rank": 64, "pace": 262000000000, "time": 2600.2}}, "weekday": "wednesday", "livingplace": "Bellmund"}}, "location": "Les Ponts-de-Martel"}, "BCN Tour #6 Neuch\u00e2tel": {"latitude": 46.9899874, "longitude": 6.9292732, "race": "BCN Tour #6 Neuch\u00e2tel", "date": {"mer. 29.05.2013": {"year": 2013, "day": 29, "month": 5, "categories": {"HS2": {"distance": 11, "rank": 66, "pace": 278000000000, "time": 3066.1}}, "weekday": "wednesday", "livingplace": "Bellmund"}}, "location": "Neuch\u00e2tel"}}, "birth": 1968}