{"name": "Binet Nicolas", "sex": "M", "races": {"BCN Tour M\u00f4tier": {"latitude": 46.9262933, "longitude": 6.6324944, "race": "BCN Tour M\u00f4tier", "date": {"mer. 19.05.2010": {"year": 2010, "day": 19, "month": 5, "categories": {"HS1": {"distance": 10, "rank": 4, "pace": 212000000000, "time": 2102.4}}, "weekday": "wednesday", "livingplace": "Vaux et Chantegrue"}}, "location": "Couvet"}, "BCN Tour Neuch\u00e2tel": {"latitude": 46.9899874, "longitude": 6.9292732, "race": "BCN Tour Neuch\u00e2tel", "date": {"mer. 26.05.2010": {"year": 2010, "day": 26, "month": 5, "categories": {"HS1": {"distance": 10, "rank": 6, "pace": 235000000000, "time": 2285.0}}, "weekday": "wednesday", "livingplace": "Vaux et Chantegrue"}, "mer. 30.05.2012": {"year": 2012, "day": 30, "month": 5, "categories": {"HS1": {"distance": 11, "rank": 3, "pace": 227000000000, "time": 2545.0}}, "weekday": "wednesday", "livingplace": "Vaux et Chantegrue"}}, "location": "Neuch\u00e2tel"}, "Montreux - Les Rochers de Naye": {"latitude": 46.4312213, "longitude": 6.9106799, "race": "Montreux - Les Rochers de Naye", "date": {"dim. 11.07.2010": {"year": 2010, "day": 11, "month": 7, "categories": {"M-Hom": {"distance": 19, "rank": 19, "pace": 345000000000, "time": 6487.6}}, "weekday": "sunday", "livingplace": "Oye et Pallet"}}, "location": "Montreux"}, "BCN Tour La Chaux-de-Fonds": {"latitude": 46.9262933, "longitude": 6.6324944, "race": "BCN Tour La Chaux-de-Fonds", "date": {"mer. 23.05.2012": {"year": 2012, "day": 23, "month": 5, "categories": {"HS1": {"distance": 11, "rank": 3, "pace": 219000000000, "time": 2374.7}}, "weekday": "wednesday", "livingplace": "Vaux et Chantegrue"}}, "location": "Couvet"}, "BCN Tour Boudry": {"latitude": 46.9668714, "longitude": 6.8589727, "race": "BCN Tour Boudry", "date": {"mer. 26.04.2006": {"year": 2006, "day": 26, "month": 4, "categories": {"HE": {"distance": 10, "rank": 5, "pace": 219000000000, "time": 2240.4}}, "weekday": "wednesday", "livingplace": "Malbuisson"}}, "location": "Colombier NE"}, "BCN Tour Ponts-de-Martel": {"latitude": 47.0624261, "longitude": 6.9175754, "race": "BCN Tour Ponts-de-Martel", "date": {"mer. 28.04.2010": {"year": 2010, "day": 28, "month": 4, "categories": {"HS1": {"distance": 11, "rank": 4, "pace": 222000000000, "time": 2497.3}}, "weekday": "wednesday", "livingplace": "Vaux et Chantegrue"}}, "location": "Ch\u00e9zard-St-Martin"}, "BCN Tour Colombier": {"latitude": 46.9668714, "longitude": 6.8589727, "race": "BCN Tour Colombier", "date": {"mer. 23.04.2008": {"year": 2008, "day": 23, "month": 4, "categories": {"HS1": {"distance": 10, "rank": 2, "pace": 212000000000, "time": 2166.4}}, "weekday": "wednesday", "livingplace": "Vaux et Chantegrue"}, "mer. 21.04.2010": {"year": 2010, "day": 21, "month": 4, "categories": {"HS1": {"distance": 10, "rank": 22, "pace": 267000000000, "time": 2676.5}}, "weekday": "wednesday", "livingplace": "Vaux et Chantegrue"}}, "location": "Colombier NE"}, "Course p\u00e9destre Thyon-Dixence, Thyon": {"latitude": NaN, "longitude": NaN, "race": "Course p\u00e9destre Thyon-Dixence, Thyon", "date": {"dim. 04.08.2013": {"year": 2013, "day": 4, "month": 8, "categories": {"HomElite": {"distance": 16, "rank": 19, "pace": 315000000000, "time": 5154.4}}, "weekday": "sunday", "livingplace": "Vaux et Chantegrue"}}, "location": "Thyon-Les Collons"}, "BCN Tour Le Locle": {"latitude": 46.999113, "longitude": 6.733554799999999, "race": "BCN Tour Le Locle", "date": {"mer. 05.05.2010": {"year": 2010, "day": 5, "month": 5, "categories": {"HS1": {"distance": 11, "rank": 163, "pace": 323000000000, "time": 3522.5}}, "weekday": "wednesday", "livingplace": "Vaux et Chantegrue"}}, "location": "Les Ponts-de-Martel"}}, "birth": 1977}