{"name": "Bisaz Reto", "sex": "M", "races": {"Course de l'Escalade, Gen\u00e8ve": {"latitude": 46.2043907, "longitude": 6.1431577, "race": "Course de l'Escalade, Gen\u00e8ve", "date": {"sam. 05.12.2009": {"year": 2009, "day": 5, "month": 12, "categories": {"Hommes2": {"distance": 7, "rank": 1485, "pace": 329000000000, "time": 2390.6}}, "weekday": "saturday", "livingplace": "Lausanne"}}, "location": "Gen\u00e8ve"}, "20km de Lausanne": {"latitude": 46.5196535, "longitude": 6.6322734, "race": "20km de Lausanne", "date": {"sam. 25.04.2009": {"year": 2009, "day": 25, "month": 4, "categories": {"10-H30": {"distance": 10, "rank": 679, "pace": 351000000000, "time": 3517.5}}, "weekday": "saturday", "livingplace": "Lausanne"}}, "location": "Lausanne"}, "Thuner Stadtlauf, Thun": {"latitude": 46.7579868, "longitude": 7.6279881, "race": "Thuner Stadtlauf, Thun", "date": {"dim. 24.08.2014": {"year": 2014, "day": 24, "month": 8, "categories": {"10-M30": {"distance": 11, "rank": 91, "pace": 301000000000, "time": 3246.3}}, "weekday": "sunday", "livingplace": "Thun"}}, "location": "Thun"}, "Morat-Fribourg": {"latitude": 46.92922110000001, "longitude": 7.120184, "race": "Morat-Fribourg", "date": {"sam. 06.10.2007": {"year": 2007, "day": 6, "month": 10, "categories": {"C/M20": {"distance": 17, "rank": 1413, "pace": 331000000000, "time": 5699.6}}, "weekday": "saturday", "livingplace": "Lausanne"}}, "location": "Murten"}, "D\u00e9fi Val-de-Travers, Couvet": {"latitude": 46.9262933, "longitude": 6.6324944, "race": "D\u00e9fi Val-de-Travers, Couvet", "date": {"sam. 21.06.2008": {"year": 2008, "day": 21, "month": 6, "categories": {"EH": {"distance": 12, "rank": 11, "pace": 406000000000, "time": 4956.5}}, "weekday": "saturday", "livingplace": "Lausanne"}}, "location": "Couvet"}}, "birth": 1978}