{"name": "Blanc Moya Rafael", "sex": "M", "races": {"Tour du Pays de Vaud #2 - Genolier": {"latitude": 46.5955273, "longitude": 6.7702883, "race": "Tour du Pays de Vaud #2 - Genolier", "date": {"mer. 17.08.2011": {"year": 2011, "day": 17, "month": 8, "categories": {"H-Sen2": {"distance": 9, "rank": 85, "pace": 290000000000, "time": 2467.9}}, "weekday": "wednesday", "livingplace": "St Sulpice"}}, "location": "M\u00e9zi\u00e8res VD"}, "Tour du pays de Vaud #5 - Penthaz": {"latitude": 46.5993131, "longitude": 6.539251200000001, "race": "Tour du pays de Vaud #5 - Penthaz", "date": {"mer. 07.09.2011": {"year": 2011, "day": 7, "month": 9, "categories": {"H-Sen2": {"distance": 8, "rank": 79, "pace": 313000000000, "time": 2617.0}}, "weekday": "wednesday", "livingplace": "St Sulpice"}}, "location": "Penthaz"}, "20km de Lausanne": {"latitude": 46.5196535, "longitude": 6.6322734, "race": "20km de Lausanne", "date": {"sam. 27.04.2013": {"year": 2013, "day": 27, "month": 4, "categories": {"10-H45": {"distance": 10, "rank": 93, "pace": 279000000000, "time": 2793.5}}, "weekday": "saturday", "livingplace": "Epalinges"}, "sam. 26.04.2014": {"year": 2014, "day": 26, "month": 4, "categories": {"10-H45": {"distance": 10, "rank": 99, "pace": 285000000000, "time": 2853.8}}, "weekday": "saturday", "livingplace": "Se bouger pour sa sante 4"}}, "location": "Lausanne"}, "Les Traine-Savates, Cheseaux-sur-Lausanne": {"latitude": 46.585452, "longitude": 6.6047712, "race": "Les Traine-Savates, Cheseaux-sur-Lausanne", "date": {"sam. 13.04.2013": {"year": 2013, "day": 13, "month": 4, "categories": {"10-M40": {"distance": 10, "rank": 106, "pace": 291000000000, "time": 2999.3}}, "weekday": "saturday", "livingplace": "Epalinges"}}, "location": "Cheseaux-sur-Lausanne"}, "Tour du pays de Vaud #1 - Mezi\u00e8res": {"latitude": 46.7784736, "longitude": 6.641183, "race": "Tour du pays de Vaud #1 - Mezi\u00e8res", "date": {"mer. 10.08.2011": {"year": 2011, "day": 10, "month": 8, "categories": {"H-Sen2": {"distance": 9, "rank": 81, "pace": 276000000000, "time": 2347.3}}, "weekday": "wednesday", "livingplace": "St Sulpice"}}, "location": "Yverdon-les-Bains"}}, "birth": 1965}