{"name": "Blanc Patrick", "sex": "M", "races": {"Tour du Pays de Vaud #1, Penthaz": {"latitude": 46.5993131, "longitude": 6.539251200000001, "race": "Tour du Pays de Vaud #1, Penthaz", "date": {"mer. 13.08.2014": {"year": 2014, "day": 13, "month": 8, "categories": {"H-Sen2": {"distance": 9, "rank": 92, "pace": 333000000000, "time": 2844.4}}, "weekday": "wednesday", "livingplace": "Morges"}}, "location": "Penthaz"}, "Tour du Pays de Vaud printanier #3 - Yens": {"latitude": 46.7829756, "longitude": 6.5728678, "race": "Tour du Pays de Vaud printanier #3 - Yens", "date": {"mer. 18.06.2014": {"year": 2014, "day": 18, "month": 6, "categories": {"H-Sen2": {"distance": 9, "rank": 79, "pace": 376000000000, "time": 3427.8}}, "weekday": "wednesday", "livingplace": "Morges"}}, "location": "Champvent"}, "Tour du Pays de Vaud #2, Mezi\u00e8res": {"latitude": 46.5955273, "longitude": 6.7702883, "race": "Tour du Pays de Vaud #2, Mezi\u00e8res", "date": {"mer. 20.08.2014": {"year": 2014, "day": 20, "month": 8, "categories": {"H-Sen2": {"distance": 8, "rank": 111, "pace": 377000000000, "time": 3053.7}}, "weekday": "wednesday", "livingplace": "Morges"}}, "location": "M\u00e9zi\u00e8res VD"}, "Tour du Pays de Vaud printanier #1 Moudon": {"latitude": 46.3832683, "longitude": 6.2347852, "race": "Tour du Pays de Vaud printanier #1 Moudon", "date": {"mer. 04.06.2014": {"year": 2014, "day": 4, "month": 6, "categories": {"H-Sen2": {"distance": 8, "rank": 50, "pace": 353000000000, "time": 2970.2}}, "weekday": "wednesday", "livingplace": "Morges"}}, "location": "Nyon"}, "Lausanne Marathon": {"latitude": 46.5196535, "longitude": 6.6322734, "race": "Lausanne Marathon", "date": {"sam. 24.10.2015": {"year": 2015, "day": 24, "month": 10, "categories": {"10-H40": {"distance": 10, "rank": 261, "pace": 298000000000, "time": 2982.7}}, "weekday": "saturday", "livingplace": "Morges"}, "dim. 26.10.2014": {"year": 2014, "day": 26, "month": 10, "categories": {"10-H40": {"distance": 10, "rank": 360, "pace": 312000000000, "time": 3122.7}}, "weekday": "sunday", "livingplace": "Morges"}, "dim. 27.10.2013": {"year": 2013, "day": 27, "month": 10, "categories": {"10-H3": {"distance": 10, "rank": 381, "pace": 337000000000, "time": 3377.4}}, "weekday": "sunday", "livingplace": "Morges"}}, "location": "Lausanne"}, "Tour du pays de Vaud #1 - Penthaz": {"latitude": 46.5993131, "longitude": 6.539251200000001, "race": "Tour du pays de Vaud #1 - Penthaz", "date": {"mer. 14.08.2013": {"year": 2013, "day": 14, "month": 8, "categories": {"H-Sen2": {"distance": 9, "rank": 169, "pace": 382000000000, "time": 3259.7}}, "weekday": "wednesday", "livingplace": "Morges"}}, "location": "Penthaz"}, "Tour du Pays de Vaud #4, La Sarraz": {"latitude": 46.7088129, "longitude": 6.5707689, "race": "Tour du Pays de Vaud #4, La Sarraz", "date": {"mer. 03.09.2014": {"year": 2014, "day": 3, "month": 9, "categories": {"H-Sen2": {"distance": 9, "rank": 129, "pace": 338000000000, "time": 2875.4}}, "weekday": "wednesday", "livingplace": "Morges"}}, "location": "Chavornay"}, "20km de Lausanne": {"latitude": 46.5196535, "longitude": 6.6322734, "race": "20km de Lausanne", "date": {"sam. 25.04.2015": {"year": 2015, "day": 25, "month": 4, "categories": {"10-H45": {"distance": 10, "rank": 320, "pace": 334000000000, "time": 3348.9}}, "weekday": "saturday", "livingplace": "Morges"}, "sam. 26.04.2014": {"year": 2014, "day": 26, "month": 4, "categories": {"10-H45": {"distance": 10, "rank": 356, "pace": 346000000000, "time": 3469.5}}, "weekday": "saturday", "livingplace": "Morges"}}, "location": "Lausanne"}}, "birth": 1967}