{"name": "Blaser Anne-Lise", "sex": "F", "races": {"Tour du Pays de Vaud etape 5 - La Sarraz": {"latitude": 46.5993131, "longitude": 6.539251200000001, "race": "Tour du Pays de Vaud etape 5 - La Sarraz", "date": {"mer. 10.09.2008": {"year": 2008, "day": 10, "month": 9, "categories": {"DamSen2": {"distance": 9, "rank": 2, "pace": 255000000000, "time": 2196.7}}, "weekday": "wednesday", "livingplace": "Savigny"}}, "location": "Penthaz"}, "Tour du Pays de Vaud etape 1 - Le Mont sur Lausanne": {"latitude": 46.7784736, "longitude": 6.641183, "race": "Tour du Pays de Vaud etape 1 - Le Mont sur Lausanne", "date": {"mer. 13.08.2008": {"year": 2008, "day": 13, "month": 8, "categories": {"DamSen2": {"distance": 8, "rank": 3, "pace": 254000000000, "time": 2138.9}}, "weekday": "wednesday", "livingplace": "Savigny"}}, "location": "Yverdon-les-Bains"}, "20km de Lausanne": {"latitude": 46.5196535, "longitude": 6.6322734, "race": "20km de Lausanne", "date": {"sam. 28.04.2007": {"year": 2007, "day": 28, "month": 4, "categories": {"20F45": {"distance": 20, "rank": 3, "pace": 254000000000, "time": 5083.0}}, "weekday": "saturday", "livingplace": "Savigny"}, "sam. 22.04.2006": {"year": 2006, "day": 22, "month": 4, "categories": {"20/F40": {"distance": 20, "rank": 5, "pace": 262000000000, "time": 5249.9}}, "weekday": "saturday", "livingplace": "Savigny"}}, "location": "Lausanne"}, "Tour du Pays de Vaud etape 2 - Genolier": {"latitude": 46.5955273, "longitude": 6.7702883, "race": "Tour du Pays de Vaud etape 2 - Genolier", "date": {"mer. 20.08.2008": {"year": 2008, "day": 20, "month": 8, "categories": {"DamSen2": {"distance": 8, "rank": 2, "pace": 256000000000, "time": 2129.3}}, "weekday": "wednesday", "livingplace": "Savigny"}}, "location": "M\u00e9zi\u00e8res VD"}, "Tour du Pays de Vaud etape 3 - Aubonne": {"latitude": 46.7829756, "longitude": 6.5728678, "race": "Tour du Pays de Vaud etape 3 - Aubonne", "date": {"mer. 27.08.2008": {"year": 2008, "day": 27, "month": 8, "categories": {"DamSen2": {"distance": 8, "rank": 2, "pace": 270000000000, "time": 2109.9}}, "weekday": "wednesday", "livingplace": "Savigny"}}, "location": "Champvent"}}, "birth": 1962}