{"name": "Blattmann Lukas", "sex": "M", "races": {"Tour du Chablais #1 Roche": {"latitude": 46.2957462, "longitude": 6.9916269, "race": "Tour du Chablais #1 Roche", "date": {"mer. 07.04.2010": {"year": 2010, "day": 7, "month": 4, "categories": {"M-M20": {"distance": 9, "rank": 197, "pace": 320000000000, "time": 2864.6}}, "weekday": "wednesday", "livingplace": "Monthey"}}, "location": "Ollon VD"}, "Tour du Chablais #2 Rennaz": {"latitude": 46.3835529, "longitude": 6.854975199999999, "race": "Tour du Chablais #2 Rennaz", "date": {"mer. 04.05.2011": {"year": 2011, "day": 4, "month": 5, "categories": {"M-M20": {"distance": 9, "rank": 230, "pace": 330000000000, "time": 3093.1}}, "weekday": "wednesday", "livingplace": "Monthey"}}, "location": "Bouveret"}, "Tour du Chablais #3 Le Bouveret": {"latitude": 46.1782231, "longitude": 7.0223787, "race": "Tour du Chablais #3 Le Bouveret", "date": {"mer. 11.05.2011": {"year": 2011, "day": 11, "month": 5, "categories": {"M-M20": {"distance": 10, "rank": 253, "pace": 351000000000, "time": 3519.9}}, "weekday": "wednesday", "livingplace": "Monthey"}}, "location": "Evionnaz"}, "Tour du Chablais #4 Morgins": {"latitude": NaN, "longitude": NaN, "race": "Tour du Chablais #4 Morgins", "date": {"mer. 18.05.2011": {"year": 2011, "day": 18, "month": 5, "categories": {"M-M20": {"distance": 8, "rank": 205, "pace": 348000000000, "time": 2909.4}}, "weekday": "wednesday", "livingplace": "Monthey"}}, "location": "Les Mosses"}, "Tour du Chablais #1 Lavey": {"latitude": 46.2957462, "longitude": 6.9916269, "race": "Tour du Chablais #1 Lavey", "date": {"mer. 27.04.2011": {"year": 2011, "day": 27, "month": 4, "categories": {"M-M20": {"distance": 9, "rank": 237, "pace": 352000000000, "time": 3169.6}}, "weekday": "wednesday", "livingplace": "Monthey"}}, "location": "Ollon VD"}, "Tour du Chablais #4 Champ\u00e9ry": {"latitude": NaN, "longitude": NaN, "race": "Tour du Chablais #4 Champ\u00e9ry", "date": {"mer. 02.05.2012": {"year": 2012, "day": 2, "month": 5, "categories": {"M-M20": {"distance": 8, "rank": 181, "pace": 315000000000, "time": 2615.8}}, "weekday": "wednesday", "livingplace": "Monthey"}}, "location": "Les Mosses"}, "Tour du Chablais #2 St-Gingolph": {"latitude": 46.3835529, "longitude": 6.854975199999999, "race": "Tour du Chablais #2 St-Gingolph", "date": {"mer. 14.04.2010": {"year": 2010, "day": 14, "month": 4, "categories": {"M-M20": {"distance": 8, "rank": 152, "pace": 338000000000, "time": 2829.2}}, "weekday": "wednesday", "livingplace": "Monthey"}}, "location": "Bouveret"}, "Tour du Chablais #6 Mouthey": {"latitude": 46.3190253, "longitude": 6.970566, "race": "Tour du Chablais #6 Mouthey", "date": {"mer. 12.05.2010": {"year": 2010, "day": 12, "month": 5, "categories": {"M-M20": {"distance": 9, "rank": 211, "pace": 321000000000, "time": 2951.9}}, "weekday": "wednesday", "livingplace": "Monthey"}}, "location": "Aigle"}, "Tour du Chablais #1 Montreux": {"latitude": 46.2957462, "longitude": 6.9916269, "race": "Tour du Chablais #1 Montreux", "date": {"mer. 11.04.2012": {"year": 2012, "day": 11, "month": 4, "categories": {"M-M20": {"distance": 8, "rank": 185, "pace": 328000000000, "time": 2498.6}}, "weekday": "wednesday", "livingplace": "Monthey"}}, "location": "Ollon VD"}, "Tour du Chablais #5 Les Mosses": {"latitude": 46.3603257, "longitude": 6.931504599999999, "race": "Tour du Chablais #5 Les Mosses", "date": {"mer. 25.05.2011": {"year": 2011, "day": 25, "month": 5, "categories": {"M-M20": {"distance": 8, "rank": 193, "pace": 349000000000, "time": 2793.6}}, "weekday": "wednesday", "livingplace": "Monthey"}}, "location": "Roche VD"}, "Tour du Chablais #6 Aigle": {"latitude": 46.3190253, "longitude": 6.970566, "race": "Tour du Chablais #6 Aigle", "date": {"mer. 01.06.2011": {"year": 2011, "day": 1, "month": 6, "categories": {"M-M20": {"distance": 10, "rank": 222, "pace": 318000000000, "time": 3248.8}}, "weekday": "wednesday", "livingplace": "Monthey"}}, "location": "Aigle"}, "Tour du Chablais #3 Bex": {"latitude": 46.1782231, "longitude": 7.0223787, "race": "Tour du Chablais #3 Bex", "date": {"mer. 21.04.2010": {"year": 2010, "day": 21, "month": 4, "categories": {"M-M20": {"distance": 10, "rank": 179, "pace": 322000000000, "time": 3221.8}}, "weekday": "wednesday", "livingplace": "Monthey"}}, "location": "Evionnaz"}, "Tour du Chablais #5 Leysin": {"latitude": 46.3603257, "longitude": 6.931504599999999, "race": "Tour du Chablais #5 Leysin", "date": {"mer. 05.05.2010": {"year": 2010, "day": 5, "month": 5, "categories": {"M-M20": {"distance": 8, "rank": 126, "pace": 334000000000, "time": 2823.4}}, "weekday": "wednesday", "livingplace": "Monthey"}}, "location": "Roche VD"}, "Tour du Chablais #2 Bex": {"latitude": 46.3835529, "longitude": 6.854975199999999, "race": "Tour du Chablais #2 Bex", "date": {"mer. 18.04.2012": {"year": 2012, "day": 18, "month": 4, "categories": {"M-M20": {"distance": 8, "rank": 195, "pace": 326000000000, "time": 2611.7}}, "weekday": "wednesday", "livingplace": "Monthey"}}, "location": "Bouveret"}, "Tour du Chablais #3 Collombey-Muraz": {"latitude": 46.1782231, "longitude": 7.0223787, "race": "Tour du Chablais #3 Collombey-Muraz", "date": {"mer. 25.04.2012": {"year": 2012, "day": 25, "month": 4, "categories": {"M-M20": {"distance": 9, "rank": 172, "pace": 313000000000, "time": 2816.6}}, "weekday": "wednesday", "livingplace": "Monthey"}}, "location": "Evionnaz"}, "Tour du Chablais #6 Montreux": {"latitude": 46.3190253, "longitude": 6.970566, "race": "Tour du Chablais #6 Montreux", "date": {"mer. 16.05.2012": {"year": 2012, "day": 16, "month": 5, "categories": {"M-M20": {"distance": 9, "rank": 219, "pace": 328000000000, "time": 3042.0}}, "weekday": "wednesday", "livingplace": "Monthey"}}, "location": "Aigle"}}, "birth": 1978}