{"name": "Bloch Fr\u00e9d\u00e9ric", "sex": "M", "races": {"Groupe E Tour Fribourg #4, Siviriez": {"latitude": 46.6585092, "longitude": 6.877722, "race": "Groupe E Tour Fribourg #4, Siviriez", "date": {"mer. 10.09.2014": {"year": 2014, "day": 10, "month": 9, "categories": {"H-Sen2": {"distance": 11, "rank": 57, "pace": 383000000000, "time": 4138.4}}, "weekday": "wednesday", "livingplace": "Le Mouret"}}, "location": "Siviriez"}, "Course de l'Escalade, Gen\u00e8ve": {"latitude": 46.2043907, "longitude": 6.1431577, "race": "Course de l'Escalade, Gen\u00e8ve", "date": {"sam. 03.12.2011": {"year": 2011, "day": 3, "month": 12, "categories": {"H-H3": {"distance": 7, "rank": 834, "pace": 297000000000, "time": 2155.3}}, "weekday": "saturday", "livingplace": "Lausanne"}}, "location": "Gen\u00e8ve"}, "Corrida Bulloise, Bulle": {"latitude": 46.6154512, "longitude": 7.057726799999999, "race": "Corrida Bulloise, Bulle", "date": {"sam. 21.11.2015": {"year": 2015, "day": 21, "month": 11, "categories": {"Pop-Hom": {"distance": 6, "rank": 350, "pace": 322000000000, "time": 1982.6}}, "weekday": "saturday", "livingplace": "Le Mouret"}}, "location": "Bulle"}, "Groupe E Tour Fribourg #2, Charmey": {"latitude": 46.6175845, "longitude": 7.1654493, "race": "Groupe E Tour Fribourg #2, Charmey", "date": {"mer. 27.08.2014": {"year": 2014, "day": 27, "month": 8, "categories": {"H-Sen2": {"distance": 10, "rank": 64, "pace": 379000000000, "time": 3665.4}}, "weekday": "wednesday", "livingplace": "Le Mouret"}}, "location": "Charmey (Gruy\u00e8re)"}, "Groupe E Tour Fribourg #3, Kerzers": {"latitude": 46.97488999999999, "longitude": 7.1954365, "race": "Groupe E Tour Fribourg #3, Kerzers", "date": {"mer. 03.09.2014": {"year": 2014, "day": 3, "month": 9, "categories": {"H-Sen2": {"distance": 10, "rank": 77, "pace": 340000000000, "time": 3461.4}}, "weekday": "wednesday", "livingplace": "Le Mouret"}}, "location": "Kerzers"}, "Lausanne Marathon": {"latitude": 46.5196535, "longitude": 6.6322734, "race": "Lausanne Marathon", "date": {"dim. 30.10.2011": {"year": 2011, "day": 30, "month": 10, "categories": {"10-H3": {"distance": 10, "rank": 279, "pace": 303000000000, "time": 3031.6}}, "weekday": "sunday", "livingplace": "Lausanne"}}, "location": "Lausanne"}, "Morat-Fribourg": {"latitude": 46.92922110000001, "longitude": 7.120184, "race": "Morat-Fribourg", "date": {"sam. 03.10.2015": {"year": 2015, "day": 3, "month": 10, "categories": {"17-M45": {"distance": 17, "rank": 639, "pace": 391000000000, "time": 6727.1}}, "weekday": "saturday", "livingplace": "Le Mouret"}, "sam. 04.10.2008": {"year": 2008, "day": 4, "month": 10, "categories": {"C-M40": {"distance": 17, "rank": 748, "pace": 347000000000, "time": 5958.8}}, "weekday": "saturday", "livingplace": "Lausanne"}, "sam. 06.10.2007": {"year": 2007, "day": 6, "month": 10, "categories": {"C/M40": {"distance": 17, "rank": 677, "pace": 343000000000, "time": 5900.9}}, "weekday": "saturday", "livingplace": "Lausanne"}, "sam. 04.10.2014": {"year": 2014, "day": 4, "month": 10, "categories": {"17-M45": {"distance": 17, "rank": 641, "pace": 372000000000, "time": 6399.5}}, "weekday": "saturday", "livingplace": "Le Mouret"}}, "location": "Murten"}}, "birth": 1966}