{"name": "Blokker Thomas", "sex": "M", "races": {"20km de Lausanne": {"latitude": 46.5196535, "longitude": 6.6322734, "race": "20km de Lausanne", "date": {"sam. 27.04.2013": {"year": 2013, "day": 27, "month": 4, "categories": {"10-H20": {"distance": 10, "rank": 394, "pace": 293000000000, "time": 2933.8}}, "weekday": "saturday", "livingplace": "Fiez"}, "sam. 26.04.2014": {"year": 2014, "day": 26, "month": 4, "categories": {"10-H20": {"distance": 10, "rank": 841, "pace": 358000000000, "time": 3585.0}}, "weekday": "saturday", "livingplace": "Fiez"}}, "location": "Lausanne"}, "Tour du Pays de Vaud #2 - Mezi\u00e8res": {"latitude": 46.5955273, "longitude": 6.7702883, "race": "Tour du Pays de Vaud #2 - Mezi\u00e8res", "date": {"mer. 21.08.2013": {"year": 2013, "day": 21, "month": 8, "categories": {"H-Hom": {"distance": 8, "rank": 58, "pace": 312000000000, "time": 2531.8}}, "weekday": "wednesday", "livingplace": "Fiez"}}, "location": "M\u00e9zi\u00e8res VD"}, "D\u00e9fi du vignoble, Cully": {"latitude": 45.565921, "longitude": -122.6066627, "race": "D\u00e9fi du vignoble, Cully", "date": {"mer. 14.05.2014": {"year": 2014, "day": 14, "month": 5, "categories": {"M20": {"distance": 4, "rank": 28, "pace": 524000000000, "time": 1910.2}}, "weekday": "wednesday", "livingplace": "Fiez"}}, "location": "Cully"}, "Tour du pays de Vaud #1 - Penthaz": {"latitude": 46.5993131, "longitude": 6.539251200000001, "race": "Tour du pays de Vaud #1 - Penthaz", "date": {"mer. 14.08.2013": {"year": 2013, "day": 14, "month": 8, "categories": {"H-Hom": {"distance": 9, "rank": 60, "pace": 290000000000, "time": 2477.2}}, "weekday": "wednesday", "livingplace": "Fiez"}}, "location": "Penthaz"}, "Tour du Pays de Vaud #3 - Chavornay": {"latitude": 46.7784736, "longitude": 6.641183, "race": "Tour du Pays de Vaud #3 - Chavornay", "date": {"mer. 28.08.2013": {"year": 2013, "day": 28, "month": 8, "categories": {"H-Hom": {"distance": 9, "rank": 90, "pace": 319000000000, "time": 2839.3}}, "weekday": "wednesday", "livingplace": "Fiez"}}, "location": "Yverdon-les-Bains"}}, "birth": 1993}