{"name": "Blum Sandra", "sex": "F", "races": {"Morat-Fribourg": {"latitude": 46.92922110000001, "longitude": 7.120184, "race": "Morat-Fribourg", "date": {"sam. 04.10.2014": {"year": 2014, "day": 4, "month": 10, "categories": {"17-W20": {"distance": 17, "rank": 162, "pace": 328000000000, "time": 5642.6}}, "weekday": "saturday", "livingplace": "Bern"}}, "location": "Murten"}, "ASICS Bremgarter Reusslauf": {"latitude": 47.34917739999999, "longitude": 8.3397905, "race": "ASICS Bremgarter Reusslauf", "date": {"sam. 28.02.2015": {"year": 2015, "day": 28, "month": 2, "categories": {"11-F30": {"distance": 11, "rank": 89, "pace": 300000000000, "time": 3302.4}}, "weekday": "saturday", "livingplace": "Bern"}}, "location": "Bremgarten AG"}, "Schweizer Frauenlauf Bern": {"latitude": 46.9479739, "longitude": 7.4474468, "race": "Schweizer Frauenlauf Bern", "date": {"dim. 15.06.2014": {"year": 2014, "day": 15, "month": 6, "categories": {"5-W30": {"distance": 5, "rank": 54, "pace": 301000000000, "time": 1507.2}}, "weekday": "sunday", "livingplace": "Bern"}}, "location": "Bern"}, "Ch\u00e4sitzerlouf, Kehrsatz": {"latitude": NaN, "longitude": NaN, "race": "Ch\u00e4sitzerlouf, Kehrsatz", "date": {"sam. 25.04.2015": {"year": 2015, "day": 25, "month": 4, "categories": {"12-F30": {"distance": 12, "rank": 22, "pace": 305000000000, "time": 3671.4}}, "weekday": "saturday", "livingplace": "Bern"}}, "location": "Kehrsatz"}, "Aletsch-Halbmarathon, Bettmeralp": {"latitude": NaN, "longitude": NaN, "race": "Aletsch-Halbmarathon, Bettmeralp", "date": {"dim. 28.06.2015": {"year": 2015, "day": 28, "month": 6, "categories": {"F20": {"distance": 21, "rank": 127, "pace": 524000000000, "time": 11068.1}}, "weekday": "sunday", "livingplace": "Bern"}}, "location": "Bettmeralp"}, "Kerzerslauf": {"latitude": 46.97488999999999, "longitude": 7.1954365, "race": "Kerzerslauf", "date": {"sam. 21.03.2015": {"year": 2015, "day": 21, "month": 3, "categories": {"15-F20": {"distance": 15, "rank": 137, "pace": 308000000000, "time": 4632.5}}, "weekday": "saturday", "livingplace": "Bern"}}, "location": "Kerzers"}, "Z\u00fcrcher Silvesterlauf, Z\u00fcrich": {"latitude": 47.3768866, "longitude": 8.541694, "race": "Z\u00fcrcher Silvesterlauf, Z\u00fcrich", "date": {"dim. 15.12.2013": {"year": 2013, "day": 15, "month": 12, "categories": {"10-F30": {"distance": 10, "rank": 527, "pace": 363000000000, "time": 3638.9}}, "weekday": "sunday", "livingplace": "Horgen"}}, "location": "Z\u00fcrich"}}, "birth": 1983}