{"name": "Boccard Mathieu", "sex": "M", "races": {"BCN Tour #1 Corcelles": {"latitude": 46.9668714, "longitude": 6.8589727, "race": "BCN Tour #1 Corcelles", "date": {"mer. 24.04.2013": {"year": 2013, "day": 24, "month": 4, "categories": {"HE": {"distance": 10, "rank": 214, "pace": 315000000000, "time": 3091.9}}, "weekday": "wednesday", "livingplace": "Neuchatel"}}, "location": "Colombier NE"}, "BCN Tour M\u00f4tier": {"latitude": 46.9262933, "longitude": 6.6324944, "race": "BCN Tour M\u00f4tier", "date": {"mer. 19.05.2010": {"year": 2010, "day": 19, "month": 5, "categories": {"HE": {"distance": 10, "rank": 94, "pace": 285000000000, "time": 2825.9}}, "weekday": "wednesday", "livingplace": "Neuchatel"}}, "location": "Couvet"}, "BCN Tour La Br\u00e9vine": {"latitude": 46.999113, "longitude": 6.733554799999999, "race": "BCN Tour La Br\u00e9vine", "date": {"mer. 04.05.2011": {"year": 2011, "day": 4, "month": 5, "categories": {"HE": {"distance": 10, "rank": 178, "pace": 339000000000, "time": 3396.7}}, "weekday": "wednesday", "livingplace": "Neuchatel"}}, "location": "Les Ponts-de-Martel"}, "BCN Tour Fontaine Cernier": {"latitude": 47.0624261, "longitude": 6.9175754, "race": "BCN Tour Fontaine Cernier", "date": {"mer. 27.04.2011": {"year": 2011, "day": 27, "month": 4, "categories": {"HE": {"distance": 10, "rank": 197, "pace": 324000000000, "time": 3344.9}}, "weekday": "wednesday", "livingplace": "Neuchatel"}}, "location": "Ch\u00e9zard-St-Martin"}, "BCN Tour Le Locle": {"latitude": 46.999113, "longitude": 6.733554799999999, "race": "BCN Tour Le Locle", "date": {"mer. 05.05.2010": {"year": 2010, "day": 5, "month": 5, "categories": {"HE": {"distance": 11, "rank": 86, "pace": 303000000000, "time": 3310.6}}, "weekday": "wednesday", "livingplace": "Neuchatel"}}, "location": "Les Ponts-de-Martel"}, "BCN Tour Ponts-de-Martel": {"latitude": 47.0624261, "longitude": 6.9175754, "race": "BCN Tour Ponts-de-Martel", "date": {"mer. 28.04.2010": {"year": 2010, "day": 28, "month": 4, "categories": {"HE": {"distance": 11, "rank": 91, "pace": 311000000000, "time": 3486.1}}, "weekday": "wednesday", "livingplace": "Neuchatel"}}, "location": "Ch\u00e9zard-St-Martin"}, "BCN Tour Auvernier": {"latitude": 46.9668714, "longitude": 6.8589727, "race": "BCN Tour Auvernier", "date": {"mer. 20.04.2011": {"year": 2011, "day": 20, "month": 4, "categories": {"HE": {"distance": 11, "rank": 112, "pace": 309000000000, "time": 3344.7}}, "weekday": "wednesday", "livingplace": "Neuchatel"}}, "location": "Colombier NE"}, "BCN Tour #2 La Chaux-de-Fonds": {"latitude": 47.0624261, "longitude": 6.9175754, "race": "BCN Tour #2 La Chaux-de-Fonds", "date": {"mer. 01.05.2013": {"year": 2013, "day": 1, "month": 5, "categories": {"HE": {"distance": 11, "rank": 221, "pace": 304000000000, "time": 3261.0}}, "weekday": "wednesday", "livingplace": "Neuchatel"}}, "location": "Ch\u00e9zard-St-Martin"}, "BCN Tour La Chaux-de-Fonds": {"latitude": 47.1034892, "longitude": 6.832783800000001, "race": "BCN Tour La Chaux-de-Fonds", "date": {"mer. 23.05.2012": {"year": 2012, "day": 23, "month": 5, "categories": {"HE": {"distance": 11, "rank": 223, "pace": 352000000000, "time": 3802.6}}, "weekday": "wednesday", "livingplace": "Neuchatel"}, "mer. 11.05.2011": {"year": 2011, "day": 11, "month": 5, "categories": {"HE": {"distance": 11, "rank": 138, "pace": 360000000000, "time": 3859.5}}, "weekday": "wednesday", "livingplace": "Neuchatel"}}, "location": "La Chaux-de-Fonds"}, "BCN Tour #6 Neuch\u00e2tel": {"latitude": 46.9899874, "longitude": 6.9292732, "race": "BCN Tour #6 Neuch\u00e2tel", "date": {"mer. 29.05.2013": {"year": 2013, "day": 29, "month": 5, "categories": {"HE": {"distance": 11, "rank": 244, "pace": 331000000000, "time": 3648.3}}, "weekday": "wednesday", "livingplace": "Neuchatel"}}, "location": "Neuch\u00e2tel"}, "BCN Tour Les Ponts-de-Martel": {"latitude": 46.999113, "longitude": 6.733554799999999, "race": "BCN Tour Les Ponts-de-Martel", "date": {"mer. 09.05.2012": {"year": 2012, "day": 9, "month": 5, "categories": {"HE": {"distance": 10, "rank": 210, "pace": 338000000000, "time": 3489.5}}, "weekday": "wednesday", "livingplace": "Neuchatel"}}, "location": "Les Ponts-de-Martel"}, "BCN Tour Neuch\u00e2tel": {"latitude": 46.9899874, "longitude": 6.9292732, "race": "BCN Tour Neuch\u00e2tel", "date": {"mer. 26.05.2010": {"year": 2010, "day": 26, "month": 5, "categories": {"HE": {"distance": 10, "rank": 149, "pace": 380000000000, "time": 3694.1}}, "weekday": "wednesday", "livingplace": "Neuchatel"}, "mer. 30.05.2012": {"year": 2012, "day": 30, "month": 5, "categories": {"HE": {"distance": 11, "rank": 223, "pace": 357000000000, "time": 3998.4}}, "weekday": "wednesday", "livingplace": "Neuchatel"}, "mer. 25.05.2011": {"year": 2011, "day": 25, "month": 5, "categories": {"HE": {"distance": 11, "rank": 162, "pace": 322000000000, "time": 3681.0}}, "weekday": "wednesday", "livingplace": "Neuchatel"}}, "location": "Neuch\u00e2tel"}, "BCN Tour La Chaux-de-fonds": {"latitude": 47.1034892, "longitude": 6.832783800000001, "race": "BCN Tour La Chaux-de-fonds", "date": {"mer. 12.05.2010": {"year": 2010, "day": 12, "month": 5, "categories": {"HE": {"distance": 11, "rank": 112, "pace": 380000000000, "time": 4075.2}}, "weekday": "wednesday", "livingplace": "Neuchatel"}}, "location": "La Chaux-de-Fonds"}, "BCN Tour Colombier": {"latitude": 46.9668714, "longitude": 6.8589727, "race": "BCN Tour Colombier", "date": {"mer. 16.05.2012": {"year": 2012, "day": 16, "month": 5, "categories": {"HE": {"distance": 11, "rank": 254, "pace": 354000000000, "time": 3823.9}}, "weekday": "wednesday", "livingplace": "Neuchatel"}, "mer. 21.04.2010": {"year": 2010, "day": 21, "month": 4, "categories": {"HE": {"distance": 10, "rank": 44, "pace": 302000000000, "time": 3022.5}}, "weekday": "wednesday", "livingplace": "Neuchatel"}}, "location": "Colombier NE"}}, "birth": 1985}