{"name": "Boers Marc", "sex": "M", "races": {"Tour du Pays de Vaud #2 - Genolier": {"latitude": 46.5955273, "longitude": 6.7702883, "race": "Tour du Pays de Vaud #2 - Genolier", "date": {"mer. 15.08.2012": {"year": 2012, "day": 15, "month": 8, "categories": {"H-Sen1": {"distance": 9, "rank": 75, "pace": 281000000000, "time": 2391.0}}, "weekday": "wednesday", "livingplace": "Lausanne"}}, "location": "M\u00e9zi\u00e8res VD"}, "Lausanne Marathon": {"latitude": 46.5196535, "longitude": 6.6322734, "race": "Lausanne Marathon", "date": {"dim. 28.10.2012": {"year": 2012, "day": 28, "month": 10, "categories": {"10-H2": {"distance": 10, "rank": 114, "pace": 265000000000, "time": 2657.7}}, "weekday": "sunday", "livingplace": "Lausanne"}}, "location": "Lausanne"}, "D\u00e9fi du vignoble, Cully": {"latitude": 45.565921, "longitude": -122.6066627, "race": "D\u00e9fi du vignoble, Cully", "date": {"mer. 14.05.2014": {"year": 2014, "day": 14, "month": 5, "categories": {"M30": {"distance": 4, "rank": 46, "pace": 533000000000, "time": 1942.0}}, "weekday": "wednesday", "livingplace": "Cully"}}, "location": "Cully"}, "Course de l'Escalade, Gen\u00e8ve": {"latitude": 46.2043907, "longitude": 6.1431577, "race": "Course de l'Escalade, Gen\u00e8ve", "date": {"sam. 02.12.2006": {"year": 2006, "day": 2, "month": 12, "categories": {"Hommes1": {"distance": 7, "rank": 578, "pace": 296000000000, "time": 2146.1}}, "weekday": "saturday", "livingplace": "Borex"}, "sam. 01.12.2012": {"year": 2012, "day": 1, "month": 12, "categories": {"Esc-Hom2": {"distance": 7, "rank": 456, "pace": 278000000000, "time": 2015.7}}, "weekday": "saturday", "livingplace": "Lausanne"}}, "location": "Gen\u00e8ve"}, "Tour du Pays de Vaud #3 - Chavornay": {"latitude": 46.7784736, "longitude": 6.641183, "race": "Tour du Pays de Vaud #3 - Chavornay", "date": {"mer. 28.08.2013": {"year": 2013, "day": 28, "month": 8, "categories": {"H-Sen1": {"distance": 9, "rank": 80, "pace": 283000000000, "time": 2526.4}}, "weekday": "wednesday", "livingplace": "Cully"}}, "location": "Yverdon-les-Bains"}, "Tour du Pays de Vaud #3 - Mezi\u00e8res": {"latitude": 46.7784736, "longitude": 6.641183, "race": "Tour du Pays de Vaud #3 - Mezi\u00e8res", "date": {"mer. 22.08.2012": {"year": 2012, "day": 22, "month": 8, "categories": {"H-Sen1": {"distance": 8, "rank": 138, "pace": 347000000000, "time": 2916.9}}, "weekday": "wednesday", "livingplace": "Lausanne"}}, "location": "Yverdon-les-Bains"}, "20km de Lausanne": {"latitude": 46.5196535, "longitude": 6.6322734, "race": "20km de Lausanne", "date": {"sam. 30.04.2011": {"year": 2011, "day": 30, "month": 4, "categories": {"10-H30": {"distance": 10, "rank": 230, "pace": 283000000000, "time": 2838.6}}, "weekday": "saturday", "livingplace": "Lausanne"}, "sam. 27.04.2013": {"year": 2013, "day": 27, "month": 4, "categories": {"10-H30": {"distance": 10, "rank": 204, "pace": 267000000000, "time": 2675.5}}, "weekday": "saturday", "livingplace": "Aleva"}, "sam. 26.04.2014": {"year": 2014, "day": 26, "month": 4, "categories": {"20-H30": {"distance": 20, "rank": 424, "pace": 295000000000, "time": 5916.4}}, "weekday": "saturday", "livingplace": "Aleva"}}, "location": "Lausanne"}, "Tour du Pays de Vaud #4 - La Sarraz": {"latitude": 46.7088129, "longitude": 6.5707689, "race": "Tour du Pays de Vaud #4 - La Sarraz", "date": {"mer. 29.08.2012": {"year": 2012, "day": 29, "month": 8, "categories": {"H-Sen1": {"distance": 9, "rank": 94, "pace": 282000000000, "time": 2402.6}}, "weekday": "wednesday", "livingplace": "Lausanne"}}, "location": "Chavornay"}, "Tour du pays de Vaud #1 - Penthaz": {"latitude": 46.5993131, "longitude": 6.539251200000001, "race": "Tour du pays de Vaud #1 - Penthaz", "date": {"mer. 08.08.2012": {"year": 2012, "day": 8, "month": 8, "categories": {"H-Sen1": {"distance": 9, "rank": 66, "pace": 280000000000, "time": 2393.3}}, "weekday": "wednesday", "livingplace": "Lausanne"}}, "location": "Penthaz"}, "Les Traine-Savates, Cheseaux-sur-Lausanne": {"latitude": 46.585452, "longitude": 6.6047712, "race": "Les Traine-Savates, Cheseaux-sur-Lausanne", "date": {"sam. 12.04.2014": {"year": 2014, "day": 12, "month": 4, "categories": {"10-M20": {"distance": 10, "rank": 130, "pace": 280000000000, "time": 2894.0}}, "weekday": "saturday", "livingplace": "Cully"}}, "location": "Cheseaux-sur-Lausanne"}}, "birth": 1980}