{"name": "Bonvin Jacques", "sex": "M", "races": {"Tour du Pays de Vaud #3 - Chavornay": {"latitude": 46.7784736, "longitude": 6.641183, "race": "Tour du Pays de Vaud #3 - Chavornay", "date": {"mer. 28.08.2013": {"year": 2013, "day": 28, "month": 8, "categories": {"H-Sen4": {"distance": 9, "rank": 30, "pace": 366000000000, "time": 3260.2}}, "weekday": "wednesday", "livingplace": "La Conversion"}}, "location": "Yverdon-les-Bains"}, "Tour du Pays de Vaud printanier #2 Yverdon-les-Bains": {"latitude": 46.6698891, "longitude": 6.7975224, "race": "Tour du Pays de Vaud printanier #2 Yverdon-les-Bains", "date": {"mer. 11.06.2014": {"year": 2014, "day": 11, "month": 6, "categories": {"H-Sen4": {"distance": 9, "rank": 4, "pace": 394000000000, "time": 3588.1}}, "weekday": "wednesday", "livingplace": "La Conversion"}}, "location": "Moudon"}, "Tour du Pays de Vaud printanier #1 Moudon": {"latitude": 46.3832683, "longitude": 6.2347852, "race": "Tour du Pays de Vaud printanier #1 Moudon", "date": {"mer. 04.06.2014": {"year": 2014, "day": 4, "month": 6, "categories": {"H-Sen4": {"distance": 8, "rank": 5, "pace": 361000000000, "time": 3034.2}}, "weekday": "wednesday", "livingplace": "La Conversion"}}, "location": "Nyon"}, "Tour du Pays de Vaud printanier #3 - Yens": {"latitude": 46.7829756, "longitude": 6.5728678, "race": "Tour du Pays de Vaud printanier #3 - Yens", "date": {"mer. 18.06.2014": {"year": 2014, "day": 18, "month": 6, "categories": {"H-Sen4": {"distance": 9, "rank": 3, "pace": 350000000000, "time": 3194.0}}, "weekday": "wednesday", "livingplace": "La Conversion"}}, "location": "Champvent"}, "Tour du Pays de Vaud #2, Mezi\u00e8res": {"latitude": 46.5955273, "longitude": 6.7702883, "race": "Tour du Pays de Vaud #2, Mezi\u00e8res", "date": {"mer. 20.08.2014": {"year": 2014, "day": 20, "month": 8, "categories": {"H-Sen4": {"distance": 8, "rank": 24, "pace": 389000000000, "time": 3158.0}}, "weekday": "wednesday", "livingplace": "La Conversion"}}, "location": "M\u00e9zi\u00e8res VD"}, "Tour du Pays de Vaud #2 - Mezi\u00e8res": {"latitude": 46.5955273, "longitude": 6.7702883, "race": "Tour du Pays de Vaud #2 - Mezi\u00e8res", "date": {"mer. 21.08.2013": {"year": 2013, "day": 21, "month": 8, "categories": {"H-Sen4": {"distance": 8, "rank": 32, "pace": 399000000000, "time": 3238.8}}, "weekday": "wednesday", "livingplace": "La Conversion"}}, "location": "M\u00e9zi\u00e8res VD"}, "Morat-Fribourg": {"latitude": 46.92922110000001, "longitude": 7.120184, "race": "Morat-Fribourg", "date": {"sam. 03.10.2015": {"year": 2015, "day": 3, "month": 10, "categories": {"17-M70": {"distance": 17, "rank": 31, "pace": 390000000000, "time": 6698.8}}, "weekday": "saturday", "livingplace": "La Conversion"}}, "location": "Murten"}, "20km de Lausanne": {"latitude": 46.5196535, "longitude": 6.6322734, "race": "20km de Lausanne", "date": {"sam. 26.04.2014": {"year": 2014, "day": 26, "month": 4, "categories": {"10-H65": {"distance": 10, "rank": 38, "pace": 354000000000, "time": 3546.8}}, "weekday": "saturday", "livingplace": "La Conversion"}}, "location": "Lausanne"}, "Tour du Pays de Vaud #4 - La Sarraz": {"latitude": 46.7088129, "longitude": 6.5707689, "race": "Tour du Pays de Vaud #4 - La Sarraz", "date": {"mer. 04.09.2013": {"year": 2013, "day": 4, "month": 9, "categories": {"H-Sen4": {"distance": 9, "rank": 30, "pace": 367000000000, "time": 3119.6}}, "weekday": "wednesday", "livingplace": "La Conversion"}}, "location": "Chavornay"}, "Tour du Pays de Vaud #1, Penthaz": {"latitude": 46.5993131, "longitude": 6.539251200000001, "race": "Tour du Pays de Vaud #1, Penthaz", "date": {"mer. 13.08.2014": {"year": 2014, "day": 13, "month": 8, "categories": {"H-Sen4": {"distance": 9, "rank": 28, "pace": 353000000000, "time": 3015.9}}, "weekday": "wednesday", "livingplace": "La Conversion"}}, "location": "Penthaz"}, "Tour du Pays de Vaud #3, Chavornay": {"latitude": 46.7784736, "longitude": 6.641183, "race": "Tour du Pays de Vaud #3, Chavornay", "date": {"mer. 27.08.2014": {"year": 2014, "day": 27, "month": 8, "categories": {"H-Sen4": {"distance": 9, "rank": 30, "pace": 376000000000, "time": 3238.1}}, "weekday": "wednesday", "livingplace": "La Conversion"}}, "location": "Yverdon-les-Bains"}}, "birth": 1945}