{"name": "Borloz Nadia", "sex": "F", "races": {"Tour du Chablais #2 Rennaz": {"latitude": 46.3835529, "longitude": 6.854975199999999, "race": "Tour du Chablais #2 Rennaz", "date": {"mer. 04.05.2011": {"year": 2011, "day": 4, "month": 5, "categories": {"F-F20": {"distance": 9, "rank": 97, "pace": 349000000000, "time": 3264.6}}, "weekday": "wednesday", "livingplace": "Glion"}}, "location": "Bouveret"}, "Tour du Chablais #4 Morgins": {"latitude": NaN, "longitude": NaN, "race": "Tour du Chablais #4 Morgins", "date": {"mer. 18.05.2011": {"year": 2011, "day": 18, "month": 5, "categories": {"F-F20": {"distance": 8, "rank": 21, "pace": 301000000000, "time": 2519.9}}, "weekday": "wednesday", "livingplace": "Glion"}}, "location": "Les Mosses"}, "Tour du Chablais #3 Le Bouveret": {"latitude": 46.1782231, "longitude": 7.0223787, "race": "Tour du Chablais #3 Le Bouveret", "date": {"mer. 11.05.2011": {"year": 2011, "day": 11, "month": 5, "categories": {"F-F20": {"distance": 10, "rank": 103, "pace": 355000000000, "time": 3557.4}}, "weekday": "wednesday", "livingplace": "Glion"}}, "location": "Evionnaz"}, "20km de Lausanne": {"latitude": 46.5196535, "longitude": 6.6322734, "race": "20km de Lausanne", "date": {"sam. 30.04.2011": {"year": 2011, "day": 30, "month": 4, "categories": {"10-F30": {"distance": 10, "rank": 365, "pace": 358000000000, "time": 3589.3}}, "weekday": "saturday", "livingplace": "Ochsner Sport"}, "sam. 28.04.2012": {"year": 2012, "day": 28, "month": 4, "categories": {"10-F30": {"distance": 10, "rank": 432, "pace": 370000000000, "time": 3703.1}}, "weekday": "saturday", "livingplace": "Glion"}, "sam. 26.04.2014": {"year": 2014, "day": 26, "month": 4, "categories": {"10-F30": {"distance": 10, "rank": 478, "pace": 364000000000, "time": 3649.7}}, "weekday": "saturday", "livingplace": "Puidoux"}}, "location": "Lausanne"}, "Tour du Chablais #1 Lavey": {"latitude": 46.2957462, "longitude": 6.9916269, "race": "Tour du Chablais #1 Lavey", "date": {"mer. 27.04.2011": {"year": 2011, "day": 27, "month": 4, "categories": {"F-F20": {"distance": 9, "rank": 85, "pace": 351000000000, "time": 3162.9}}, "weekday": "wednesday", "livingplace": "Glion"}}, "location": "Ollon VD"}, "Tour du Chablais #4 Champ\u00e9ry": {"latitude": NaN, "longitude": NaN, "race": "Tour du Chablais #4 Champ\u00e9ry", "date": {"mer. 02.05.2012": {"year": 2012, "day": 2, "month": 5, "categories": {"F-F20": {"distance": 8, "rank": 105, "pace": 364000000000, "time": 3027.6}}, "weekday": "wednesday", "livingplace": "Glion"}}, "location": "Les Mosses"}, "Tour du Chablais #5 Les Mosses": {"latitude": 46.3603257, "longitude": 6.931504599999999, "race": "Tour du Chablais #5 Les Mosses", "date": {"mer. 25.05.2011": {"year": 2011, "day": 25, "month": 5, "categories": {"F-F20": {"distance": 8, "rank": 110, "pace": 412000000000, "time": 3299.2}}, "weekday": "wednesday", "livingplace": "Glion"}}, "location": "Roche VD"}, "Tour du pays de Vaud #5 - Penthaz": {"latitude": 46.5993131, "longitude": 6.539251200000001, "race": "Tour du pays de Vaud #5 - Penthaz", "date": {"mer. 07.09.2011": {"year": 2011, "day": 7, "month": 9, "categories": {"D-Sen1": {"distance": 8, "rank": 49, "pace": 413000000000, "time": 3450.1}}, "weekday": "wednesday", "livingplace": "Glion"}}, "location": "Penthaz"}, "Tour du Chablais #6 Aigle": {"latitude": 46.3190253, "longitude": 6.970566, "race": "Tour du Chablais #6 Aigle", "date": {"mer. 01.06.2011": {"year": 2011, "day": 1, "month": 6, "categories": {"F-F20": {"distance": 10, "rank": 110, "pace": 348000000000, "time": 3553.1}}, "weekday": "wednesday", "livingplace": "Glion"}}, "location": "Aigle"}, "La Montheysanne, Monthey": {"latitude": 46.2521873, "longitude": 6.9469598, "race": "La Montheysanne, Monthey", "date": {"dim. 24.08.2014": {"year": 2014, "day": 24, "month": 8, "categories": {"5-DA1": {"distance": 5, "rank": 29, "pace": 352000000000, "time": 1760.3}}, "weekday": "sunday", "livingplace": "La Tour de Peilz"}}, "location": "Monthey"}, "Tour du Chablais #2 Bex": {"latitude": 46.3835529, "longitude": 6.854975199999999, "race": "Tour du Chablais #2 Bex", "date": {"mer. 18.04.2012": {"year": 2012, "day": 18, "month": 4, "categories": {"F-F20": {"distance": 8, "rank": 116, "pace": 360000000000, "time": 2886.6}}, "weekday": "wednesday", "livingplace": "Glion"}}, "location": "Bouveret"}, "Tour du Chablais #3 Collombey-Muraz": {"latitude": 46.1782231, "longitude": 7.0223787, "race": "Tour du Chablais #3 Collombey-Muraz", "date": {"mer. 25.04.2012": {"year": 2012, "day": 25, "month": 4, "categories": {"F-F20": {"distance": 9, "rank": 106, "pace": 356000000000, "time": 3205.8}}, "weekday": "wednesday", "livingplace": "Glion"}}, "location": "Evionnaz"}}, "birth": 1980}