{"name": "Boscaglia Damien", "sex": "M", "races": {"BCN Tour #2 La Chaux-de-Fonds": {"latitude": 47.0624261, "longitude": 6.9175754, "race": "BCN Tour #2 La Chaux-de-Fonds", "date": {"mer. 01.05.2013": {"year": 2013, "day": 1, "month": 5, "categories": {"HE": {"distance": 11, "rank": 242, "pace": 310000000000, "time": 3323.1}}, "weekday": "wednesday", "livingplace": "Fleurier"}}, "location": "Ch\u00e9zard-St-Martin"}, "BCN Tour #1 Corcelles": {"latitude": 46.9668714, "longitude": 6.8589727, "race": "BCN Tour #1 Corcelles", "date": {"mer. 24.04.2013": {"year": 2013, "day": 24, "month": 4, "categories": {"HE": {"distance": 10, "rank": 192, "pace": 307000000000, "time": 3015.9}}, "weekday": "wednesday", "livingplace": "Fleurier"}}, "location": "Colombier NE"}, "BCN Tour La Chaux-de-Fonds": {"latitude": 46.9262933, "longitude": 6.6324944, "race": "BCN Tour La Chaux-de-Fonds", "date": {"mer. 23.05.2012": {"year": 2012, "day": 23, "month": 5, "categories": {"HE": {"distance": 11, "rank": 161, "pace": 315000000000, "time": 3406.8}}, "weekday": "wednesday", "livingplace": "Fleurier"}}, "location": "Couvet"}, "BCN Tour Les Ponts-de-Martel": {"latitude": 46.999113, "longitude": 6.733554799999999, "race": "BCN Tour Les Ponts-de-Martel", "date": {"mer. 09.05.2012": {"year": 2012, "day": 9, "month": 5, "categories": {"HE": {"distance": 10, "rank": 150, "pace": 312000000000, "time": 3219.1}}, "weekday": "wednesday", "livingplace": "Fleurier"}}, "location": "Les Ponts-de-Martel"}, "D\u00e9fi Val-de-Travers, Couvet": {"latitude": 46.9262933, "longitude": 6.6324944, "race": "D\u00e9fi Val-de-Travers, Couvet", "date": {"sam. 20.06.2009": {"year": 2009, "day": 20, "month": 6, "categories": {"SH": {"distance": 20, "rank": 32, "pace": 381000000000, "time": 7520.8}}, "weekday": "saturday", "livingplace": "Couvet"}}, "location": "Couvet"}, "BCN Tour Neuch\u00e2tel": {"latitude": 46.9899874, "longitude": 6.9292732, "race": "BCN Tour Neuch\u00e2tel", "date": {"mer. 30.05.2012": {"year": 2012, "day": 30, "month": 5, "categories": {"HE": {"distance": 11, "rank": 170, "pace": 324000000000, "time": 3630.1}}, "weekday": "wednesday", "livingplace": "Fleurier"}}, "location": "Neuch\u00e2tel"}, "La Trotteuse-Tissot, La Chaux-de-Fonds": {"latitude": 47.1034892, "longitude": 6.832783800000001, "race": "La Trotteuse-Tissot, La Chaux-de-Fonds", "date": {"sam. 14.12.2013": {"year": 2013, "day": 14, "month": 12, "categories": {"GC-H20": {"distance": 8, "rank": 108, "pace": 297000000000, "time": 2377.2}}, "weekday": "saturday", "livingplace": "Fleurier"}}, "location": "La Chaux-de-Fonds"}, "BCN Tour Couvet": {"latitude": 47.0624261, "longitude": 6.9175754, "race": "BCN Tour Couvet", "date": {"mer. 02.05.2012": {"year": 2012, "day": 2, "month": 5, "categories": {"HE": {"distance": 11, "rank": 158, "pace": 332000000000, "time": 3704.9}}, "weekday": "wednesday", "livingplace": "Fleurier"}}, "location": "Ch\u00e9zard-St-Martin"}, "BCN Tour Colombier": {"latitude": 47.1034892, "longitude": 6.832783800000001, "race": "BCN Tour Colombier", "date": {"mer. 16.05.2012": {"year": 2012, "day": 16, "month": 5, "categories": {"HE": {"distance": 11, "rank": 162, "pace": 305000000000, "time": 3297.4}}, "weekday": "wednesday", "livingplace": "Fleurier"}}, "location": "La Chaux-de-Fonds"}, "BCN Tour #3 Dombresson": {"latitude": 46.999113, "longitude": 6.733554799999999, "race": "BCN Tour #3 Dombresson", "date": {"mer. 08.05.2013": {"year": 2013, "day": 8, "month": 5, "categories": {"HE": {"distance": 10, "rank": 208, "pace": 298000000000, "time": 2953.1}}, "weekday": "wednesday", "livingplace": "Fleurier"}}, "location": "Les Ponts-de-Martel"}, "BCN Tour Cornaux": {"latitude": 46.9668714, "longitude": 6.8589727, "race": "BCN Tour Cornaux", "date": {"mer. 25.04.2012": {"year": 2012, "day": 25, "month": 4, "categories": {"HE": {"distance": 11, "rank": 178, "pace": 373000000000, "time": 4107.8}}, "weekday": "wednesday", "livingplace": "Fleurier"}}, "location": "Colombier NE"}}, "birth": 1988}