{"name": "Boschung Solange", "sex": "F", "races": {"Groupe E Tour Fribourg #4, Siviriez": {"latitude": 46.6585092, "longitude": 6.877722, "race": "Groupe E Tour Fribourg #4, Siviriez", "date": {"mer. 10.09.2014": {"year": 2014, "day": 10, "month": 9, "categories": {"D-Dam3": {"distance": 11, "rank": 15, "pace": 414000000000, "time": 4481.0}}, "weekday": "wednesday", "livingplace": "Cottens"}}, "location": "Siviriez"}, "Groupe E Tour Fribourg #3, Kerzers": {"latitude": 46.97488999999999, "longitude": 7.1954365, "race": "Groupe E Tour Fribourg #3, Kerzers", "date": {"mer. 03.09.2014": {"year": 2014, "day": 3, "month": 9, "categories": {"D-Dam3": {"distance": 10, "rank": 22, "pace": 352000000000, "time": 3587.4}}, "weekday": "wednesday", "livingplace": "Cottens"}}, "location": "Kerzers"}, "Groupe E Tour Fribourg #5, Givisiez": {"latitude": 46.8128615, "longitude": 7.131657799999999, "race": "Groupe E Tour Fribourg #5, Givisiez", "date": {"mer. 17.09.2014": {"year": 2014, "day": 17, "month": 9, "categories": {"D-Dam3": {"distance": 10, "rank": 31, "pace": 370000000000, "time": 3803.7}}, "weekday": "wednesday", "livingplace": "Cottens"}}, "location": "Givisiez"}, "Morat-Fribourg": {"latitude": 46.92922110000001, "longitude": 7.120184, "race": "Morat-Fribourg", "date": {"sam. 03.10.2015": {"year": 2015, "day": 3, "month": 10, "categories": {"17-W40": {"distance": 17, "rank": 215, "pace": 375000000000, "time": 6443.4}}, "weekday": "saturday", "livingplace": "Cottens"}, "sam. 04.10.2014": {"year": 2014, "day": 4, "month": 10, "categories": {"17-W40": {"distance": 17, "rank": 229, "pace": 377000000000, "time": 6476.0}}, "weekday": "saturday", "livingplace": "Cottens"}}, "location": "Murten"}, "Groupe E Tour Fribourg #2, Charmey": {"latitude": 46.6175845, "longitude": 7.1654493, "race": "Groupe E Tour Fribourg #2, Charmey", "date": {"mer. 27.08.2014": {"year": 2014, "day": 27, "month": 8, "categories": {"D-Dam3": {"distance": 10, "rank": 15, "pace": 401000000000, "time": 3876.5}}, "weekday": "wednesday", "livingplace": "Cottens"}}, "location": "Charmey (Gruy\u00e8re)"}}, "birth": 1974}