{"name": "Bosshard Caroline", "sex": "F", "races": {"Tour du Chablais #1 Roche": {"latitude": 46.2957462, "longitude": 6.9916269, "race": "Tour du Chablais #1 Roche", "date": {"mer. 07.04.2010": {"year": 2010, "day": 7, "month": 4, "categories": {"F-F20": {"distance": 9, "rank": 35, "pace": 297000000000, "time": 2660.4}}, "weekday": "wednesday", "livingplace": "Aigle"}, "mer. 03.04.2013": {"year": 2013, "day": 3, "month": 4, "categories": {"F-F20": {"distance": 9, "rank": 66, "pace": 315000000000, "time": 2799.4}}, "weekday": "wednesday", "livingplace": "Aigle"}}, "location": "Ollon VD"}, "Tour du Chablais #2 Rennaz": {"latitude": 46.3835529, "longitude": 6.854975199999999, "race": "Tour du Chablais #2 Rennaz", "date": {"mer. 04.05.2011": {"year": 2011, "day": 4, "month": 5, "categories": {"F-F20": {"distance": 9, "rank": 62, "pace": 325000000000, "time": 3044.3}}, "weekday": "wednesday", "livingplace": "Aigle"}}, "location": "Bouveret"}, "Morat-Fribourg": {"latitude": 46.92922110000001, "longitude": 7.120184, "race": "Morat-Fribourg", "date": {"sam. 05.10.2013": {"year": 2013, "day": 5, "month": 10, "categories": {"17-W20": {"distance": 17, "rank": 488, "pace": 371000000000, "time": 6482.8}}, "weekday": "saturday", "livingplace": "Aigle"}, "sam. 01.10.2011": {"year": 2011, "day": 1, "month": 10, "categories": {"17-W20": {"distance": 17, "rank": 349, "pace": 377000000000, "time": 6482.3}}, "weekday": "saturday", "livingplace": "Aigle"}, "sam. 06.10.2012": {"year": 2012, "day": 6, "month": 10, "categories": {"17-W20": {"distance": 17, "rank": 551, "pace": 423000000000, "time": 7387.4}}, "weekday": "saturday", "livingplace": "Aigle"}, "sam. 04.10.2014": {"year": 2014, "day": 4, "month": 10, "categories": {"17-W20": {"distance": 17, "rank": 471, "pace": 375000000000, "time": 6451.6}}, "weekday": "saturday", "livingplace": "Aigle"}}, "location": "Murten"}, "Tour du Chablais #3 Le Bouveret": {"latitude": 46.1782231, "longitude": 7.0223787, "race": "Tour du Chablais #3 Le Bouveret", "date": {"mer. 11.05.2011": {"year": 2011, "day": 11, "month": 5, "categories": {"F-F20": {"distance": 10, "rank": 75, "pace": 329000000000, "time": 3297.7}}, "weekday": "wednesday", "livingplace": "Aigle"}}, "location": "Evionnaz"}, "Tour du Chablais #6 Monthey": {"latitude": 46.3190253, "longitude": 6.970566, "race": "Tour du Chablais #6 Monthey", "date": {"mer. 08.05.2013": {"year": 2013, "day": 8, "month": 5, "categories": {"F-F20": {"distance": 9, "rank": 84, "pace": 323000000000, "time": 3021.5}}, "weekday": "wednesday", "livingplace": "Aigle"}}, "location": "Aigle"}, "20km de Lausanne": {"latitude": 46.5196535, "longitude": 6.6322734, "race": "20km de Lausanne", "date": {"sam. 30.04.2011": {"year": 2011, "day": 30, "month": 4, "categories": {"10-F20": {"distance": 10, "rank": 164, "pace": 327000000000, "time": 3270.6}}, "weekday": "saturday", "livingplace": "Se bouger pour sa sante 4"}, "sam. 24.04.2010": {"year": 2010, "day": 24, "month": 4, "categories": {"10-F20": {"distance": 10, "rank": 75, "pace": 310000000000, "time": 3106.0}}, "weekday": "saturday", "livingplace": "Ton Hopital se bouge"}, "sam. 27.04.2013": {"year": 2013, "day": 27, "month": 4, "categories": {"20-F30": {"distance": 20, "rank": 167, "pace": 333000000000, "time": 6672.2}}, "weekday": "saturday", "livingplace": "Se bouger pour sa sante 5"}, "sam. 28.04.2012": {"year": 2012, "day": 28, "month": 4, "categories": {"10-F20": {"distance": 10, "rank": 336, "pace": 358000000000, "time": 3586.0}}, "weekday": "saturday", "livingplace": "Se bouger pour sa sante 3"}, "sam. 26.04.2014": {"year": 2014, "day": 26, "month": 4, "categories": {"20-F30": {"distance": 20, "rank": 212, "pace": 368000000000, "time": 7363.3}}, "weekday": "saturday", "livingplace": "Se bouger pour sa sante"}}, "location": "Lausanne"}, "Tour du Chablais #1 Lavey": {"latitude": 46.2957462, "longitude": 6.9916269, "race": "Tour du Chablais #1 Lavey", "date": {"mer. 27.04.2011": {"year": 2011, "day": 27, "month": 4, "categories": {"F-F20": {"distance": 9, "rank": 61, "pace": 330000000000, "time": 2975.4}}, "weekday": "wednesday", "livingplace": "Aigle"}}, "location": "Ollon VD"}, "Tour du Chablais #2 Yvorne": {"latitude": 46.3835529, "longitude": 6.854975199999999, "race": "Tour du Chablais #2 Yvorne", "date": {"mer. 10.04.2013": {"year": 2013, "day": 10, "month": 4, "categories": {"F-F20": {"distance": 8, "rank": 58, "pace": 336000000000, "time": 2691.7}}, "weekday": "wednesday", "livingplace": "Aigle"}}, "location": "Bouveret"}, "Tour du Chablais #5 Leysin": {"latitude": 46.3603257, "longitude": 6.931504599999999, "race": "Tour du Chablais #5 Leysin", "date": {"mer. 05.05.2010": {"year": 2010, "day": 5, "month": 5, "categories": {"F-F20": {"distance": 8, "rank": 38, "pace": 337000000000, "time": 2850.9}}, "weekday": "wednesday", "livingplace": "Aigle"}}, "location": "Roche VD"}, "Tour du Chablais #1 Martigny": {"latitude": 46.2957462, "longitude": 6.9916269, "race": "Tour du Chablais #1 Martigny", "date": {"mer. 23.04.2014": {"year": 2014, "day": 23, "month": 4, "categories": {"F-F20": {"distance": 9, "rank": 97, "pace": 324000000000, "time": 2760.1}}, "weekday": "wednesday", "livingplace": "Aigle"}}, "location": "Ollon VD"}, "Tour du Chablais #4 Champ\u00e9ry": {"latitude": NaN, "longitude": NaN, "race": "Tour du Chablais #4 Champ\u00e9ry", "date": {"mer. 02.05.2012": {"year": 2012, "day": 2, "month": 5, "categories": {"F-F20": {"distance": 8, "rank": 75, "pace": 327000000000, "time": 2715.7}}, "weekday": "wednesday", "livingplace": "Aigle"}}, "location": "Les Mosses"}, "Tour du Chablais #5 Morgins": {"latitude": 46.3603257, "longitude": 6.931504599999999, "race": "Tour du Chablais #5 Morgins", "date": {"mer. 01.05.2013": {"year": 2013, "day": 1, "month": 5, "categories": {"F-F20": {"distance": 8, "rank": 50, "pace": 328000000000, "time": 2498.7}}, "weekday": "wednesday", "livingplace": "Aigle"}}, "location": "Roche VD"}, "Tour du Chablais #5 Les Mosses": {"latitude": 46.3603257, "longitude": 6.931504599999999, "race": "Tour du Chablais #5 Les Mosses", "date": {"mer. 25.05.2011": {"year": 2011, "day": 25, "month": 5, "categories": {"F-F20": {"distance": 8, "rank": 56, "pace": 350000000000, "time": 2801.3}}, "weekday": "wednesday", "livingplace": "Aigle"}}, "location": "Roche VD"}, "Tour du Pays de Vaud printanier #1 Moudon": {"latitude": 46.3832683, "longitude": 6.2347852, "race": "Tour du Pays de Vaud printanier #1 Moudon", "date": {"mer. 29.05.2013": {"year": 2013, "day": 29, "month": 5, "categories": {"D-Sen1": {"distance": 8, "rank": 13, "pace": 331000000000, "time": 2835.5}}, "weekday": "wednesday", "livingplace": "Aigle"}}, "location": "Nyon"}, "Tour du Chablais #6 Aigle": {"latitude": 46.3190253, "longitude": 6.970566, "race": "Tour du Chablais #6 Aigle", "date": {"mer. 01.06.2011": {"year": 2011, "day": 1, "month": 6, "categories": {"F-F20": {"distance": 10, "rank": 85, "pace": 326000000000, "time": 3333.0}}, "weekday": "wednesday", "livingplace": "Aigle"}}, "location": "Aigle"}, "Tour du Chablais #3 Bex": {"latitude": 46.1782231, "longitude": 7.0223787, "race": "Tour du Chablais #3 Bex", "date": {"mer. 21.04.2010": {"year": 2010, "day": 21, "month": 4, "categories": {"F-F20": {"distance": 10, "rank": 35, "pace": 308000000000, "time": 3085.5}}, "weekday": "wednesday", "livingplace": "Aigle"}}, "location": "Evionnaz"}, "Tour du Pays de Vaud printanier #2 Yverdon-les-Bains": {"latitude": 46.6698891, "longitude": 6.7975224, "race": "Tour du Pays de Vaud printanier #2 Yverdon-les-Bains", "date": {"mer. 05.06.2013": {"year": 2013, "day": 5, "month": 6, "categories": {"D-Sen1": {"distance": 9, "rank": 24, "pace": 351000000000, "time": 3197.2}}, "weekday": "wednesday", "livingplace": "Aigle"}}, "location": "Moudon"}, "Tour du Chablais #3 Collombey-Muraz": {"latitude": 46.1782231, "longitude": 7.0223787, "race": "Tour du Chablais #3 Collombey-Muraz", "date": {"mer. 25.04.2012": {"year": 2012, "day": 25, "month": 4, "categories": {"F-F20": {"distance": 9, "rank": 83, "pace": 336000000000, "time": 3022.0}}, "weekday": "wednesday", "livingplace": "Aigle"}}, "location": "Evionnaz"}, "Tour du Pays de Vaud #3 - Chavornay": {"latitude": 46.7784736, "longitude": 6.641183, "race": "Tour du Pays de Vaud #3 - Chavornay", "date": {"mer. 28.08.2013": {"year": 2013, "day": 28, "month": 8, "categories": {"D-Sen1": {"distance": 9, "rank": 44, "pace": 335000000000, "time": 2982.9}}, "weekday": "wednesday", "livingplace": "Aigle"}}, "location": "Yverdon-les-Bains"}, "Tour du Chablais #4 Morgins": {"latitude": NaN, "longitude": NaN, "race": "Tour du Chablais #4 Morgins", "date": {"mer. 18.05.2011": {"year": 2011, "day": 18, "month": 5, "categories": {"F-F20": {"distance": 8, "rank": 60, "pace": 341000000000, "time": 2852.2}}, "weekday": "wednesday", "livingplace": "Aigle"}}, "location": "Les Mosses"}, "Tour du pays de Vaud #1 - Penthaz": {"latitude": 46.5993131, "longitude": 6.539251200000001, "race": "Tour du pays de Vaud #1 - Penthaz", "date": {"mer. 14.08.2013": {"year": 2013, "day": 14, "month": 8, "categories": {"D-Sen1": {"distance": 9, "rank": 40, "pace": 332000000000, "time": 2832.8}}, "weekday": "wednesday", "livingplace": "Aigle"}}, "location": "Penthaz"}, "Tour du Chablais #6 Mouthey": {"latitude": 46.3190253, "longitude": 6.970566, "race": "Tour du Chablais #6 Mouthey", "date": {"mer. 12.05.2010": {"year": 2010, "day": 12, "month": 5, "categories": {"F-F20": {"distance": 9, "rank": 53, "pace": 305000000000, "time": 2810.8}}, "weekday": "wednesday", "livingplace": "Aigle"}}, "location": "Aigle"}, "Tour du Chablais #1 Montreux": {"latitude": 46.2957462, "longitude": 6.9916269, "race": "Tour du Chablais #1 Montreux", "date": {"mer. 11.04.2012": {"year": 2012, "day": 11, "month": 4, "categories": {"F-F20": {"distance": 8, "rank": 76, "pace": 337000000000, "time": 2568.4}}, "weekday": "wednesday", "livingplace": "Aigle"}}, "location": "Ollon VD"}, "Tour du Chablais #6 Montreux": {"latitude": 46.3190253, "longitude": 6.970566, "race": "Tour du Chablais #6 Montreux", "date": {"mer. 16.05.2012": {"year": 2012, "day": 16, "month": 5, "categories": {"F-F20": {"distance": 9, "rank": 87, "pace": 330000000000, "time": 3059.6}}, "weekday": "wednesday", "livingplace": "Aigle"}}, "location": "Aigle"}, "Tour du Chablais #2 St-Gingolph": {"latitude": 46.3835529, "longitude": 6.854975199999999, "race": "Tour du Chablais #2 St-Gingolph", "date": {"mer. 14.04.2010": {"year": 2010, "day": 14, "month": 4, "categories": {"F-F20": {"distance": 8, "rank": 37, "pace": 336000000000, "time": 2806.2}}, "weekday": "wednesday", "livingplace": "Aigle"}}, "location": "Bouveret"}, "Tour du Chablais #4 Yvorne": {"latitude": NaN, "longitude": NaN, "race": "Tour du Chablais #4 Yvorne", "date": {"mer. 28.04.2010": {"year": 2010, "day": 28, "month": 4, "categories": {"F-F20": {"distance": 8, "rank": 34, "pace": 326000000000, "time": 2700.0}}, "weekday": "wednesday", "livingplace": "Aigle"}}, "location": "Les Mosses"}, "Tour du Chablais #2 Bex": {"latitude": 46.3835529, "longitude": 6.854975199999999, "race": "Tour du Chablais #2 Bex", "date": {"mer. 18.04.2012": {"year": 2012, "day": 18, "month": 4, "categories": {"F-F20": {"distance": 8, "rank": 70, "pace": 324000000000, "time": 2599.2}}, "weekday": "wednesday", "livingplace": "Aigle"}}, "location": "Bouveret"}, "Tour du Chablais #3 Bouveret": {"latitude": 46.1782231, "longitude": 7.0223787, "race": "Tour du Chablais #3 Bouveret", "date": {"mer. 17.04.2013": {"year": 2013, "day": 17, "month": 4, "categories": {"F-F20": {"distance": 10, "rank": 81, "pace": 334000000000, "time": 3346.4}}, "weekday": "wednesday", "livingplace": "Aigle"}}, "location": "Evionnaz"}}, "birth": 1983}