{"name": "Bossy G\u00e9rald", "sex": "M", "races": {"Groupe E Tour Fribourg #1 Gurmels": {"latitude": 46.81832, "longitude": 6.977279999999999, "race": "Groupe E Tour Fribourg #1 Gurmels", "date": {"mer. 29.08.2012": {"year": 2012, "day": 29, "month": 8, "categories": {"HS1": {"distance": 8, "rank": 13, "pace": 250000000000, "time": 2108.0}}, "weekday": "wednesday", "livingplace": "Villeneuve"}}, "location": "Cousset"}, "Groupe E Tour Fribourg #4 Montagny": {"latitude": 46.6585092, "longitude": 6.877722, "race": "Groupe E Tour Fribourg #4 Montagny", "date": {"mer. 11.09.2013": {"year": 2013, "day": 11, "month": 9, "categories": {"HS1": {"distance": 10, "rank": 13, "pace": 239000000000, "time": 2345.6}}, "weekday": "wednesday", "livingplace": "Menieres"}}, "location": "Siviriez"}, "Groupe E Tour Fribourg #1 Siviriez": {"latitude": 46.81832, "longitude": 6.977279999999999, "race": "Groupe E Tour Fribourg #1 Siviriez", "date": {"mer. 21.08.2013": {"year": 2013, "day": 21, "month": 8, "categories": {"HS1": {"distance": 10, "rank": 13, "pace": 249000000000, "time": 2449.8}}, "weekday": "wednesday", "livingplace": "Menieres"}}, "location": "Cousset"}, "Groupe E Tour Fribourg #3 Charmey": {"latitude": 46.97488999999999, "longitude": 7.1954365, "race": "Groupe E Tour Fribourg #3 Charmey", "date": {"mer. 04.09.2013": {"year": 2013, "day": 4, "month": 9, "categories": {"HS1": {"distance": 11, "rank": 9, "pace": 257000000000, "time": 2797.2}}, "weekday": "wednesday", "livingplace": "Menieres"}}, "location": "Kerzers"}, "Morat-Fribourg": {"latitude": 46.92922110000001, "longitude": 7.120184, "race": "Morat-Fribourg", "date": {"dim. 05.10.2003": {"year": 2003, "day": 5, "month": 10, "categories": {"M20": {"distance": 17, "rank": 186, "pace": 241000000000, "time": 4145.0}}, "weekday": "sunday", "livingplace": "Au"}, "sam. 05.10.2013": {"year": 2013, "day": 5, "month": 10, "categories": {"17-M20": {"distance": 17, "rank": 160, "pace": 244000000000, "time": 4272.3}}, "weekday": "saturday", "livingplace": "Menieres"}, "dim. 07.10.2001": {"year": 2001, "day": 7, "month": 10, "categories": {"M20": {"distance": 17, "rank": 365, "pace": 256000000000, "time": 4411.4}}, "weekday": "sunday", "livingplace": "Au"}, "sam. 03.10.2015": {"year": 2015, "day": 3, "month": 10, "categories": {"17-M40": {"distance": 17, "rank": 65, "pace": 258000000000, "time": 4438.9}}, "weekday": "saturday", "livingplace": "Menieres"}}, "location": "Murten"}, "Groupe E Tour Fribourg #5 Fribourg": {"latitude": 46.8128615, "longitude": 7.131657799999999, "race": "Groupe E Tour Fribourg #5 Fribourg", "date": {"mer. 18.09.2013": {"year": 2013, "day": 18, "month": 9, "categories": {"HS1": {"distance": 10, "rank": 8, "pace": 234000000000, "time": 2345.6}}, "weekday": "wednesday", "livingplace": "Menieres"}, "mer. 26.09.2012": {"year": 2012, "day": 26, "month": 9, "categories": {"HS1": {"distance": 11, "rank": 13, "pace": 243000000000, "time": 2603.2}}, "weekday": "wednesday", "livingplace": "Villeneuve"}}, "location": "Givisiez"}, "Groupe E Tour Fribourg #3 Estavayer-le-Lac": {"latitude": 46.97488999999999, "longitude": 7.1954365, "race": "Groupe E Tour Fribourg #3 Estavayer-le-Lac", "date": {"mer. 12.09.2012": {"year": 2012, "day": 12, "month": 9, "categories": {"HS1": {"distance": 10, "rank": 28, "pace": 252000000000, "time": 2487.7}}, "weekday": "wednesday", "livingplace": "Villeneuve"}}, "location": "Kerzers"}, "Groupe E Tour Fribourg #2 Kerzers": {"latitude": 46.6175845, "longitude": 7.1654493, "race": "Groupe E Tour Fribourg #2 Kerzers", "date": {"mer. 28.08.2013": {"year": 2013, "day": 28, "month": 8, "categories": {"HS1": {"distance": 12, "rank": 7, "pace": 240000000000, "time": 2853.4}}, "weekday": "wednesday", "livingplace": "Menieres"}}, "location": "Charmey (Gruy\u00e8re)"}, "Groupe E Tour Fribourg #2 Plafayon": {"latitude": 46.6175845, "longitude": 7.1654493, "race": "Groupe E Tour Fribourg #2 Plafayon", "date": {"mer. 05.09.2012": {"year": 2012, "day": 5, "month": 9, "categories": {"HS1": {"distance": 9, "rank": 12, "pace": 233000000000, "time": 2184.1}}, "weekday": "wednesday", "livingplace": "Villeneuve"}}, "location": "Charmey (Gruy\u00e8re)"}, "Groupe E Tour Fribourg #4 Siviriez": {"latitude": 46.6585092, "longitude": 6.877722, "race": "Groupe E Tour Fribourg #4 Siviriez", "date": {"mer. 19.09.2012": {"year": 2012, "day": 19, "month": 9, "categories": {"HS1": {"distance": 9, "rank": 5, "pace": 244000000000, "time": 2293.7}}, "weekday": "wednesday", "livingplace": "Villeneuve"}}, "location": "Siviriez"}}, "birth": 1975}