{"name": "Boss C\u00e9dric", "sex": "M", "races": {"Lausanne Marathon": {"latitude": 46.5196535, "longitude": 6.6322734, "race": "Lausanne Marathon", "date": {"dim. 30.10.2011": {"year": 2011, "day": 30, "month": 10, "categories": {"21-H3": {"distance": 21, "rank": 189, "pace": 271000000000, "time": 5735.3}}, "weekday": "sunday", "livingplace": "Le Landeron"}}, "location": "Lausanne"}, "Sierre-Zinal, Sierre": {"latitude": 46.29413110000001, "longitude": 7.533536199999999, "race": "Sierre-Zinal, Sierre", "date": {"dim. 09.08.2015": {"year": 2015, "day": 9, "month": 8, "categories": {"V\u00e9t_II": {"distance": 31, "rank": 29, "pace": 487000000000, "time": 15123.3}}, "weekday": "sunday", "livingplace": "Le Landeron"}}, "location": "Sierre"}, "BCN Tour Colombier": {"latitude": 47.1034892, "longitude": 6.832783800000001, "race": "BCN Tour Colombier", "date": {"mer. 16.05.2012": {"year": 2012, "day": 16, "month": 5, "categories": {"HS2": {"distance": 11, "rank": 80, "pace": 277000000000, "time": 2992.7}}, "weekday": "wednesday", "livingplace": "Le Landeron"}}, "location": "La Chaux-de-Fonds"}, "BCN Tour Cornaux": {"latitude": 46.9668714, "longitude": 6.8589727, "race": "BCN Tour Cornaux", "date": {"mer. 25.04.2012": {"year": 2012, "day": 25, "month": 4, "categories": {"HS2": {"distance": 11, "rank": 66, "pace": 301000000000, "time": 3317.3}}, "weekday": "wednesday", "livingplace": "Le Landeron"}}, "location": "Colombier NE"}, "BCN Tour Neuch\u00e2tel": {"latitude": 46.9899874, "longitude": 6.9292732, "race": "BCN Tour Neuch\u00e2tel", "date": {"mer. 30.05.2012": {"year": 2012, "day": 30, "month": 5, "categories": {"HS2": {"distance": 11, "rank": 218, "pace": 350000000000, "time": 3928.7}}, "weekday": "wednesday", "livingplace": "Le Landeron"}}, "location": "Neuch\u00e2tel"}}, "birth": 1963}