{"name": "Bouele C\u00e9dric", "sex": "M", "races": {"Lucerne Marathon, Luzern": {"latitude": 47.05016819999999, "longitude": 8.3093072, "race": "Lucerne Marathon, Luzern", "date": {"dim. 31.10.2010": {"year": 2010, "day": 31, "month": 10, "categories": {"M-M20": {"distance": 42, "rank": 35, "pace": 283000000000, "time": 11951.2}}, "weekday": "sunday", "livingplace": "Delemont"}}, "location": "Luzern"}, "Morat-Fribourg": {"latitude": 46.92922110000001, "longitude": 7.120184, "race": "Morat-Fribourg", "date": {"sam. 04.10.2008": {"year": 2008, "day": 4, "month": 10, "categories": {"C-M20": {"distance": 17, "rank": 160, "pace": 249000000000, "time": 4276.8}}, "weekday": "saturday", "livingplace": "Delemont"}, "sam. 06.10.2007": {"year": 2007, "day": 6, "month": 10, "categories": {"C/M20": {"distance": 17, "rank": 70, "pace": 235000000000, "time": 4047.2}}, "weekday": "saturday", "livingplace": "Delemont"}}, "location": "Murten"}, "Basler Stadtlauf": {"latitude": 47.5595986, "longitude": 7.5885761, "race": "Basler Stadtlauf", "date": {"sam. 28.11.2015": {"year": 2015, "day": 28, "month": 11, "categories": {"M30": {"distance": 6, "rank": 66, "pace": 235000000000, "time": 1297.9}}, "weekday": "saturday", "livingplace": "Courtetelle"}}, "location": "Basel"}, "Birslauf Basel": {"latitude": 47.5595986, "longitude": 7.5885761, "race": "Birslauf Basel", "date": {"sam. 05.04.2014": {"year": 2014, "day": 5, "month": 4, "categories": {"M\u00e4nner": {"distance": 10, "rank": 64, "pace": 235000000000, "time": 2354.7}}, "weekday": "saturday", "livingplace": "Delemont"}}, "location": "Basel"}, "Course de l'Escalade, Gen\u00e8ve": {"latitude": 46.2043907, "longitude": 6.1431577, "race": "Course de l'Escalade, Gen\u00e8ve", "date": {"sam. 05.12.2015": {"year": 2015, "day": 5, "month": 12, "categories": {"Esc-Hom2": {"distance": 7, "rank": 269, "pace": 247000000000, "time": 1814.7}}, "weekday": "saturday", "livingplace": "Courtetelle"}}, "location": "Gen\u00e8ve"}, "Kerzerslauf": {"latitude": 46.97488999999999, "longitude": 7.1954365, "race": "Kerzerslauf", "date": {"sam. 15.03.2008": {"year": 2008, "day": 15, "month": 3, "categories": {"15/M20": {"distance": 15, "rank": 91, "pace": 234000000000, "time": 3524.1}}, "weekday": "saturday", "livingplace": "Delemont"}}, "location": "Kerzers"}, "10km de Payerne": {"latitude": 46.8220266, "longitude": 6.9405663, "race": "10km de Payerne", "date": {"sam. 28.03.2009": {"year": 2009, "day": 28, "month": 3, "categories": {"M Elite": {"distance": 10, "rank": 58, "pace": 239000000000, "time": 2399.6}}, "weekday": "saturday", "livingplace": "Delemont"}}, "location": "Payerne"}, "Z\u00fcrcher Silvesterlauf, Z\u00fcrich": {"latitude": 47.3768866, "longitude": 8.541694, "race": "Z\u00fcrcher Silvesterlauf, Z\u00fcrich", "date": {"dim. 14.12.2014": {"year": 2014, "day": 14, "month": 12, "categories": {"10-M20": {"distance": 10, "rank": 233, "pace": 266000000000, "time": 2666.3}}, "weekday": "sunday", "livingplace": "Delemont"}}, "location": "Z\u00fcrich"}}, "birth": 1985}