{"name": "Bourdeloie Lo\u00efc", "sex": "M", "races": {"BCN Tour #5 Colombier": {"latitude": 46.9262933, "longitude": 6.6324944, "race": "BCN Tour #5 Colombier", "date": {"mer. 22.05.2013": {"year": 2013, "day": 22, "month": 5, "categories": {"HE": {"distance": 11, "rank": 64, "pace": 243000000000, "time": 2556.1}}, "weekday": "wednesday", "livingplace": "Morteau"}}, "location": "Couvet"}, "BCN Tour #1 Corcelles": {"latitude": 46.9668714, "longitude": 6.8589727, "race": "BCN Tour #1 Corcelles", "date": {"mer. 24.04.2013": {"year": 2013, "day": 24, "month": 4, "categories": {"HE": {"distance": 10, "rank": 72, "pace": 270000000000, "time": 2647.1}}, "weekday": "wednesday", "livingplace": "Morteau"}}, "location": "Colombier NE"}, "BCN Tour #3 Dombresson": {"latitude": 46.999113, "longitude": 6.733554799999999, "race": "BCN Tour #3 Dombresson", "date": {"mer. 08.05.2013": {"year": 2013, "day": 8, "month": 5, "categories": {"HE": {"distance": 10, "rank": 76, "pace": 260000000000, "time": 2577.6}}, "weekday": "wednesday", "livingplace": "Morteau"}}, "location": "Les Ponts-de-Martel"}, "BCN Tour #4 Fleurier": {"latitude": 47.1034892, "longitude": 6.832783800000001, "race": "BCN Tour #4 Fleurier", "date": {"mer. 15.05.2013": {"year": 2013, "day": 15, "month": 5, "categories": {"HE": {"distance": 9, "rank": 56, "pace": 259000000000, "time": 2248.9}}, "weekday": "wednesday", "livingplace": "Morteau"}}, "location": "La Chaux-de-Fonds"}, "BCN Tour #2 La Chaux-de-Fonds": {"latitude": 47.0624261, "longitude": 6.9175754, "race": "BCN Tour #2 La Chaux-de-Fonds", "date": {"mer. 01.05.2013": {"year": 2013, "day": 1, "month": 5, "categories": {"HE": {"distance": 11, "rank": 60, "pace": 258000000000, "time": 2769.3}}, "weekday": "wednesday", "livingplace": "Morteau"}}, "location": "Ch\u00e9zard-St-Martin"}}, "birth": 1985}