{"name": "Bovet Nathalie", "sex": "F", "races": {"Tour du Pays de Vaud printanier #2 Yverdon-les-Bains": {"latitude": 46.6698891, "longitude": 6.7975224, "race": "Tour du Pays de Vaud printanier #2 Yverdon-les-Bains", "date": {"mer. 05.06.2013": {"year": 2013, "day": 5, "month": 6, "categories": {"D-Sen2": {"distance": 9, "rank": 12, "pace": 322000000000, "time": 2937.9}}, "weekday": "wednesday", "livingplace": "Blonay"}}, "location": "Moudon"}, "20km de Lausanne": {"latitude": 46.5196535, "longitude": 6.6322734, "race": "20km de Lausanne", "date": {"sam. 27.04.2013": {"year": 2013, "day": 27, "month": 4, "categories": {"10-F40": {"distance": 10, "rank": 30, "pace": 299000000000, "time": 2995.5}}, "weekday": "saturday", "livingplace": "Blonay"}, "sam. 25.04.2015": {"year": 2015, "day": 25, "month": 4, "categories": {"10-F40": {"distance": 10, "rank": 56, "pace": 312000000000, "time": 3129.8}}, "weekday": "saturday", "livingplace": "Blonay"}}, "location": "Lausanne"}, "Tour du Pays de Vaud printanier #3 - Yens": {"latitude": 46.7829756, "longitude": 6.5728678, "race": "Tour du Pays de Vaud printanier #3 - Yens", "date": {"mer. 12.06.2013": {"year": 2013, "day": 12, "month": 6, "categories": {"D-Sen2": {"distance": 9, "rank": 10, "pace": 312000000000, "time": 2842.1}}, "weekday": "wednesday", "livingplace": "Blonay"}}, "location": "Champvent"}, "Corrida Bulloise, Bulle": {"latitude": 46.6154512, "longitude": 7.057726799999999, "race": "Corrida Bulloise, Bulle", "date": {"sam. 17.11.2012": {"year": 2012, "day": 17, "month": 11, "categories": {"F20": {"distance": 6, "rank": 81, "pace": 291000000000, "time": 1792.3}}, "weekday": "saturday", "livingplace": "Blonay"}}, "location": "Bulle"}, "Tour du Pays de Vaud printanier #1 Moudon": {"latitude": 46.3832683, "longitude": 6.2347852, "race": "Tour du Pays de Vaud printanier #1 Moudon", "date": {"mer. 29.05.2013": {"year": 2013, "day": 29, "month": 5, "categories": {"D-Sen2": {"distance": 8, "rank": 5, "pace": 309000000000, "time": 2643.5}}, "weekday": "wednesday", "livingplace": "Blonay"}}, "location": "Nyon"}}, "birth": 1973}