{"name": "Boyer Zohra", "sex": "F", "races": {"20km de Lausanne": {"latitude": 46.5196535, "longitude": 6.6322734, "race": "20km de Lausanne", "date": {"sam. 24.04.2010": {"year": 2010, "day": 24, "month": 4, "categories": {"20-F45": {"distance": 20, "rank": 64, "pace": 384000000000, "time": 7683.7}}, "weekday": "saturday", "livingplace": "TL 20 km 2"}, "sam. 25.04.2009": {"year": 2009, "day": 25, "month": 4, "categories": {"20-F45": {"distance": 20, "rank": 73, "pace": 398000000000, "time": 7960.1}}, "weekday": "saturday", "livingplace": "Epalinges"}, "sam. 22.04.2006": {"year": 2006, "day": 22, "month": 4, "categories": {"10/F40": {"distance": 10, "rank": 99, "pace": 367000000000, "time": 3672.4}}, "weekday": "saturday", "livingplace": "Equipe TL 2"}}, "location": "Lausanne"}, "Morat-Fribourg": {"latitude": 46.92922110000001, "longitude": 7.120184, "race": "Morat-Fribourg", "date": {"sam. 03.10.2009": {"year": 2009, "day": 3, "month": 10, "categories": {"C-W45": {"distance": 17, "rank": 214, "pace": 422000000000, "time": 7254.8}}, "weekday": "saturday", "livingplace": "Epalinges"}, "sam. 06.10.2007": {"year": 2007, "day": 6, "month": 10, "categories": {"C/W40": {"distance": 17, "rank": 167, "pace": 359000000000, "time": 6173.1}}, "weekday": "saturday", "livingplace": "Epalinges"}}, "location": "Murten"}, "Kerzerslauf": {"latitude": 46.97488999999999, "longitude": 7.1954365, "race": "Kerzerslauf", "date": {"sam. 15.03.2008": {"year": 2008, "day": 15, "month": 3, "categories": {"15/F45": {"distance": 15, "rank": 197, "pace": 362000000000, "time": 5438.5}}, "weekday": "saturday", "livingplace": "Epalinges"}}, "location": "Kerzers"}, "Les Traine-Savates, Cheseaux-sur-Lausanne": {"latitude": 46.585452, "longitude": 6.6047712, "race": "Les Traine-Savates, Cheseaux-sur-Lausanne", "date": {"sam. 10.04.2010": {"year": 2010, "day": 10, "month": 4, "categories": {"Dam V1": {"distance": 10, "rank": 76, "pace": 348000000000, "time": 3621.7}}, "weekday": "saturday", "livingplace": "Epalinges"}}, "location": "Cheseaux-sur-Lausanne"}, "Z\u00fcrich Marathon, Teamrun und Cityrun": {"latitude": 47.3768866, "longitude": 8.541694, "race": "Z\u00fcrich Marathon, Teamrun und Cityrun", "date": {"dim. 01.04.2007": {"year": 2007, "day": 1, "month": 4, "categories": {"W40": {"distance": 42, "rank": 157, "pace": 378000000000, "time": 15974.3}}, "weekday": "sunday", "livingplace": "Epalinges"}}, "location": "Z\u00fcrich"}}, "birth": 1963}