{"name": "Bozzi Arthur", "sex": "M", "races": {"BCN Tour La Chaux-de-Fonds": {"latitude": 47.1034892, "longitude": 6.832783800000001, "race": "BCN Tour La Chaux-de-Fonds", "date": {"mer. 11.05.2011": {"year": 2011, "day": 11, "month": 5, "categories": {"KG4": {"distance": 4, "rank": 28, "pace": 230000000000, "time": 897.4}}, "weekday": "wednesday", "livingplace": "Colombier"}}, "location": "La Chaux-de-Fonds"}, "BCN Tour La Br\u00e9vine": {"latitude": 46.999113, "longitude": 6.733554799999999, "race": "BCN Tour La Br\u00e9vine", "date": {"mer. 04.05.2011": {"year": 2011, "day": 4, "month": 5, "categories": {"KG4": {"distance": 4, "rank": 30, "pace": 309000000000, "time": 1175.0}}, "weekday": "wednesday", "livingplace": "Colombier"}}, "location": "Les Ponts-de-Martel"}, "BCN Tour Fontaine Cernier": {"latitude": 47.0624261, "longitude": 6.9175754, "race": "BCN Tour Fontaine Cernier", "date": {"mer. 27.04.2011": {"year": 2011, "day": 27, "month": 4, "categories": {"KG4": {"distance": 3, "rank": 34, "pace": 339000000000, "time": 1017.2}}, "weekday": "wednesday", "livingplace": "Colombier"}}, "location": "Ch\u00e9zard-St-Martin"}, "BCN Tour Neuch\u00e2tel": {"latitude": 46.9899874, "longitude": 6.9292732, "race": "BCN Tour Neuch\u00e2tel", "date": {"mer. 25.05.2011": {"year": 2011, "day": 25, "month": 5, "categories": {"KG4": {"distance": 4, "rank": 34, "pace": 282000000000, "time": 1022.3}}, "weekday": "wednesday", "livingplace": "Colombier"}}, "location": "Neuch\u00e2tel"}, "BCN Tour Les Ponts de Martel": {"latitude": 46.9262933, "longitude": 6.6324944, "race": "BCN Tour Les Ponts de Martel", "date": {"mer. 18.05.2011": {"year": 2011, "day": 18, "month": 5, "categories": {"KG4": {"distance": 4, "rank": 29, "pace": 279000000000, "time": 1089.0}}, "weekday": "wednesday", "livingplace": "Colombier"}}, "location": "Couvet"}, "BCN Tour Auvernier": {"latitude": 46.9668714, "longitude": 6.8589727, "race": "BCN Tour Auvernier", "date": {"mer. 20.04.2011": {"year": 2011, "day": 20, "month": 4, "categories": {"KG4": {"distance": 2, "rank": 27, "pace": 266000000000, "time": 625.4}}, "weekday": "wednesday", "livingplace": "Colombier"}}, "location": "Colombier NE"}}, "birth": 1997}