{"name": "Braga Patricia", "sex": "F", "races": {"Morat-Fribourg": {"latitude": 46.92922110000001, "longitude": 7.120184, "race": "Morat-Fribourg", "date": {"sam. 05.10.2013": {"year": 2013, "day": 5, "month": 10, "categories": {"17-W20": {"distance": 17, "rank": 456, "pace": 366000000000, "time": 6388.7}}, "weekday": "saturday", "livingplace": "Fribourg"}, "sam. 03.10.2015": {"year": 2015, "day": 3, "month": 10, "categories": {"17-W20": {"distance": 17, "rank": 254, "pace": 341000000000, "time": 5860.7}}, "weekday": "saturday", "livingplace": "Fribourg"}, "sam. 04.10.2014": {"year": 2014, "day": 4, "month": 10, "categories": {"17-W20": {"distance": 17, "rank": 290, "pace": 349000000000, "time": 5997.4}}, "weekday": "saturday", "livingplace": "Fribourg"}}, "location": "Murten"}, "20km de Lausanne": {"latitude": 46.5196535, "longitude": 6.6322734, "race": "20km de Lausanne", "date": {"sam. 25.04.2015": {"year": 2015, "day": 25, "month": 4, "categories": {"10-F20": {"distance": 10, "rank": 207, "pace": 316000000000, "time": 3169.1}}, "weekday": "saturday", "livingplace": "Fribourg"}}, "location": "Lausanne"}, "SwissCityMarathon - Lucerne, Luzern": {"latitude": 47.05016819999999, "longitude": 8.3093072, "race": "SwissCityMarathon - Lucerne, Luzern", "date": {"dim. 27.10.2013": {"year": 2013, "day": 27, "month": 10, "categories": {"H-F20": {"distance": 21, "rank": 388, "pace": 360000000000, "time": 7601.6}}, "weekday": "sunday", "livingplace": "Fribourg"}}, "location": "Luzern"}, "Kerzerslauf": {"latitude": 46.97488999999999, "longitude": 7.1954365, "race": "Kerzerslauf", "date": {"sam. 15.03.2014": {"year": 2014, "day": 15, "month": 3, "categories": {"15-F20": {"distance": 15, "rank": 327, "pace": 353000000000, "time": 5309.0}}, "weekday": "saturday", "livingplace": "Fribourg"}}, "location": "Kerzers"}, "Corrida Bulloise, Bulle": {"latitude": 46.6154512, "longitude": 7.057726799999999, "race": "Corrida Bulloise, Bulle", "date": {"sam. 16.11.2013": {"year": 2013, "day": 16, "month": 11, "categories": {"F20": {"distance": 6, "rank": 149, "pace": 314000000000, "time": 1936.4}}, "weekday": "saturday", "livingplace": "Fribourg"}}, "location": "Bulle"}}, "birth": 1991}