{"name": "Brauen Lucian Ryan Nael", "sex": "M", "races": {"Groupe E Tour Fribourg #4, Siviriez": {"latitude": 46.6585092, "longitude": 6.877722, "race": "Groupe E Tour Fribourg #4, Siviriez", "date": {"mer. 10.09.2014": {"year": 2014, "day": 10, "month": 9, "categories": {"Pouss-M": {"distance": 1, "rank": 4, "pace": 282000000000, "time": 158.4}}, "weekday": "wednesday", "livingplace": "Golaten"}}, "location": "Siviriez"}, "Groupe E Tour Fribourg #2, Charmey": {"latitude": 46.6175845, "longitude": 7.1654493, "race": "Groupe E Tour Fribourg #2, Charmey", "date": {"mer. 27.08.2014": {"year": 2014, "day": 27, "month": 8, "categories": {"Pouss-M": {"distance": 1, "rank": 2, "pace": 237000000000, "time": 130.7}}, "weekday": "wednesday", "livingplace": "Golaten"}}, "location": "Charmey (Gruy\u00e8re)"}, "Groupe E Tour Fribourg #3, Kerzers": {"latitude": 46.97488999999999, "longitude": 7.1954365, "race": "Groupe E Tour Fribourg #3, Kerzers", "date": {"mer. 03.09.2014": {"year": 2014, "day": 3, "month": 9, "categories": {"Pouss-M": {"distance": 1, "rank": 3, "pace": 337000000000, "time": 202.7}}, "weekday": "wednesday", "livingplace": "Golaten"}}, "location": "Kerzers"}, "Groupe E Tour Fribourg #5, Givisiez": {"latitude": 46.8128615, "longitude": 7.131657799999999, "race": "Groupe E Tour Fribourg #5, Givisiez", "date": {"mer. 17.09.2014": {"year": 2014, "day": 17, "month": 9, "categories": {"Pouss-M": {"distance": 1, "rank": 4, "pace": 352000000000, "time": 211.5}}, "weekday": "wednesday", "livingplace": "Golaten"}}, "location": "Givisiez"}, "Burgdorfer Stadtlauf, Burgdorf": {"latitude": 45.277123, "longitude": -115.9129022, "race": "Burgdorfer Stadtlauf, Burgdorf", "date": {"sam. 13.09.2014": {"year": 2014, "day": 13, "month": 9, "categories": {"P-SchM": {"distance": 1, "rank": 17, "pace": 340000000000, "time": 221.1}}, "weekday": "saturday", "livingplace": "Golaten"}}, "location": "Burgdorf"}, "Groupe E Tour Fribourg #1, Cousset": {"latitude": 46.81832, "longitude": 6.977279999999999, "race": "Groupe E Tour Fribourg #1, Cousset", "date": {"mer. 20.08.2014": {"year": 2014, "day": 20, "month": 8, "categories": {"Pouss-M": {"distance": 1, "rank": 4, "pace": 321000000000, "time": 173.7}}, "weekday": "wednesday", "livingplace": "Golaten"}}, "location": "Cousset"}}, "birth": 2008}