{"name": "Bridevaux Philippe", "sex": "M", "races": {"Tour du Chablais #1 Roche": {"latitude": 46.2957462, "longitude": 6.9916269, "race": "Tour du Chablais #1 Roche", "date": {"mer. 03.04.2013": {"year": 2013, "day": 3, "month": 4, "categories": {"M-M40": {"distance": 9, "rank": 84, "pace": 282000000000, "time": 2504.5}}, "weekday": "wednesday", "livingplace": "Collombey"}}, "location": "Ollon VD"}, "Tour du Chablais #6 Monthey": {"latitude": 46.3190253, "longitude": 6.970566, "race": "Tour du Chablais #6 Monthey", "date": {"mer. 08.05.2013": {"year": 2013, "day": 8, "month": 5, "categories": {"M-M40": {"distance": 9, "rank": 80, "pace": 276000000000, "time": 2577.8}}, "weekday": "wednesday", "livingplace": "Collombey"}}, "location": "Aigle"}, "Morat-Fribourg": {"latitude": 46.92922110000001, "longitude": 7.120184, "race": "Morat-Fribourg", "date": {"sam. 05.10.2013": {"year": 2013, "day": 5, "month": 10, "categories": {"17-M40": {"distance": 17, "rank": 533, "pace": 318000000000, "time": 5553.0}}, "weekday": "saturday", "livingplace": "Collombey"}, "sam. 06.10.2012": {"year": 2012, "day": 6, "month": 10, "categories": {"17-M40": {"distance": 17, "rank": 642, "pace": 345000000000, "time": 6033.5}}, "weekday": "saturday", "livingplace": "Collombey"}}, "location": "Murten"}, "Corrida Bulloise, Bulle": {"latitude": 46.6154512, "longitude": 7.057726799999999, "race": "Corrida Bulloise, Bulle", "date": {"sam. 16.11.2013": {"year": 2013, "day": 16, "month": 11, "categories": {"M40": {"distance": 8, "rank": 141, "pace": 281000000000, "time": 2293.5}}, "weekday": "saturday", "livingplace": "Collombey"}, "sam. 17.11.2012": {"year": 2012, "day": 17, "month": 11, "categories": {"M40": {"distance": 8, "rank": 142, "pace": 292000000000, "time": 2386.4}}, "weekday": "saturday", "livingplace": "Collombey"}}, "location": "Bulle"}, "Tour du Pays de Vaud printanier #2 Yverdon-les-Bains": {"latitude": 46.6698891, "longitude": 6.7975224, "race": "Tour du Pays de Vaud printanier #2 Yverdon-les-Bains", "date": {"mer. 05.06.2013": {"year": 2013, "day": 5, "month": 6, "categories": {"H-Sen2": {"distance": 9, "rank": 52, "pace": 316000000000, "time": 2877.1}}, "weekday": "wednesday", "livingplace": "Collombey"}}, "location": "Moudon"}, "Tour du Pays de Vaud #3 - Mezi\u00e8res": {"latitude": 46.7784736, "longitude": 6.641183, "race": "Tour du Pays de Vaud #3 - Mezi\u00e8res", "date": {"mer. 22.08.2012": {"year": 2012, "day": 22, "month": 8, "categories": {"H-Sen2": {"distance": 8, "rank": 154, "pace": 367000000000, "time": 3087.0}}, "weekday": "wednesday", "livingplace": "Collombey"}}, "location": "Yverdon-les-Bains"}, "20km de Lausanne": {"latitude": 46.5196535, "longitude": 6.6322734, "race": "20km de Lausanne", "date": {"sam. 25.04.2015": {"year": 2015, "day": 25, "month": 4, "categories": {"10-H45": {"distance": 10, "rank": 74, "pace": 280000000000, "time": 2808.2}}, "weekday": "saturday", "livingplace": "Reitzel"}, "sam. 26.04.2014": {"year": 2014, "day": 26, "month": 4, "categories": {"10-H45": {"distance": 10, "rank": 55, "pace": 271000000000, "time": 2713.5}}, "weekday": "saturday", "livingplace": "Reitzel"}}, "location": "Lausanne"}, "Tour du Pays de Vaud printanier #1 Moudon": {"latitude": 46.3832683, "longitude": 6.2347852, "race": "Tour du Pays de Vaud printanier #1 Moudon", "date": {"mer. 29.05.2013": {"year": 2013, "day": 29, "month": 5, "categories": {"H-Sen2": {"distance": 8, "rank": 38, "pace": 300000000000, "time": 2565.6}}, "weekday": "wednesday", "livingplace": "Collombey"}}, "location": "Nyon"}, "Tour du Chablais #2 Yvorne": {"latitude": 46.3835529, "longitude": 6.854975199999999, "race": "Tour du Chablais #2 Yvorne", "date": {"mer. 10.04.2013": {"year": 2013, "day": 10, "month": 4, "categories": {"M-M40": {"distance": 8, "rank": 64, "pace": 301000000000, "time": 2412.1}}, "weekday": "wednesday", "livingplace": "Collombey"}}, "location": "Bouveret"}, "Tour du Chablais #5 Morgins": {"latitude": 46.3603257, "longitude": 6.931504599999999, "race": "Tour du Chablais #5 Morgins", "date": {"mer. 01.05.2013": {"year": 2013, "day": 1, "month": 5, "categories": {"M-M40": {"distance": 8, "rank": 84, "pace": 306000000000, "time": 2329.7}}, "weekday": "wednesday", "livingplace": "Collombey"}}, "location": "Roche VD"}, "Tour du Chablais #5 Bex": {"latitude": 46.3603257, "longitude": 6.931504599999999, "race": "Tour du Chablais #5 Bex", "date": {"mer. 09.05.2012": {"year": 2012, "day": 9, "month": 5, "categories": {"M-M40": {"distance": 9, "rank": 119, "pace": 323000000000, "time": 2862.1}}, "weekday": "wednesday", "livingplace": "Collombey"}}, "location": "Roche VD"}, "Tour du Chablais #4 Champ\u00e9ry": {"latitude": NaN, "longitude": NaN, "race": "Tour du Chablais #4 Champ\u00e9ry", "date": {"mer. 02.05.2012": {"year": 2012, "day": 2, "month": 5, "categories": {"M-M40": {"distance": 8, "rank": 139, "pace": 343000000000, "time": 2851.5}}, "weekday": "wednesday", "livingplace": "Collombey"}}, "location": "Les Mosses"}, "Tour du Pays de Vaud printanier #3 - Yens": {"latitude": 46.7829756, "longitude": 6.5728678, "race": "Tour du Pays de Vaud printanier #3 - Yens", "date": {"mer. 12.06.2013": {"year": 2013, "day": 12, "month": 6, "categories": {"H-Sen2": {"distance": 9, "rank": 54, "pace": 309000000000, "time": 2817.5}}, "weekday": "wednesday", "livingplace": "Collombey"}}, "location": "Champvent"}, "Tour du Pays de Vaud #2 - Mezi\u00e8res": {"latitude": 46.5955273, "longitude": 6.7702883, "race": "Tour du Pays de Vaud #2 - Mezi\u00e8res", "date": {"mer. 21.08.2013": {"year": 2013, "day": 21, "month": 8, "categories": {"H-Sen2": {"distance": 8, "rank": 85, "pace": 311000000000, "time": 2526.3}}, "weekday": "wednesday", "livingplace": "Collombey"}}, "location": "M\u00e9zi\u00e8res VD"}, "Tour du Pays de Vaud #3 - Chavornay": {"latitude": 46.7784736, "longitude": 6.641183, "race": "Tour du Pays de Vaud #3 - Chavornay", "date": {"mer. 28.08.2013": {"year": 2013, "day": 28, "month": 8, "categories": {"H-Sen2": {"distance": 9, "rank": 106, "pace": 297000000000, "time": 2648.5}}, "weekday": "wednesday", "livingplace": "Collombey"}}, "location": "Yverdon-les-Bains"}, "Tour du Chablais #4 St  Maurice": {"latitude": NaN, "longitude": NaN, "race": "Tour du Chablais #4 St  Maurice", "date": {"mer. 24.04.2013": {"year": 2013, "day": 24, "month": 4, "categories": {"M-M40": {"distance": 10, "rank": 78, "pace": 279000000000, "time": 2798.9}}, "weekday": "wednesday", "livingplace": "Collombey"}}, "location": "Les Mosses"}, "Kerzerslauf": {"latitude": 46.97488999999999, "longitude": 7.1954365, "race": "Kerzerslauf", "date": {"sam. 15.03.2014": {"year": 2014, "day": 15, "month": 3, "categories": {"15-M45": {"distance": 15, "rank": 340, "pace": 296000000000, "time": 4449.5}}, "weekday": "saturday", "livingplace": "Collombey"}}, "location": "Kerzers"}, "Tour du Chablais #3 Collombey-Muraz": {"latitude": 46.1782231, "longitude": 7.0223787, "race": "Tour du Chablais #3 Collombey-Muraz", "date": {"mer. 25.04.2012": {"year": 2012, "day": 25, "month": 4, "categories": {"M-M40": {"distance": 9, "rank": 142, "pace": 372000000000, "time": 3345.4}}, "weekday": "wednesday", "livingplace": "Collombey"}}, "location": "Evionnaz"}, "Tour du Chablais #1 Martigny": {"latitude": 46.2957462, "longitude": 6.9916269, "race": "Tour du Chablais #1 Martigny", "date": {"mer. 23.04.2014": {"year": 2014, "day": 23, "month": 4, "categories": {"M-M40": {"distance": 9, "rank": 50, "pace": 263000000000, "time": 2241.1}}, "weekday": "wednesday", "livingplace": "Collombey"}}, "location": "Ollon VD"}, "Tour du Pays de Vaud #4 - La Sarraz": {"latitude": 46.7088129, "longitude": 6.5707689, "race": "Tour du Pays de Vaud #4 - La Sarraz", "date": {"mer. 29.08.2012": {"year": 2012, "day": 29, "month": 8, "categories": {"H-Sen2": {"distance": 9, "rank": 145, "pace": 321000000000, "time": 2735.3}}, "weekday": "wednesday", "livingplace": "Collombey"}, "mer. 04.09.2013": {"year": 2013, "day": 4, "month": 9, "categories": {"H-Sen2": {"distance": 9, "rank": 108, "pace": 300000000000, "time": 2558.4}}, "weekday": "wednesday", "livingplace": "Collombey"}}, "location": "Chavornay"}, "Course de l'Escalade, Gen\u00e8ve": {"latitude": 46.2043907, "longitude": 6.1431577, "race": "Course de l'Escalade, Gen\u00e8ve", "date": {"sam. 07.12.2013": {"year": 2013, "day": 7, "month": 12, "categories": {"Esc-Hom3": {"distance": 7, "rank": 719, "pace": 288000000000, "time": 2093.1}}, "weekday": "saturday", "livingplace": "Collombey"}, "sam. 01.12.2012": {"year": 2012, "day": 1, "month": 12, "categories": {"Duc-Hom3": {"distance": 18, "rank": 720, "pace": 320000000000, "time": 5602.6}}, "weekday": "saturday", "livingplace": "Collombey"}}, "location": "Gen\u00e8ve"}, "Tour du pays de Vaud #1 - Penthaz": {"latitude": 46.5993131, "longitude": 6.539251200000001, "race": "Tour du pays de Vaud #1 - Penthaz", "date": {"mer. 14.08.2013": {"year": 2013, "day": 14, "month": 8, "categories": {"H-Sen2": {"distance": 9, "rank": 103, "pace": 297000000000, "time": 2538.3}}, "weekday": "wednesday", "livingplace": "Collombey"}}, "location": "Penthaz"}, "Tour du Chablais #1 Montreux": {"latitude": 46.2957462, "longitude": 6.9916269, "race": "Tour du Chablais #1 Montreux", "date": {"mer. 11.04.2012": {"year": 2012, "day": 11, "month": 4, "categories": {"M-M40": {"distance": 8, "rank": 161, "pace": 383000000000, "time": 2917.9}}, "weekday": "wednesday", "livingplace": "Collombey"}}, "location": "Ollon VD"}, "Tour du Chablais #6 Montreux": {"latitude": 46.3190253, "longitude": 6.970566, "race": "Tour du Chablais #6 Montreux", "date": {"mer. 16.05.2012": {"year": 2012, "day": 16, "month": 5, "categories": {"M-M40": {"distance": 9, "rank": 157, "pace": 320000000000, "time": 2961.0}}, "weekday": "wednesday", "livingplace": "Collombey"}}, "location": "Aigle"}, "Montreux - Les Rochers de Naye": {"latitude": 46.4312213, "longitude": 6.9106799, "race": "Montreux - Les Rochers de Naye", "date": {"dim. 06.07.2014": {"year": 2014, "day": 6, "month": 7, "categories": {"M-HV\u00e9t1": {"distance": 19, "rank": 118, "pace": 530000000000, "time": 9978.0}}, "weekday": "sunday", "livingplace": "Collombey"}}, "location": "Montreux"}, "Course p\u00e9destre Thyon-Dixence, Thyon": {"latitude": NaN, "longitude": NaN, "race": "Course p\u00e9destre Thyon-Dixence, Thyon", "date": {"dim. 04.08.2013": {"year": 2013, "day": 4, "month": 8, "categories": {"V\u00e9ter 1": {"distance": 16, "rank": 74, "pace": 477000000000, "time": 7809.1}}, "weekday": "sunday", "livingplace": "Collombey"}}, "location": "Thyon-Les Collons"}, "Tour du Chablais #2 Bex": {"latitude": 46.3835529, "longitude": 6.854975199999999, "race": "Tour du Chablais #2 Bex", "date": {"mer. 18.04.2012": {"year": 2012, "day": 18, "month": 4, "categories": {"M-M40": {"distance": 8, "rank": 152, "pace": 350000000000, "time": 2802.2}}, "weekday": "wednesday", "livingplace": "Collombey"}}, "location": "Bouveret"}, "Tour du Chablais #3 Bouveret": {"latitude": 46.1782231, "longitude": 7.0223787, "race": "Tour du Chablais #3 Bouveret", "date": {"mer. 17.04.2013": {"year": 2013, "day": 17, "month": 4, "categories": {"M-M40": {"distance": 10, "rank": 80, "pace": 279000000000, "time": 2797.9}}, "weekday": "wednesday", "livingplace": "Collombey"}}, "location": "Evionnaz"}}, "birth": 1969}