{"name": "Briggs Ruth", "sex": "F", "races": {"Lucerne Marathon, Luzern": {"latitude": 47.05016819999999, "longitude": 8.3093072, "race": "Lucerne Marathon, Luzern", "date": {"dim. 30.10.2011": {"year": 2011, "day": 30, "month": 10, "categories": {"H-F40": {"distance": 21, "rank": 9, "pace": 256000000000, "time": 5408.6}}, "weekday": "sunday", "livingplace": "Schattdorf"}}, "location": "Luzern"}, "Luzerner Stadtlauf": {"latitude": 47.05016819999999, "longitude": 8.3093072, "race": "Luzerner Stadtlauf", "date": {"sam. 26.04.2008": {"year": 2008, "day": 26, "month": 4, "categories": {"K/24": {"distance": 4, "rank": 2, "pace": 214000000000, "time": 830.5}}, "weekday": "saturday", "livingplace": "Zurich"}}, "location": "Luzern"}, "SwissCityMarathon - Lucerne, Luzern": {"latitude": 47.05016819999999, "longitude": 8.3093072, "race": "SwissCityMarathon - Lucerne, Luzern", "date": {"dim. 25.10.2015": {"year": 2015, "day": 25, "month": 10, "categories": {"M-W40": {"distance": 42, "rank": 2, "pace": 277000000000, "time": 11689.6}}, "weekday": "sunday", "livingplace": "Schattdorf"}, "dim. 26.10.2014": {"year": 2014, "day": 26, "month": 10, "categories": {"H-F40": {"distance": 21, "rank": 12, "pace": 261000000000, "time": 5522.4}}, "weekday": "sunday", "livingplace": "Schattdorf"}, "dim. 27.10.2013": {"year": 2013, "day": 27, "month": 10, "categories": {"H-F40": {"distance": 21, "rank": 1, "pace": 253000000000, "time": 5340.1}}, "weekday": "sunday", "livingplace": "Schattdorf"}}, "location": "Luzern"}, "ASICS Bremgarter Reusslauf": {"latitude": 47.34917739999999, "longitude": 8.3397905, "race": "ASICS Bremgarter Reusslauf", "date": {"sam. 23.02.2008": {"year": 2008, "day": 23, "month": 2, "categories": {"F30": {"distance": 11, "rank": 4, "pace": 219000000000, "time": 2412.5}}, "weekday": "saturday", "livingplace": "Zurich"}}, "location": "Bremgarten AG"}, "Schweizer Frauenlauf Bern": {"latitude": 46.9479739, "longitude": 7.4474468, "race": "Schweizer Frauenlauf Bern", "date": {"dim. 01.06.2008": {"year": 2008, "day": 1, "month": 6, "categories": {"W35-5": {"distance": 5, "rank": 1, "pace": 225000000000, "time": 1127.0}}, "weekday": "sunday", "livingplace": "Zurich"}, "dim. 10.06.2007": {"year": 2007, "day": 10, "month": 6, "categories": {"5/W35": {"distance": 5, "rank": 2, "pace": 224000000000, "time": 1121.2}}, "weekday": "sunday", "livingplace": "Zurich"}}, "location": "Bern"}, "Z\u00fcrcher Silvesterlauf, Z\u00fcrich": {"latitude": 47.3768866, "longitude": 8.541694, "race": "Z\u00fcrcher Silvesterlauf, Z\u00fcrich", "date": {"dim. 15.12.2013": {"year": 2013, "day": 15, "month": 12, "categories": {"10-F40": {"distance": 10, "rank": 3, "pace": 230000000000, "time": 2309.4}}, "weekday": "sunday", "livingplace": "Schattdorf"}, "dim. 11.12.2011": {"year": 2011, "day": 11, "month": 12, "categories": {"8-DaAK2": {"distance": 9, "rank": 6, "pace": 241000000000, "time": 2080.5}}, "weekday": "sunday", "livingplace": "Schattdorf"}}, "location": "Z\u00fcrich"}, "Sihltaler Fr\u00fchlingslauf, Gattikon": {"latitude": 47.2949282, "longitude": 8.5644799, "race": "Sihltaler Fr\u00fchlingslauf, Gattikon", "date": {"jeu. 01.05.2008": {"year": 2008, "day": 1, "month": 5, "categories": {"F30": {"distance": 10, "rank": 1, "pace": 230000000000, "time": 2309.6}}, "weekday": "thursday", "livingplace": "Unterstrass"}}, "location": "Gattikon"}, "Int Greifenseelauf, Uster": {"latitude": 47.3482747, "longitude": 8.717873899999999, "race": "Int Greifenseelauf, Uster", "date": {"sam. 19.09.2009": {"year": 2009, "day": 19, "month": 9, "categories": {"H-W35": {"distance": 21, "rank": 14, "pace": 275000000000, "time": 5821.7}}, "weekday": "saturday", "livingplace": "Schattdorf"}}, "location": "Uster"}, "Z\u00fcrich Marathon, Teamrun und Cityrun": {"latitude": 47.3768866, "longitude": 8.541694, "race": "Z\u00fcrich Marathon, Teamrun und Cityrun", "date": {"dim. 26.04.2009": {"year": 2009, "day": 26, "month": 4, "categories": {"W30": {"distance": 42, "rank": 11, "pace": 244000000000, "time": 10336.7}}, "weekday": "sunday", "livingplace": "Great Britain"}}, "location": "Z\u00fcrich"}, "10km Schweizer Meisterschaften Lyss": {"latitude": 47.0746504, "longitude": 7.3077022, "race": "10km Schweizer Meisterschaften Lyss", "date": {"sam. 31.03.2012": {"year": 2012, "day": 31, "month": 3, "categories": {"10-W40": {"distance": 10, "rank": 5, "pace": 239000000000, "time": 2398.5}}, "weekday": "saturday", "livingplace": "Schattdorf"}}, "location": "Lyss"}, "Hellebardenlauf Sempach": {"latitude": NaN, "longitude": NaN, "race": "Hellebardenlauf Sempach", "date": {"sam. 23.06.2012": {"year": 2012, "day": 23, "month": 6, "categories": {"16-W40": {"distance": 16, "rank": 2, "pace": 253000000000, "time": 4086.7}}, "weekday": "saturday", "livingplace": "Schattdorf"}}, "location": "Sempach Stadt"}, "10km de Payerne": {"latitude": 46.8220266, "longitude": 6.9405663, "race": "10km de Payerne", "date": {"sam. 28.03.2009": {"year": 2009, "day": 28, "month": 3, "categories": {"W35": {"distance": 10, "rank": 5, "pace": 221000000000, "time": 2212.5}}, "weekday": "saturday", "livingplace": "Unterstrass"}}, "location": "Payerne"}}, "birth": 1971}