{"name": "Britt Andreas", "sex": "M", "races": {"Wylandlauf, Andelfingen": {"latitude": NaN, "longitude": NaN, "race": "Wylandlauf, Andelfingen", "date": {"sam. 16.06.2012": {"year": 2012, "day": 16, "month": 6, "categories": {"C": {"distance": 15, "rank": 119, "pace": 354000000000, "time": 5261.9}}, "weekday": "saturday", "livingplace": "Bern"}, "sam. 14.06.2008": {"year": 2008, "day": 14, "month": 6, "categories": {"C": {"distance": 15, "rank": 143, "pace": 313000000000, "time": 4651.3}}, "weekday": "saturday", "livingplace": "Winterthur"}}, "location": "Andelfingen"}, "R\u00fctilauf, R\u00fcti ZH": {"latitude": 47.2566995, "longitude": 8.854421, "race": "R\u00fctilauf, R\u00fcti ZH", "date": {"sam. 06.09.2008": {"year": 2008, "day": 6, "month": 9, "categories": {"C": {"distance": 11, "rank": 137, "pace": 333000000000, "time": 3768.8}}, "weekday": "saturday", "livingplace": "Winterthur"}}, "location": "R\u00fcti ZH"}, "Thuner Stadtlauf, Thun": {"latitude": 46.7579868, "longitude": 7.6279881, "race": "Thuner Stadtlauf, Thun", "date": {"dim. 26.08.2012": {"year": 2012, "day": 26, "month": 8, "categories": {"10-M40": {"distance": 10, "rank": 103, "pace": 295000000000, "time": 2952.8}}, "weekday": "sunday", "livingplace": "Bern"}}, "location": "Thun"}, "SwissCityMarathon - Lucerne, Luzern": {"latitude": 47.05016819999999, "longitude": 8.3093072, "race": "SwissCityMarathon - Lucerne, Luzern", "date": {"dim. 25.10.2015": {"year": 2015, "day": 25, "month": 10, "categories": {"H-M45": {"distance": 21, "rank": 116, "pace": 273000000000, "time": 5770.9}}, "weekday": "sunday", "livingplace": "Bern"}}, "location": "Luzern"}, "Z\u00fcrcher Silvesterlauf, Z\u00fcrich": {"latitude": 47.3768866, "longitude": 8.541694, "race": "Z\u00fcrcher Silvesterlauf, Z\u00fcrich", "date": {"dim. 10.12.2006": {"year": 2006, "day": 10, "month": 12, "categories": {"MenAK1-8": {"distance": 9, "rank": 1061, "pace": 303000000000, "time": 2610.5}}, "weekday": "sunday", "livingplace": "Zurich"}}, "location": "Z\u00fcrich"}, "Int Greifenseelauf, Uster": {"latitude": 47.3482747, "longitude": 8.717873899999999, "race": "Int Greifenseelauf, Uster", "date": {"sam. 22.09.2007": {"year": 2007, "day": 22, "month": 9, "categories": {"H/M35": {"distance": 21, "rank": 857, "pace": 355000000000, "time": 7499.8}}, "weekday": "saturday", "livingplace": "Winterthur"}, "sam. 20.09.2008": {"year": 2008, "day": 20, "month": 9, "categories": {"H-M40": {"distance": 21, "rank": 887, "pace": 334000000000, "time": 7057.9}}, "weekday": "saturday", "livingplace": "Winterthur"}}, "location": "Uster"}, "GP der Stadt D\u00fcbendorf": {"latitude": 47.3971476, "longitude": 8.618012799999999, "race": "GP der Stadt D\u00fcbendorf", "date": {"sam. 14.04.2012": {"year": 2012, "day": 14, "month": 4, "categories": {"C": {"distance": 10, "rank": 149, "pace": 272000000000, "time": 2723.5}}, "weekday": "saturday", "livingplace": "Bern"}}, "location": "D\u00fcbendorf"}, "Murilauf, Muri b  Bern": {"latitude": 46.9350521, "longitude": 7.498472799999999, "race": "Murilauf, Muri b  Bern", "date": {"dim. 03.07.2011": {"year": 2011, "day": 3, "month": 7, "categories": {"10-M92": {"distance": 10, "rank": 40, "pace": 298000000000, "time": 2988.3}}, "weekday": "sunday", "livingplace": "Bern"}, "dim. 01.07.2012": {"year": 2012, "day": 1, "month": 7, "categories": {"10-M92": {"distance": 10, "rank": 34, "pace": 297000000000, "time": 2975.3}}, "weekday": "sunday", "livingplace": "Bern"}}, "location": "Muri b. Bern"}, "Laufsporttag Winterthur": {"latitude": 39.8088766, "longitude": -75.6037351, "race": "Laufsporttag Winterthur", "date": {"sam. 05.03.2011": {"year": 2011, "day": 5, "month": 3, "categories": {"C": {"distance": 11, "rank": 177, "pace": 342000000000, "time": 3769.1}}, "weekday": "saturday", "livingplace": "Bern"}}, "location": "Winterthur"}, "Ch\u00e4sitzerlouf, Kehrsatz": {"latitude": NaN, "longitude": NaN, "race": "Ch\u00e4sitzerlouf, Kehrsatz", "date": {"sam. 26.04.2014": {"year": 2014, "day": 26, "month": 4, "categories": {"12-M40": {"distance": 12, "rank": 135, "pace": 299000000000, "time": 3589.4}}, "weekday": "saturday", "livingplace": "Bern"}}, "location": "Kehrsatz"}, "Lausanne Marathon": {"latitude": 46.5196535, "longitude": 6.6322734, "race": "Lausanne Marathon", "date": {"dim. 26.10.2014": {"year": 2014, "day": 26, "month": 10, "categories": {"21-H40": {"distance": 21, "rank": 183, "pace": 282000000000, "time": 5955.6}}, "weekday": "sunday", "livingplace": "Bern"}}, "location": "Lausanne"}, "Winterthur Marathon": {"latitude": 39.8088766, "longitude": -75.6037351, "race": "Winterthur Marathon", "date": {"dim. 01.06.2014": {"year": 2014, "day": 1, "month": 6, "categories": {"H-M40": {"distance": 21, "rank": 162, "pace": 317000000000, "time": 6660.8}}, "weekday": "sunday", "livingplace": "Bern"}}, "location": "Winterthur"}, "Z\u00fcrich Marathon, Teamrun und Cityrun": {"latitude": 47.3768866, "longitude": 8.541694, "race": "Z\u00fcrich Marathon, Teamrun und Cityrun", "date": {"dim. 26.04.2009": {"year": 2009, "day": 26, "month": 4, "categories": {"M40": {"distance": 42, "rank": 812, "pace": 426000000000, "time": 18011.7}}, "weekday": "sunday", "livingplace": "Bern"}}, "location": "Z\u00fcrich"}, "Gurtenclassic, Wabern": {"latitude": 46.92901639999999, "longitude": 7.448973199999999, "race": "Gurtenclassic, Wabern", "date": {"dim. 01.11.2009": {"year": 2009, "day": 1, "month": 11, "categories": {"M40": {"distance": 15, "rank": 164, "pace": 400000000000, "time": 6012.1}}, "weekday": "sunday", "livingplace": "Bern"}}, "location": "Wabern"}}, "birth": 1968}