{"name": "Bruchez Doris", "sex": "F", "races": {"Tour du Chablais #2 Rennaz": {"latitude": 46.3835529, "longitude": 6.854975199999999, "race": "Tour du Chablais #2 Rennaz", "date": {"mer. 04.05.2011": {"year": 2011, "day": 4, "month": 5, "categories": {"F-F50": {"distance": 9, "rank": 13, "pace": 326000000000, "time": 3048.8}}, "weekday": "wednesday", "livingplace": "St Maurice"}}, "location": "Bouveret"}, "Tour du Chablais #6 Mouthey": {"latitude": 46.3190253, "longitude": 6.970566, "race": "Tour du Chablais #6 Mouthey", "date": {"mer. 12.05.2010": {"year": 2010, "day": 12, "month": 5, "categories": {"F-F50": {"distance": 9, "rank": 12, "pace": 311000000000, "time": 2867.1}}, "weekday": "wednesday", "livingplace": "St Maurice"}}, "location": "Aigle"}, "Tour du Chablais #1 Lavey": {"latitude": 46.2957462, "longitude": 6.9916269, "race": "Tour du Chablais #1 Lavey", "date": {"mer. 27.04.2011": {"year": 2011, "day": 27, "month": 4, "categories": {"F-F50": {"distance": 9, "rank": 8, "pace": 309000000000, "time": 2787.3}}, "weekday": "wednesday", "livingplace": "St Maurice"}}, "location": "Ollon VD"}, "Morat-Fribourg": {"latitude": 46.92922110000001, "longitude": 7.120184, "race": "Morat-Fribourg", "date": {"dim. 05.10.2003": {"year": 2003, "day": 5, "month": 10, "categories": {"W45": {"distance": 17, "rank": 47, "pace": 321000000000, "time": 5524.7}}, "weekday": "sunday", "livingplace": "St Maurice"}, "sam. 05.10.2013": {"year": 2013, "day": 5, "month": 10, "categories": {"17-W55": {"distance": 17, "rank": 55, "pace": 362000000000, "time": 6328.6}}, "weekday": "saturday", "livingplace": "St Maurice"}, "dim. 07.10.2001": {"year": 2001, "day": 7, "month": 10, "categories": {"W40": {"distance": 17, "rank": 51, "pace": 317000000000, "time": 5453.5}}, "weekday": "sunday", "livingplace": "St Maurice"}, "sam. 06.10.2007": {"year": 2007, "day": 6, "month": 10, "categories": {"C/W45": {"distance": 17, "rank": 57, "pace": 326000000000, "time": 5603.9}}, "weekday": "saturday", "livingplace": "St Maurice"}, "dim. 06.10.2002": {"year": 2002, "day": 6, "month": 10, "categories": {"W40": {"distance": 17, "rank": 67, "pace": 326000000000, "time": 5598.2}}, "weekday": "sunday", "livingplace": "St Maurice"}}, "location": "Murten"}, "Tour du Chablais #3 Le Bouveret": {"latitude": 46.1782231, "longitude": 7.0223787, "race": "Tour du Chablais #3 Le Bouveret", "date": {"mer. 11.05.2011": {"year": 2011, "day": 11, "month": 5, "categories": {"F-F50": {"distance": 10, "rank": 10, "pace": 326000000000, "time": 3265.2}}, "weekday": "wednesday", "livingplace": "St Maurice"}}, "location": "Evionnaz"}, "Tour du Chablais #3 Bex": {"latitude": 46.1782231, "longitude": 7.0223787, "race": "Tour du Chablais #3 Bex", "date": {"mer. 21.04.2010": {"year": 2010, "day": 21, "month": 4, "categories": {"F-F50": {"distance": 10, "rank": 13, "pace": 325000000000, "time": 3255.0}}, "weekday": "wednesday", "livingplace": "St Maurice"}}, "location": "Evionnaz"}, "La Montheysanne, Monthey": {"latitude": 46.2521873, "longitude": 6.9469598, "race": "La Montheysanne, Monthey", "date": {"dim. 25.08.2013": {"year": 2013, "day": 25, "month": 8, "categories": {"10-DA3": {"distance": 10, "rank": 5, "pace": 312000000000, "time": 3122.5}}, "weekday": "sunday", "livingplace": "St Maurice"}}, "location": "Monthey"}, "Tour du Chablais #2 St-Gingolph": {"latitude": 46.3835529, "longitude": 6.854975199999999, "race": "Tour du Chablais #2 St-Gingolph", "date": {"mer. 14.04.2010": {"year": 2010, "day": 14, "month": 4, "categories": {"F-F50": {"distance": 8, "rank": 12, "pace": 355000000000, "time": 2969.2}}, "weekday": "wednesday", "livingplace": "St Maurice"}}, "location": "Bouveret"}}, "birth": 1958}