{"name": "Brugnara Yuri", "sex": "M", "races": {"Lausanne Marathon": {"latitude": 46.5196535, "longitude": 6.6322734, "race": "Lausanne Marathon", "date": {"dim. 28.10.2012": {"year": 2012, "day": 28, "month": 10, "categories": {"42-H1": {"distance": 42, "rank": 17, "pace": 277000000000, "time": 11722.0}}, "weekday": "sunday", "livingplace": "Liebefeld"}}, "location": "Lausanne"}, "IWB Basel Marathon": {"latitude": 47.5595986, "longitude": 7.5885761, "race": "IWB Basel Marathon", "date": {"dim. 22.09.2013": {"year": 2013, "day": 22, "month": 9, "categories": {"H-21-M30": {"distance": 21, "rank": 8, "pace": 234000000000, "time": 4947.4}}, "weekday": "sunday", "livingplace": "Bern"}}, "location": "Basel"}, "Thuner Stadtlauf, Thun": {"latitude": 46.7579868, "longitude": 7.6279881, "race": "Thuner Stadtlauf, Thun", "date": {"dim. 26.08.2012": {"year": 2012, "day": 26, "month": 8, "categories": {"10-M20": {"distance": 10, "rank": 9, "pace": 234000000000, "time": 2345.9}}, "weekday": "sunday", "livingplace": "Liebefeld"}}, "location": "Thun"}, "Gurtenclassic, Wabern": {"latitude": 46.92901639999999, "longitude": 7.448973199999999, "race": "Gurtenclassic, Wabern", "date": {"dim. 03.11.2013": {"year": 2013, "day": 3, "month": 11, "categories": {"M30": {"distance": 15, "rank": 14, "pace": 260000000000, "time": 3908.4}}, "weekday": "sunday", "livingplace": "Bern"}, "dim. 04.11.2012": {"year": 2012, "day": 4, "month": 11, "categories": {"15-M20": {"distance": 15, "rank": 12, "pace": 272000000000, "time": 4083.7}}, "weekday": "sunday", "livingplace": "Liebefeld"}, "dim. 06.11.2011": {"year": 2011, "day": 6, "month": 11, "categories": {"M20": {"distance": 15, "rank": 36, "pace": 306000000000, "time": 4594.6}}, "weekday": "sunday", "livingplace": "Liebefeld"}}, "location": "Wabern"}, "Kerzerslauf": {"latitude": 46.97488999999999, "longitude": 7.1954365, "race": "Kerzerslauf", "date": {"sam. 17.03.2012": {"year": 2012, "day": 17, "month": 3, "categories": {"15-M20": {"distance": 15, "rank": 75, "pace": 236000000000, "time": 3554.6}}, "weekday": "saturday", "livingplace": "Liebefeld"}}, "location": "Kerzers"}}, "birth": 1983}