{"name": "Brunner Peter", "sex": "M", "races": {"Luzerner Stadtlauf": {"latitude": 47.05016819999999, "longitude": 8.3093072, "race": "Luzerner Stadtlauf", "date": {"sam. 24.04.2004": {"year": 2004, "day": 24, "month": 4, "categories": {"K/29": {"distance": 6, "rank": 64, "pace": 236000000000, "time": 1298.7}}, "weekday": "saturday", "livingplace": "Olten"}}, "location": "Luzern"}, "ASICS Bremgarter Reusslauf": {"latitude": 47.34917739999999, "longitude": 8.3397905, "race": "ASICS Bremgarter Reusslauf", "date": {"sam. 23.02.2002": {"year": 2002, "day": 23, "month": 2, "categories": {"13": {"distance": 10, "rank": 77, "pace": 240000000000, "time": 2409.2}}, "weekday": "saturday", "livingplace": "Olten"}, "sam. 22.02.2003": {"year": 2003, "day": 22, "month": 2, "categories": {"13": {"distance": 11, "rank": 68, "pace": 221000000000, "time": 2432.0}}, "weekday": "saturday", "livingplace": "Olten"}}, "location": "Bremgarten AG"}, "Basler Stadtlauf": {"latitude": 47.5595986, "longitude": 7.5885761, "race": "Basler Stadtlauf", "date": {"sam. 29.11.2003": {"year": 2003, "day": 29, "month": 11, "categories": {"U": {"distance": 6, "rank": 19, "pace": 222000000000, "time": 1223.4}}, "weekday": "saturday", "livingplace": "Olten"}, "sam. 30.11.2002": {"year": 2002, "day": 30, "month": 11, "categories": {"U": {"distance": 6, "rank": 21, "pace": 226000000000, "time": 1247.5}}, "weekday": "saturday", "livingplace": "Olten"}}, "location": "Basel"}, "Int Greifenseelauf, Uster": {"latitude": 47.3482747, "longitude": 8.717873899999999, "race": "Int Greifenseelauf, Uster", "date": {"sam. 18.09.2004": {"year": 2004, "day": 18, "month": 9, "categories": {"H/M45": {"distance": 21, "rank": 849, "pace": 400000000000, "time": 8454.7}}, "weekday": "saturday", "livingplace": "Bachenbulach"}}, "location": "Uster"}, "Kerzerslauf": {"latitude": 46.97488999999999, "longitude": 7.1954365, "race": "Kerzerslauf", "date": {"sam. 17.03.2001": {"year": 2001, "day": 17, "month": 3, "categories": {"M45": {"distance": 15, "rank": 16, "pace": 236000000000, "time": 3540.3}}, "weekday": "saturday", "livingplace": "Olten"}}, "location": "Kerzers"}, "Jungfrau-Marathon, Interlaken": {"latitude": NaN, "longitude": NaN, "race": "Jungfrau-Marathon, Interlaken", "date": {"sam. 01.09.2001": {"year": 2001, "day": 1, "month": 9, "categories": {"M45": {"distance": 42, "rank": 32, "pace": 341000000000, "time": 14413.1}}, "weekday": "saturday", "livingplace": "Olten"}}, "location": "Interlaken"}}, "birth": 1955}