{"name": "Br\u00fcnisholz Anita", "sex": "F", "races": {"Groupe E Tour Fribourg #4, Siviriez": {"latitude": 46.6585092, "longitude": 6.877722, "race": "Groupe E Tour Fribourg #4, Siviriez", "date": {"mer. 10.09.2014": {"year": 2014, "day": 10, "month": 9, "categories": {"D-Dam3": {"distance": 11, "rank": 16, "pace": 423000000000, "time": 4568.6}}, "weekday": "wednesday", "livingplace": "Lentigny"}}, "location": "Siviriez"}, "Morat-Fribourg": {"latitude": 46.92922110000001, "longitude": 7.120184, "race": "Morat-Fribourg", "date": {"sam. 05.10.2013": {"year": 2013, "day": 5, "month": 10, "categories": {"8-JoggF": {"distance": 9, "rank": 142, "pace": 359000000000, "time": 3192.9}}, "weekday": "saturday", "livingplace": "Lentigny"}, "sam. 04.10.2014": {"year": 2014, "day": 4, "month": 10, "categories": {"8-JoggF": {"distance": 9, "rank": 192, "pace": 359000000000, "time": 3120.6}}, "weekday": "saturday", "livingplace": "Lentigny"}}, "location": "Murten"}, "Corrida Bulloise, Bulle": {"latitude": 46.6154512, "longitude": 7.057726799999999, "race": "Corrida Bulloise, Bulle", "date": {"sam. 16.11.2013": {"year": 2013, "day": 16, "month": 11, "categories": {"F40": {"distance": 6, "rank": 91, "pace": 354000000000, "time": 2182.7}}, "weekday": "saturday", "livingplace": "Lentigny"}}, "location": "Bulle"}, "Schweizer Frauenlauf Bern": {"latitude": 46.9479739, "longitude": 7.4474468, "race": "Schweizer Frauenlauf Bern", "date": {"dim. 10.06.2012": {"year": 2012, "day": 10, "month": 6, "categories": {"5-OffKat": {"distance": 5, "rank": 62, "pace": 379000000000, "time": 1896.1}}, "weekday": "sunday", "livingplace": "Lentigny"}, "dim. 15.06.2014": {"year": 2014, "day": 15, "month": 6, "categories": {"10-W45": {"distance": 10, "rank": 362, "pace": 362000000000, "time": 3620.5}}, "weekday": "sunday", "livingplace": "Lentigny"}, "dim. 09.06.2013": {"year": 2013, "day": 9, "month": 6, "categories": {"10-W40": {"distance": 10, "rank": 430, "pace": 364000000000, "time": 3642.2}}, "weekday": "sunday", "livingplace": "Lentigny"}}, "location": "Bern"}, "Groupe E Tour Fribourg #3, Kerzers": {"latitude": 46.97488999999999, "longitude": 7.1954365, "race": "Groupe E Tour Fribourg #3, Kerzers", "date": {"mer. 03.09.2014": {"year": 2014, "day": 3, "month": 9, "categories": {"D-Dam3": {"distance": 10, "rank": 25, "pace": 364000000000, "time": 3706.3}}, "weekday": "wednesday", "livingplace": "Lentigny"}}, "location": "Kerzers"}, "Groupe E Tour Fribourg #1, Cousset": {"latitude": 46.81832, "longitude": 6.977279999999999, "race": "Groupe E Tour Fribourg #1, Cousset", "date": {"mer. 20.08.2014": {"year": 2014, "day": 20, "month": 8, "categories": {"D-Dam3": {"distance": 9, "rank": 31, "pace": 372000000000, "time": 3499.2}}, "weekday": "wednesday", "livingplace": "Lentigny"}}, "location": "Cousset"}}, "birth": 1969}