{"name": "Buccelloni Betty", "sex": "F", "races": {"Tour du Chablais #6 Monthey": {"latitude": 46.3190253, "longitude": 6.970566, "race": "Tour du Chablais #6 Monthey", "date": {"mer. 08.05.2013": {"year": 2013, "day": 8, "month": 5, "categories": {"F-F40": {"distance": 9, "rank": 45, "pace": 319000000000, "time": 2976.4}}, "weekday": "wednesday", "livingplace": "Bouveret"}}, "location": "Aigle"}, "Morat-Fribourg": {"latitude": 46.92922110000001, "longitude": 7.120184, "race": "Morat-Fribourg", "date": {"sam. 05.10.2013": {"year": 2013, "day": 5, "month": 10, "categories": {"17-W45": {"distance": 17, "rank": 166, "pace": 357000000000, "time": 6239.6}}, "weekday": "saturday", "livingplace": "Bouveret"}, "sam. 01.10.2011": {"year": 2011, "day": 1, "month": 10, "categories": {"17-W40": {"distance": 17, "rank": 250, "pace": 394000000000, "time": 6766.1}}, "weekday": "saturday", "livingplace": "Bouveret"}, "sam. 06.10.2012": {"year": 2012, "day": 6, "month": 10, "categories": {"17-W45": {"distance": 17, "rank": 171, "pace": 369000000000, "time": 6447.3}}, "weekday": "saturday", "livingplace": "Bouveret"}, "sam. 03.10.2015": {"year": 2015, "day": 3, "month": 10, "categories": {"17-W45": {"distance": 17, "rank": 206, "pace": 399000000000, "time": 6862.9}}, "weekday": "saturday", "livingplace": "Bouveret"}}, "location": "Murten"}, "Tour du Chablais #4 Morgins": {"latitude": NaN, "longitude": NaN, "race": "Tour du Chablais #4 Morgins", "date": {"mer. 18.05.2011": {"year": 2011, "day": 18, "month": 5, "categories": {"F-F40": {"distance": 8, "rank": 80, "pace": 395000000000, "time": 3301.5}}, "weekday": "wednesday", "livingplace": "Bouveret"}}, "location": "Les Mosses"}, "Tour du Chablais #3 Le Bouveret": {"latitude": 46.1782231, "longitude": 7.0223787, "race": "Tour du Chablais #3 Le Bouveret", "date": {"mer. 11.05.2011": {"year": 2011, "day": 11, "month": 5, "categories": {"F-F40": {"distance": 10, "rank": 79, "pace": 388000000000, "time": 3888.2}}, "weekday": "wednesday", "livingplace": "Bouveret"}}, "location": "Evionnaz"}, "Schweizer Frauenlauf Bern": {"latitude": 46.9479739, "longitude": 7.4474468, "race": "Schweizer Frauenlauf Bern", "date": {"dim. 14.06.2015": {"year": 2015, "day": 14, "month": 6, "categories": {"10-W45": {"distance": 10, "rank": 337, "pace": 369000000000, "time": 3696.7}}, "weekday": "sunday", "livingplace": "Bouveret"}}, "location": "Bern"}, "20km de Lausanne": {"latitude": 46.5196535, "longitude": 6.6322734, "race": "20km de Lausanne", "date": {"sam. 27.04.2013": {"year": 2013, "day": 27, "month": 4, "categories": {"10-F45": {"distance": 10, "rank": 140, "pace": 355000000000, "time": 3557.3}}, "weekday": "saturday", "livingplace": "Bouveret"}, "sam. 28.04.2012": {"year": 2012, "day": 28, "month": 4, "categories": {"10-F45": {"distance": 10, "rank": 96, "pace": 349000000000, "time": 3496.2}}, "weekday": "saturday", "livingplace": "Bouveret"}}, "location": "Lausanne"}, "Tour du Chablais #2 Yvorne": {"latitude": 46.3835529, "longitude": 6.854975199999999, "race": "Tour du Chablais #2 Yvorne", "date": {"mer. 10.04.2013": {"year": 2013, "day": 10, "month": 4, "categories": {"F-F40": {"distance": 8, "rank": 48, "pace": 373000000000, "time": 2987.7}}, "weekday": "wednesday", "livingplace": "Bouveret"}}, "location": "Bouveret"}, "Tour du Chablais #2 Bex": {"latitude": 46.3835529, "longitude": 6.854975199999999, "race": "Tour du Chablais #2 Bex", "date": {"mer. 18.04.2012": {"year": 2012, "day": 18, "month": 4, "categories": {"F-F40": {"distance": 8, "rank": 52, "pace": 343000000000, "time": 2751.7}}, "weekday": "wednesday", "livingplace": "Bouveret"}}, "location": "Bouveret"}, "Tour du Chablais #5 Bex": {"latitude": 46.3603257, "longitude": 6.931504599999999, "race": "Tour du Chablais #5 Bex", "date": {"mer. 09.05.2012": {"year": 2012, "day": 9, "month": 5, "categories": {"F-F40": {"distance": 9, "rank": 36, "pace": 330000000000, "time": 2928.8}}, "weekday": "wednesday", "livingplace": "Bouveret"}}, "location": "Roche VD"}, "Tour du Chablais #4 Champ\u00e9ry": {"latitude": NaN, "longitude": NaN, "race": "Tour du Chablais #4 Champ\u00e9ry", "date": {"mer. 02.05.2012": {"year": 2012, "day": 2, "month": 5, "categories": {"F-F40": {"distance": 8, "rank": 40, "pace": 326000000000, "time": 2707.5}}, "weekday": "wednesday", "livingplace": "Bouveret"}}, "location": "Les Mosses"}, "Tour du Chablais #3 Bouveret": {"latitude": 46.1782231, "longitude": 7.0223787, "race": "Tour du Chablais #3 Bouveret", "date": {"mer. 17.04.2013": {"year": 2013, "day": 17, "month": 4, "categories": {"F-F40": {"distance": 10, "rank": 47, "pace": 333000000000, "time": 3332.7}}, "weekday": "wednesday", "livingplace": "Bouveret"}}, "location": "Evionnaz"}, "Tour du Chablais #1 Montreux": {"latitude": 46.2957462, "longitude": 6.9916269, "race": "Tour du Chablais #1 Montreux", "date": {"mer. 11.04.2012": {"year": 2012, "day": 11, "month": 4, "categories": {"F-F40": {"distance": 8, "rank": 43, "pace": 352000000000, "time": 2679.5}}, "weekday": "wednesday", "livingplace": "Bouveret"}}, "location": "Ollon VD"}, "Tour du Chablais #5 Les Mosses": {"latitude": 46.3603257, "longitude": 6.931504599999999, "race": "Tour du Chablais #5 Les Mosses", "date": {"mer. 25.05.2011": {"year": 2011, "day": 25, "month": 5, "categories": {"F-F40": {"distance": 8, "rank": 66, "pace": 394000000000, "time": 3158.5}}, "weekday": "wednesday", "livingplace": "Bouveret"}}, "location": "Roche VD"}, "Tour du Chablais #3 Collombey-Muraz": {"latitude": 46.1782231, "longitude": 7.0223787, "race": "Tour du Chablais #3 Collombey-Muraz", "date": {"mer. 25.04.2012": {"year": 2012, "day": 25, "month": 4, "categories": {"F-F40": {"distance": 9, "rank": 32, "pace": 318000000000, "time": 2861.9}}, "weekday": "wednesday", "livingplace": "Bouveret"}}, "location": "Evionnaz"}, "Tour du Chablais #6 Aigle": {"latitude": 46.3190253, "longitude": 6.970566, "race": "Tour du Chablais #6 Aigle", "date": {"mer. 01.06.2011": {"year": 2011, "day": 1, "month": 6, "categories": {"F-F40": {"distance": 10, "rank": 57, "pace": 341000000000, "time": 3478.6}}, "weekday": "wednesday", "livingplace": "Bouveret"}}, "location": "Aigle"}, "Tour du Chablais #4 St  Maurice": {"latitude": NaN, "longitude": NaN, "race": "Tour du Chablais #4 St  Maurice", "date": {"mer. 24.04.2013": {"year": 2013, "day": 24, "month": 4, "categories": {"F-F40": {"distance": 10, "rank": 43, "pace": 332000000000, "time": 3329.1}}, "weekday": "wednesday", "livingplace": "Bouveret"}}, "location": "Les Mosses"}, "Kerzerslauf": {"latitude": 46.97488999999999, "longitude": 7.1954365, "race": "Kerzerslauf", "date": {"sam. 17.03.2012": {"year": 2012, "day": 17, "month": 3, "categories": {"15-F45": {"distance": 15, "rank": 250, "pace": 390000000000, "time": 5861.1}}, "weekday": "saturday", "livingplace": "Bouveret"}, "sam. 16.03.2013": {"year": 2013, "day": 16, "month": 3, "categories": {"15-F45": {"distance": 15, "rank": 200, "pace": 358000000000, "time": 5373.7}}, "weekday": "saturday", "livingplace": "Bouveret"}}, "location": "Kerzers"}, "Tour du Chablais #6 Montreux": {"latitude": 46.3190253, "longitude": 6.970566, "race": "Tour du Chablais #6 Montreux", "date": {"mer. 16.05.2012": {"year": 2012, "day": 16, "month": 5, "categories": {"F-F40": {"distance": 9, "rank": 35, "pace": 309000000000, "time": 2864.7}}, "weekday": "wednesday", "livingplace": "Bouveret"}}, "location": "Aigle"}}, "birth": 1967}