{"name": "Buchs Paul", "sex": "M", "races": {"BCN Tour M\u00f4tier": {"latitude": 46.9262933, "longitude": 6.6324944, "race": "BCN Tour M\u00f4tier", "date": {"mer. 19.05.2010": {"year": 2010, "day": 19, "month": 5, "categories": {"KG4": {"distance": 4, "rank": 13, "pace": 256000000000, "time": 975.3}}, "weekday": "wednesday", "livingplace": "Neuchtel"}}, "location": "Couvet"}, "BCN Tour Ponts-de-Martel": {"latitude": 47.0624261, "longitude": 6.9175754, "race": "BCN Tour Ponts-de-Martel", "date": {"mer. 28.04.2010": {"year": 2010, "day": 28, "month": 4, "categories": {"KG4": {"distance": 4, "rank": 14, "pace": 216000000000, "time": 908.5}}, "weekday": "wednesday", "livingplace": "Neuchtel"}}, "location": "Ch\u00e9zard-St-Martin"}, "BCN Tour Le Landeron": {"latitude": 46.9668714, "longitude": 6.8589727, "race": "BCN Tour Le Landeron", "date": {"mer. 22.04.2009": {"year": 2009, "day": 22, "month": 4, "categories": {"KG3": {"distance": 4, "rank": 6, "pace": 235000000000, "time": 942.9}}, "weekday": "wednesday", "livingplace": "Neuchtel"}}, "location": "Colombier NE"}, "BCN Tour Le Locle": {"latitude": 46.999113, "longitude": 6.733554799999999, "race": "BCN Tour Le Locle", "date": {"mer. 05.05.2010": {"year": 2010, "day": 5, "month": 5, "categories": {"KG4": {"distance": 4, "rank": 16, "pace": 242000000000, "time": 896.7}}, "weekday": "wednesday", "livingplace": "Neuchtel"}}, "location": "Les Ponts-de-Martel"}, "BCN Tour Neuch\u00e2tel": {"latitude": 46.9899874, "longitude": 6.9292732, "race": "BCN Tour Neuch\u00e2tel", "date": {"mer. 26.05.2010": {"year": 2010, "day": 26, "month": 5, "categories": {"HJ": {"distance": 10, "rank": 39, "pace": 324000000000, "time": 3145.7}}, "weekday": "wednesday", "livingplace": "Neuchtel"}, "mer. 25.05.2011": {"year": 2011, "day": 25, "month": 5, "categories": {"KG4": {"distance": 4, "rank": 16, "pace": 235000000000, "time": 854.3}}, "weekday": "wednesday", "livingplace": "Neuchtel"}}, "location": "Neuch\u00e2tel"}, "BCN Tour Colombier": {"latitude": 46.9668714, "longitude": 6.8589727, "race": "BCN Tour Colombier", "date": {"mer. 21.04.2010": {"year": 2010, "day": 21, "month": 4, "categories": {"KG4": {"distance": 4, "rank": 13, "pace": 248000000000, "time": 992.4}}, "weekday": "wednesday", "livingplace": "Neuchtel"}}, "location": "Colombier NE"}}, "birth": 1996}