{"name": "Bucher Andr\u00e9", "sex": "M", "races": {"Lucerne Marathon, Luzern": {"latitude": 47.05016819999999, "longitude": 8.3093072, "race": "Lucerne Marathon, Luzern", "date": {"dim. 28.10.2012": {"year": 2012, "day": 28, "month": 10, "categories": {"M-M40": {"distance": 42, "rank": 426, "pace": 462000000000, "time": 19517.3}}, "weekday": "sunday", "livingplace": "Port"}}, "location": "Luzern"}, "Glacier 3000 Run, Gstaad": {"latitude": 46.4717588, "longitude": 7.2865728, "race": "Glacier 3000 Run, Gstaad", "date": {"sam. 09.08.2014": {"year": 2014, "day": 9, "month": 8, "categories": {"M50": {"distance": 26, "rank": 80, "pace": 674000000000, "time": 17533.4}}, "weekday": "saturday", "livingplace": "Port"}}, "location": "Gstaad"}, "Zermatt Marathon, Zermatt": {"latitude": NaN, "longitude": NaN, "race": "Zermatt Marathon, Zermatt", "date": {"sam. 06.07.2013": {"year": 2013, "day": 6, "month": 7, "categories": {"M-M50": {"distance": 42, "rank": 66, "pace": 514000000000, "time": 21723.7}}, "weekday": "saturday", "livingplace": "Port"}}, "location": "Zermatt"}, "SwissCityMarathon - Lucerne, Luzern": {"latitude": 47.05016819999999, "longitude": 8.3093072, "race": "SwissCityMarathon - Lucerne, Luzern", "date": {"dim. 25.10.2015": {"year": 2015, "day": 25, "month": 10, "categories": {"M-M50": {"distance": 42, "rank": 126, "pace": 391000000000, "time": 16527.5}}, "weekday": "sunday", "livingplace": "Port"}, "dim. 26.10.2014": {"year": 2014, "day": 26, "month": 10, "categories": {"M-M50": {"distance": 42, "rank": 189, "pace": 376000000000, "time": 15891.0}}, "weekday": "sunday", "livingplace": "Port"}, "dim. 27.10.2013": {"year": 2013, "day": 27, "month": 10, "categories": {"M-M50": {"distance": 42, "rank": 171, "pace": 356000000000, "time": 15039.5}}, "weekday": "sunday", "livingplace": "Port"}}, "location": "Luzern"}, "Eiger Ultra Trail, Grindelwald": {"latitude": 46.624164, "longitude": 8.0413962, "race": "Eiger Ultra Trail, Grindelwald", "date": {"sam. 19.07.2014": {"year": 2014, "day": 19, "month": 7, "categories": {"B-HS2": {"distance": 51, "rank": 77, "pace": 848000000000, "time": 43281.6}}, "weekday": "saturday", "livingplace": "Port"}}, "location": "Grindelwald"}, "Morat-Fribourg": {"latitude": 46.92922110000001, "longitude": 7.120184, "race": "Morat-Fribourg", "date": {"sam. 04.10.2014": {"year": 2014, "day": 4, "month": 10, "categories": {"17-M50": {"distance": 17, "rank": 409, "pace": 350000000000, "time": 6010.1}}, "weekday": "saturday", "livingplace": "Port"}}, "location": "Murten"}, "Kerzerslauf": {"latitude": 46.97488999999999, "longitude": 7.1954365, "race": "Kerzerslauf", "date": {"sam. 16.03.2013": {"year": 2013, "day": 16, "month": 3, "categories": {"15-M50": {"distance": 15, "rank": 406, "pace": 363000000000, "time": 5446.7}}, "weekday": "saturday", "livingplace": "Port"}}, "location": "Kerzers"}, "Z\u00fcrich Marathon, Teamrun und Cityrun": {"latitude": 47.3768866, "longitude": 8.541694, "race": "Z\u00fcrich Marathon, Teamrun und Cityrun", "date": {"dim. 06.04.2014": {"year": 2014, "day": 6, "month": 4, "categories": {"42-M50": {"distance": 42, "rank": 240, "pace": 375000000000, "time": 15844.1}}, "weekday": "sunday", "livingplace": "Port"}}, "location": "Z\u00fcrich"}}, "birth": 1963}