{"name": "Bucher Edith", "sex": "F", "races": {"Course en f\u00f4ret, Romont": {"latitude": 46.691887, "longitude": 6.9118086, "race": "Course en f\u00f4ret, Romont", "date": {"dim. 15.09.2002": {"year": 2002, "day": 15, "month": 9, "categories": {"F20": {"distance": 15, "rank": 52, "pace": 325000000000, "time": 4784.5}}, "weekday": "sunday", "livingplace": "Cordast"}}, "location": "Romont FR"}, "Thuner Stadtlauf, Thun": {"latitude": 46.7579868, "longitude": 7.6279881, "race": "Thuner Stadtlauf, Thun", "date": {"dim. 26.08.2001": {"year": 2001, "day": 26, "month": 8, "categories": {"W30": {"distance": 10, "rank": 40, "pace": 341000000000, "time": 3411.7}}, "weekday": "sunday", "livingplace": "Cordast"}}, "location": "Thun"}, "Morat-Fribourg": {"latitude": 46.92922110000001, "longitude": 7.120184, "race": "Morat-Fribourg", "date": {"dim. 07.10.2001": {"year": 2001, "day": 7, "month": 10, "categories": {"CF": {"distance": 9, "rank": 23, "pace": 333000000000, "time": 2864.3}}, "weekday": "sunday", "livingplace": "Cordast"}, "dim. 06.10.2002": {"year": 2002, "day": 6, "month": 10, "categories": {"W35": {"distance": 17, "rank": 151, "pace": 355000000000, "time": 6103.6}}, "weekday": "sunday", "livingplace": "Cordast"}}, "location": "Murten"}, "Kerzerslauf": {"latitude": 46.97488999999999, "longitude": 7.1954365, "race": "Kerzerslauf", "date": {"sam. 18.03.2000": {"year": 2000, "day": 18, "month": 3, "categories": {"FJOG": {"distance": 6, "rank": 66, "pace": 327000000000, "time": 1803.8}}, "weekday": "saturday", "livingplace": "Cordast"}, "sam. 15.03.2003": {"year": 2003, "day": 15, "month": 3, "categories": {"F35": {"distance": 15, "rank": 133, "pace": 340000000000, "time": 5112.1}}, "weekday": "saturday", "livingplace": "Cordast"}, "sam. 20.03.2004": {"year": 2004, "day": 20, "month": 3, "categories": {"F40": {"distance": 15, "rank": 151, "pace": 359000000000, "time": 5387.9}}, "weekday": "saturday", "livingplace": "Cordast"}}, "location": "Kerzers"}, "Schweizer Frauenlauf Bern": {"latitude": 46.9479739, "longitude": 7.4474468, "race": "Schweizer Frauenlauf Bern", "date": {"dim. 10.06.2001": {"year": 2001, "day": 10, "month": 6, "categories": {"W35": {"distance": 5, "rank": 745, "pace": 321000000000, "time": 1609.9}}, "weekday": "sunday", "livingplace": "Cordast"}}, "location": "Bern"}}, "birth": 1964}