{"name": "Buchs Pascal", "sex": "M", "races": {"Grand Prix Craft, Neuch\u00e2tel": {"latitude": 46.9899874, "longitude": 6.9292732, "race": "Grand Prix Craft, Neuch\u00e2tel", "date": {"dim. 16.12.2007": {"year": 2007, "day": 16, "month": 12, "categories": {"KG2": {"distance": 1, "rank": 1, "pace": 213000000000, "time": 299.0}}, "weekday": "sunday", "livingplace": "CEP Cortaillod"}}, "location": "Neuch\u00e2tel"}, "BCN Tour #1 Corcelles": {"latitude": 46.9668714, "longitude": 6.8589727, "race": "BCN Tour #1 Corcelles", "date": {"mer. 24.04.2013": {"year": 2013, "day": 24, "month": 4, "categories": {"HJ": {"distance": 10, "rank": 2, "pace": 216000000000, "time": 2120.1}}, "weekday": "wednesday", "livingplace": "Geneve"}}, "location": "Colombier NE"}, "D\u00e9fi Val-de-Travers, Couvet": {"latitude": 46.9262933, "longitude": 6.6324944, "race": "D\u00e9fi Val-de-Travers, Couvet", "date": {"sam. 21.06.2008": {"year": 2008, "day": 21, "month": 6, "categories": {"GB": {"distance": 3, "rank": 1, "pace": 233000000000, "time": 594.7}}, "weekday": "saturday", "livingplace": "Geneve"}}, "location": "Couvet"}, "BCN Tour Le Landeron": {"latitude": 46.9668714, "longitude": 6.8589727, "race": "BCN Tour Le Landeron", "date": {"mer. 22.04.2009": {"year": 2009, "day": 22, "month": 4, "categories": {"KG3": {"distance": 4, "rank": 5, "pace": 235000000000, "time": 942.5}}, "weekday": "wednesday", "livingplace": "Anco"}}, "location": "Colombier NE"}, "20km de Lausanne": {"latitude": 46.5196535, "longitude": 6.6322734, "race": "20km de Lausanne", "date": {"sam. 30.04.2011": {"year": 2011, "day": 30, "month": 4, "categories": {"4-CadM": {"distance": 4, "rank": 4, "pace": 216000000000, "time": 867.8}}, "weekday": "saturday", "livingplace": "Geneve"}, "sam. 25.04.2009": {"year": 2009, "day": 25, "month": 4, "categories": {"EcolB-M": {"distance": 4, "rank": 6, "pace": 237000000000, "time": 950.9}}, "weekday": "saturday", "livingplace": "Geneve"}, "sam. 23.04.2005": {"year": 2005, "day": 23, "month": 4, "categories": {"27": {"distance": 4, "rank": 2, "pace": 266000000000, "time": 1064.1}}, "weekday": "saturday", "livingplace": "Geneve"}}, "location": "Lausanne"}, "BCN Tour Ponts-de-Martel": {"latitude": 47.0624261, "longitude": 6.9175754, "race": "BCN Tour Ponts-de-Martel", "date": {"mer. 28.04.2010": {"year": 2010, "day": 28, "month": 4, "categories": {"KG3": {"distance": 4, "rank": 1, "pace": 203000000000, "time": 855.1}}, "weekday": "wednesday", "livingplace": "Geneve"}}, "location": "Ch\u00e9zard-St-Martin"}, "BCN Tour Auvernier": {"latitude": 46.9668714, "longitude": 6.8589727, "race": "BCN Tour Auvernier", "date": {"mer. 20.04.2011": {"year": 2011, "day": 20, "month": 4, "categories": {"KG4": {"distance": 2, "rank": 5, "pace": 202000000000, "time": 475.9}}, "weekday": "wednesday", "livingplace": "Geneve"}}, "location": "Colombier NE"}, "BCN Tour #4 Fleurier": {"latitude": 47.1034892, "longitude": 6.832783800000001, "race": "BCN Tour #4 Fleurier", "date": {"mer. 15.05.2013": {"year": 2013, "day": 15, "month": 5, "categories": {"HJ": {"distance": 9, "rank": 1, "pace": 214000000000, "time": 1856.7}}, "weekday": "wednesday", "livingplace": "Geneve"}}, "location": "La Chaux-de-Fonds"}, "BCN Tour #2 La Chaux-de-Fonds": {"latitude": 47.0624261, "longitude": 6.9175754, "race": "BCN Tour #2 La Chaux-de-Fonds", "date": {"mer. 01.05.2013": {"year": 2013, "day": 1, "month": 5, "categories": {"HJ": {"distance": 11, "rank": 2, "pace": 218000000000, "time": 2337.5}}, "weekday": "wednesday", "livingplace": "Geneve"}}, "location": "Ch\u00e9zard-St-Martin"}, "Montreux - Les Rochers de Naye": {"latitude": 46.4312213, "longitude": 6.9106799, "race": "Montreux - Les Rochers de Naye", "date": {"dim. 07.07.2013": {"year": 2013, "day": 7, "month": 7, "categories": {"C-HJun": {"distance": 10, "rank": 2, "pace": 356000000000, "time": 3386.5}}, "weekday": "sunday", "livingplace": "Geneve"}}, "location": "Montreux"}, "BCN Tour La Chaux-de-Fonds": {"latitude": 47.1034892, "longitude": 6.832783800000001, "race": "BCN Tour La Chaux-de-Fonds", "date": {"mer. 23.05.2012": {"year": 2012, "day": 23, "month": 5, "categories": {"HJ": {"distance": 11, "rank": 5, "pace": 236000000000, "time": 2558.4}}, "weekday": "wednesday", "livingplace": "Geneve"}, "mer. 11.05.2011": {"year": 2011, "day": 11, "month": 5, "categories": {"KG4": {"distance": 4, "rank": 4, "pace": 170000000000, "time": 663.3}}, "weekday": "wednesday", "livingplace": "Geneve"}}, "location": "La Chaux-de-Fonds"}, "BCN Tour Les Ponts-de-Martel": {"latitude": 46.999113, "longitude": 6.733554799999999, "race": "BCN Tour Les Ponts-de-Martel", "date": {"mer. 09.05.2012": {"year": 2012, "day": 9, "month": 5, "categories": {"KG4": {"distance": 4, "rank": 1, "pace": 207000000000, "time": 790.3}}, "weekday": "wednesday", "livingplace": "Geneve"}}, "location": "Les Ponts-de-Martel"}, "BCN Tour Neuch\u00e2tel": {"latitude": 46.9899874, "longitude": 6.9292732, "race": "BCN Tour Neuch\u00e2tel", "date": {"mer. 26.05.2010": {"year": 2010, "day": 26, "month": 5, "categories": {"KG3": {"distance": 3, "rank": 2, "pace": 189000000000, "time": 644.0}}, "weekday": "wednesday", "livingplace": "Geneve"}, "mer. 30.05.2012": {"year": 2012, "day": 30, "month": 5, "categories": {"KG4": {"distance": 3, "rank": 1, "pace": 203000000000, "time": 629.3}}, "weekday": "wednesday", "livingplace": "Geneve"}, "mer. 25.05.2011": {"year": 2011, "day": 25, "month": 5, "categories": {"HJ": {"distance": 11, "rank": 11, "pace": 264000000000, "time": 3010.7}}, "weekday": "wednesday", "livingplace": "Geneve"}}, "location": "Neuch\u00e2tel"}, "Course de l'Escalade, Gen\u00e8ve": {"latitude": 46.2043907, "longitude": 6.1431577, "race": "Course de l'Escalade, Gen\u00e8ve", "date": {"sam. 05.12.2015": {"year": 2015, "day": 5, "month": 12, "categories": {"Elite-M": {"distance": 7, "rank": 66, "pace": 195000000000, "time": 1431.2}}, "weekday": "saturday", "livingplace": "Neuchatel"}}, "location": "Gen\u00e8ve"}, "Course en f\u00f4ret, Romont": {"latitude": 46.691887, "longitude": 6.9118086, "race": "Course en f\u00f4ret, Romont", "date": {"dim. 19.09.2004": {"year": 2004, "day": 19, "month": 9, "categories": {"GC": {"distance": 1, "rank": 10, "pace": 289000000000, "time": 231.8}}, "weekday": "sunday", "livingplace": "Geneve"}, "dim. 21.09.2003": {"year": 2003, "day": 21, "month": 9, "categories": {"GC": {"distance": 1, "rank": 21, "pace": 307000000000, "time": 245.6}}, "weekday": "sunday", "livingplace": "Ch"}}, "location": "Romont FR"}, "Course p\u00e9destre Thyon-Dixence, Thyon": {"latitude": NaN, "longitude": NaN, "race": "Course p\u00e9destre Thyon-Dixence, Thyon", "date": {"dim. 03.08.2014": {"year": 2014, "day": 3, "month": 8, "categories": {"JunHom": {"distance": 16, "rank": 1, "pace": 285000000000, "time": 4668.9}}, "weekday": "sunday", "livingplace": "Geneve"}}, "location": "Thyon-Les Collons"}, "Gempenlauf, Dornach": {"latitude": 47.4790491, "longitude": 7.6170412, "race": "Gempenlauf, Dornach", "date": {"mer. 04.06.2014": {"year": 2014, "day": 4, "month": 6, "categories": {"M18": {"distance": 8, "rank": 3, "pace": 239000000000, "time": 1868.0}}, "weekday": "wednesday", "livingplace": "Geneve"}}, "location": "Dornach"}, "BCN Tour M\u00f4tier": {"latitude": 46.9262933, "longitude": 6.6324944, "race": "BCN Tour M\u00f4tier", "date": {"mer. 19.05.2010": {"year": 2010, "day": 19, "month": 5, "categories": {"KG3": {"distance": 4, "rank": 1, "pace": 243000000000, "time": 926.9}}, "weekday": "wednesday", "livingplace": "Geneve"}}, "location": "Couvet"}, "BCN Tour Fontaine Cernier": {"latitude": 47.0624261, "longitude": 6.9175754, "race": "BCN Tour Fontaine Cernier", "date": {"mer. 27.04.2011": {"year": 2011, "day": 27, "month": 4, "categories": {"KG4": {"distance": 3, "rank": 3, "pace": 243000000000, "time": 731.2}}, "weekday": "wednesday", "livingplace": "Geneve"}}, "location": "Ch\u00e9zard-St-Martin"}, "Int  Bieler Cross, Biel-Bienne": {"latitude": 47.1367785, "longitude": 7.2467909, "race": "Int  Bieler Cross, Biel-Bienne", "date": {"dim. 14.11.2010": {"year": 2010, "day": 14, "month": 11, "categories": {"MU14": {"distance": 2, "rank": 5, "pace": 209000000000, "time": 313.9}}, "weekday": "sunday", "livingplace": "Geneve"}, "dim. 10.11.2013": {"year": 2013, "day": 10, "month": 11, "categories": {"MU18": {"distance": 5, "rank": 2, "pace": 196000000000, "time": 941.6}}, "weekday": "sunday", "livingplace": "Anco"}}, "location": "Biel/Bienne"}, "Sierre-Zinal, Sierre": {"latitude": 46.29413110000001, "longitude": 7.533536199999999, "race": "Sierre-Zinal, Sierre", "date": {"dim. 10.08.2014": {"year": 2014, "day": 10, "month": 8, "categories": {"Jun_Homm": {"distance": 19, "rank": 2, "pace": 280000000000, "time": 5329.6}}, "weekday": "sunday", "livingplace": "Geneve"}, "dim. 12.08.2012": {"year": 2012, "day": 12, "month": 8, "categories": {"Jun_Homm": {"distance": 19, "rank": 5, "pace": 302000000000, "time": 5755.3}}, "weekday": "sunday", "livingplace": "Geneve"}, "dim. 09.08.2015": {"year": 2015, "day": 9, "month": 8, "categories": {"Jun_Homm": {"distance": 19, "rank": 1, "pace": 265000000000, "time": 5044.0}}, "weekday": "sunday", "livingplace": "Geneve"}}, "location": "Sierre"}, "BCN Tour Le Locle": {"latitude": 46.999113, "longitude": 6.733554799999999, "race": "BCN Tour Le Locle", "date": {"mer. 05.05.2010": {"year": 2010, "day": 5, "month": 5, "categories": {"KG3": {"distance": 4, "rank": 1, "pace": 226000000000, "time": 836.8}}, "weekday": "wednesday", "livingplace": "Geneve"}}, "location": "Les Ponts-de-Martel"}, "BCN Tour Couvet": {"latitude": 47.0624261, "longitude": 6.9175754, "race": "BCN Tour Couvet", "date": {"mer. 02.05.2012": {"year": 2012, "day": 2, "month": 5, "categories": {"HJ": {"distance": 11, "rank": 5, "pace": 245000000000, "time": 2740.6}}, "weekday": "wednesday", "livingplace": "Geneve"}}, "location": "Ch\u00e9zard-St-Martin"}, "BCN Tour Cornaux": {"latitude": 46.9668714, "longitude": 6.8589727, "race": "BCN Tour Cornaux", "date": {"mer. 25.04.2012": {"year": 2012, "day": 25, "month": 4, "categories": {"KG4": {"distance": 3, "rank": 1, "pace": 197000000000, "time": 553.6}}, "weekday": "wednesday", "livingplace": "Geneve"}}, "location": "Colombier NE"}, "BCN Tour La Br\u00e9vine": {"latitude": 46.999113, "longitude": 6.733554799999999, "race": "BCN Tour La Br\u00e9vine", "date": {"mer. 04.05.2011": {"year": 2011, "day": 4, "month": 5, "categories": {"HJ": {"distance": 10, "rank": 13, "pace": 269000000000, "time": 2690.8}}, "weekday": "wednesday", "livingplace": "Geneve"}}, "location": "Les Ponts-de-Martel"}, "BCN Tour Les Ponts de Martel": {"latitude": 46.9262933, "longitude": 6.6324944, "race": "BCN Tour Les Ponts de Martel", "date": {"mer. 18.05.2011": {"year": 2011, "day": 18, "month": 5, "categories": {"KG4": {"distance": 4, "rank": 4, "pace": 211000000000, "time": 823.0}}, "weekday": "wednesday", "livingplace": "Geneve"}}, "location": "Couvet"}, "BCN Tour Boudry": {"latitude": 46.9668714, "longitude": 6.8589727, "race": "BCN Tour Boudry", "date": {"mer. 26.04.2006": {"year": 2006, "day": 26, "month": 4, "categories": {"KG1": {"distance": 2, "rank": 1, "pace": 261000000000, "time": 495.9}}, "weekday": "wednesday", "livingplace": "Geneve"}}, "location": "Colombier NE"}, "BCN Tour La Chaux-de-fonds": {"latitude": 47.1034892, "longitude": 6.832783800000001, "race": "BCN Tour La Chaux-de-fonds", "date": {"mer. 12.05.2010": {"year": 2010, "day": 12, "month": 5, "categories": {"HJ": {"distance": 11, "rank": 54, "pace": 381000000000, "time": 4080.6}}, "weekday": "wednesday", "livingplace": "Geneve"}}, "location": "La Chaux-de-Fonds"}, "BCN Tour Colombier": {"latitude": 46.9668714, "longitude": 6.8589727, "race": "BCN Tour Colombier", "date": {"mer. 16.05.2012": {"year": 2012, "day": 16, "month": 5, "categories": {"HJ": {"distance": 11, "rank": 5, "pace": 232000000000, "time": 2514.0}}, "weekday": "wednesday", "livingplace": "Geneve"}, "mer. 23.04.2008": {"year": 2008, "day": 23, "month": 4, "categories": {"KG2": {"distance": 2, "rank": 2, "pace": 253000000000, "time": 506.4}}, "weekday": "wednesday", "livingplace": "CEP Cortaillod"}, "mer. 21.04.2010": {"year": 2010, "day": 21, "month": 4, "categories": {"KG3": {"distance": 4, "rank": 1, "pace": 237000000000, "time": 949.0}}, "weekday": "wednesday", "livingplace": "Geneve"}}, "location": "Colombier NE"}}, "birth": 1997}