{"name": "Bueche Yannick", "sex": "M", "races": {"Basel City Marathon": {"latitude": 47.5595986, "longitude": 7.5885761, "race": "Basel City Marathon", "date": {"dim. 28.08.2005": {"year": 2005, "day": 28, "month": 8, "categories": {"F30": {"distance": 42, "rank": 89, "pace": 394000000000, "time": 16648.2}}, "weekday": "sunday", "livingplace": "Court"}}, "location": "Basel"}, "20km de Lausanne": {"latitude": 46.5196535, "longitude": 6.6322734, "race": "20km de Lausanne", "date": {"sam. 23.04.2005": {"year": 2005, "day": 23, "month": 4, "categories": {"11": {"distance": 20, "rank": 830, "pace": 354000000000, "time": 7080.0}}, "weekday": "saturday", "livingplace": "Court"}}, "location": "Lausanne"}, "Z\u00fcrich Marathon, Teamrun und Cityrun": {"latitude": 47.3768866, "longitude": 8.541694, "race": "Z\u00fcrich Marathon, Teamrun und Cityrun", "date": {"dim. 09.04.2006": {"year": 2006, "day": 9, "month": 4, "categories": {"W30": {"distance": 42, "rank": 271, "pace": 373000000000, "time": 15752.2}}, "weekday": "sunday", "livingplace": "Court"}}, "location": "Z\u00fcrich"}, "Kerzerslauf": {"latitude": 46.97488999999999, "longitude": 7.1954365, "race": "Kerzerslauf", "date": {"sam. 18.03.2006": {"year": 2006, "day": 18, "month": 3, "categories": {"F35": {"distance": 15, "rank": 125, "pace": 348000000000, "time": 5228.8}}, "weekday": "saturday", "livingplace": "Court"}, "sam. 19.03.2005": {"year": 2005, "day": 19, "month": 3, "categories": {"M35": {"distance": 15, "rank": 370, "pace": 359000000000, "time": 5391.6}}, "weekday": "saturday", "livingplace": "Court"}, "sam. 17.03.2007": {"year": 2007, "day": 17, "month": 3, "categories": {"F35": {"distance": 15, "rank": 156, "pace": 349000000000, "time": 5245.0}}, "weekday": "saturday", "livingplace": "Court"}}, "location": "Kerzers"}, "ASICS Bremgarter Reusslauf": {"latitude": 47.34917739999999, "longitude": 8.3397905, "race": "ASICS Bremgarter Reusslauf", "date": {"sam. 25.02.2006": {"year": 2006, "day": 25, "month": 2, "categories": {"M30": {"distance": 11, "rank": 341, "pace": 355000000000, "time": 3733.6}}, "weekday": "saturday", "livingplace": "Court"}}, "location": "Bremgarten AG"}}, "birth": 1969}