{"name": "Bueche Gr\u00e9gory", "sex": "M", "races": {"Tour du Chablais #4 Champ\u00e9ry": {"latitude": NaN, "longitude": NaN, "race": "Tour du Chablais #4 Champ\u00e9ry", "date": {"mer. 02.05.2012": {"year": 2012, "day": 2, "month": 5, "categories": {"M-M20": {"distance": 8, "rank": 183, "pace": 317000000000, "time": 2633.9}}, "weekday": "wednesday", "livingplace": "Les Evouettes"}}, "location": "Les Mosses"}, "Tour du Chablais #1 Montreux": {"latitude": 46.2957462, "longitude": 6.9916269, "race": "Tour du Chablais #1 Montreux", "date": {"mer. 11.04.2012": {"year": 2012, "day": 11, "month": 4, "categories": {"M-M20": {"distance": 8, "rank": 205, "pace": 351000000000, "time": 2668.3}}, "weekday": "wednesday", "livingplace": "Les Evouettes"}}, "location": "Ollon VD"}, "Tour du Chablais #6 Montreux": {"latitude": 46.3190253, "longitude": 6.970566, "race": "Tour du Chablais #6 Montreux", "date": {"mer. 16.05.2012": {"year": 2012, "day": 16, "month": 5, "categories": {"M-M20": {"distance": 9, "rank": 218, "pace": 325000000000, "time": 3011.5}}, "weekday": "wednesday", "livingplace": "Les Evouettes"}}, "location": "Aigle"}, "Morat-Fribourg": {"latitude": 46.92922110000001, "longitude": 7.120184, "race": "Morat-Fribourg", "date": {"sam. 05.10.2013": {"year": 2013, "day": 5, "month": 10, "categories": {"17-M20": {"distance": 17, "rank": 1747, "pace": 328000000000, "time": 5740.8}}, "weekday": "saturday", "livingplace": "Les Evouettes"}, "sam. 06.10.2012": {"year": 2012, "day": 6, "month": 10, "categories": {"17-M20": {"distance": 17, "rank": 1765, "pace": 360000000000, "time": 6288.3}}, "weekday": "saturday", "livingplace": "Les Evouettes"}}, "location": "Murten"}, "Tour du Chablais #2 Bex": {"latitude": 46.3835529, "longitude": 6.854975199999999, "race": "Tour du Chablais #2 Bex", "date": {"mer. 18.04.2012": {"year": 2012, "day": 18, "month": 4, "categories": {"M-M20": {"distance": 8, "rank": 203, "pace": 333000000000, "time": 2671.7}}, "weekday": "wednesday", "livingplace": "Les Evouettes"}}, "location": "Bouveret"}, "Tour du Chablais #3 Collombey-Muraz": {"latitude": 46.1782231, "longitude": 7.0223787, "race": "Tour du Chablais #3 Collombey-Muraz", "date": {"mer. 25.04.2012": {"year": 2012, "day": 25, "month": 4, "categories": {"M-M20": {"distance": 9, "rank": 196, "pace": 333000000000, "time": 2995.6}}, "weekday": "wednesday", "livingplace": "Les Evouettes"}}, "location": "Evionnaz"}}, "birth": 1980}