{"name": "Buergin Hansueli", "sex": "M", "races": {"Bl\u00fcemlisalp-Lauf, Reichenbach": {"latitude": 46.6254387, "longitude": 7.6940529, "race": "Bl\u00fcemlisalp-Lauf, Reichenbach", "date": {"dim. 30.05.2010": {"year": 2010, "day": 30, "month": 5, "categories": {"M40": {"distance": 16, "rank": 122, "pace": 552000000000, "time": 8894.5}}, "weekday": "sunday", "livingplace": "Estavayer le Lac"}, "dim. 31.05.2009": {"year": 2009, "day": 31, "month": 5, "categories": {"M40": {"distance": 16, "rank": 140, "pace": 480000000000, "time": 7725.2}}, "weekday": "sunday", "livingplace": "Estavayer le Lac"}}, "location": "Reichenbach im Kandertal"}, "Tour du pays de Vaud #1 \u2013 St  Prex": {"latitude": 46.7784736, "longitude": 6.641183, "race": "Tour du pays de Vaud #1 \u2013 St  Prex", "date": {"mer. 11.08.2010": {"year": 2010, "day": 11, "month": 8, "categories": {"HSen2": {"distance": 8, "rank": 191, "pace": 438000000000, "time": 3683.1}}, "weekday": "wednesday", "livingplace": "Estavayer le Lac"}}, "location": "Yverdon-les-Bains"}, "Morat-Fribourg": {"latitude": 46.92922110000001, "longitude": 7.120184, "race": "Morat-Fribourg", "date": {"sam. 03.10.2009": {"year": 2009, "day": 3, "month": 10, "categories": {"C-M45": {"distance": 17, "rank": 705, "pace": 439000000000, "time": 7543.7}}, "weekday": "saturday", "livingplace": "Estavayer le Lac"}, "sam. 01.10.2011": {"year": 2011, "day": 1, "month": 10, "categories": {"17-M45": {"distance": 17, "rank": 711, "pace": 443000000000, "time": 7607.2}}, "weekday": "saturday", "livingplace": "Estavayer le Lac"}}, "location": "Murten"}, "Lucerne Marathon, Luzern": {"latitude": 47.05016819999999, "longitude": 8.3093072, "race": "Lucerne Marathon, Luzern", "date": {"dim. 30.10.2011": {"year": 2011, "day": 30, "month": 10, "categories": {"H-M40": {"distance": 21, "rank": 1404, "pace": 408000000000, "time": 8620.6}}, "weekday": "sunday", "livingplace": "Estavayer le Lac"}}, "location": "Luzern"}, "10km, Payerne": {"latitude": 46.8220266, "longitude": 6.9405663, "race": "10km, Payerne", "date": {"sam. 10.03.2012": {"year": 2012, "day": 10, "month": 3, "categories": {"M40": {"distance": 10, "rank": 102, "pace": 347000000000, "time": 3478.5}}, "weekday": "saturday", "livingplace": "Estavayer le Lac"}}, "location": "Payerne"}, "Tour du pays de Vaud #6 - St  Prex": {"latitude": 46.4829113, "longitude": 6.458343500000001, "race": "Tour du pays de Vaud #6 - St  Prex", "date": {"mer. 14.09.2011": {"year": 2011, "day": 14, "month": 9, "categories": {"H-Sen2": {"distance": 9, "rank": 213, "pace": 378000000000, "time": 3256.6}}, "weekday": "wednesday", "livingplace": "Estavayer le Lac"}}, "location": "St-Prex"}, "Les Traine-Savates, Cheseaux-sur-Lausanne": {"latitude": 46.585452, "longitude": 6.6047712, "race": "Les Traine-Savates, Cheseaux-sur-Lausanne", "date": {"sam. 04.04.2009": {"year": 2009, "day": 4, "month": 4, "categories": {"Hom V1": {"distance": 10, "rank": 209, "pace": 374000000000, "time": 3895.4}}, "weekday": "saturday", "livingplace": "Estavayer le Lac"}, "sam. 10.04.2010": {"year": 2010, "day": 10, "month": 4, "categories": {"Hom V1": {"distance": 10, "rank": 227, "pace": 381000000000, "time": 3968.4}}, "weekday": "saturday", "livingplace": "Estavayer le Lac"}}, "location": "Cheseaux-sur-Lausanne"}, "Kerzerslauf": {"latitude": 46.97488999999999, "longitude": 7.1954365, "race": "Kerzerslauf", "date": {"sam. 17.03.2012": {"year": 2012, "day": 17, "month": 3, "categories": {"15-M45": {"distance": 15, "rank": 601, "pace": 416000000000, "time": 6250.0}}, "weekday": "saturday", "livingplace": "Estavayer le Lac"}}, "location": "Kerzers"}}, "birth": 1963}