{"name": "B\u00fcetiger Steve", "sex": "M", "races": {"Tour du Pays de Vaud printanier #2 Yverdon-les-Bains": {"latitude": 46.6698891, "longitude": 6.7975224, "race": "Tour du Pays de Vaud printanier #2 Yverdon-les-Bains", "date": {"mer. 11.06.2014": {"year": 2014, "day": 11, "month": 6, "categories": {"H-Sen1": {"distance": 9, "rank": 48, "pace": 303000000000, "time": 2763.2}}, "weekday": "wednesday", "livingplace": "Carrouge"}}, "location": "Moudon"}, "Tour du Pays de Vaud #4, La Sarraz": {"latitude": 46.7088129, "longitude": 6.5707689, "race": "Tour du Pays de Vaud #4, La Sarraz", "date": {"mer. 03.09.2014": {"year": 2014, "day": 3, "month": 9, "categories": {"H-Sen1": {"distance": 9, "rank": 70, "pace": 276000000000, "time": 2353.9}}, "weekday": "wednesday", "livingplace": "Carrouge"}}, "location": "Chavornay"}, "Tour du Pays de Vaud printanier #3 - Yens": {"latitude": 46.7829756, "longitude": 6.5728678, "race": "Tour du Pays de Vaud printanier #3 - Yens", "date": {"mer. 18.06.2014": {"year": 2014, "day": 18, "month": 6, "categories": {"H-Sen1": {"distance": 9, "rank": 48, "pace": 272000000000, "time": 2482.5}}, "weekday": "wednesday", "livingplace": "Carrouge"}}, "location": "Champvent"}, "Tour du Pays de Vaud printanier #1 Moudon": {"latitude": 46.3832683, "longitude": 6.2347852, "race": "Tour du Pays de Vaud printanier #1 Moudon", "date": {"mer. 04.06.2014": {"year": 2014, "day": 4, "month": 6, "categories": {"H-Sen1": {"distance": 8, "rank": 42, "pace": 272000000000, "time": 2289.6}}, "weekday": "wednesday", "livingplace": "Carrouge"}}, "location": "Nyon"}, "Lausanne Marathon": {"latitude": 46.5196535, "longitude": 6.6322734, "race": "Lausanne Marathon", "date": {"sam. 24.10.2015": {"year": 2015, "day": 24, "month": 10, "categories": {"10-H30": {"distance": 10, "rank": 208, "pace": 260000000000, "time": 2606.1}}, "weekday": "saturday", "livingplace": "Carrouge"}, "dim. 27.10.2013": {"year": 2013, "day": 27, "month": 10, "categories": {"10-H2": {"distance": 10, "rank": 191, "pace": 277000000000, "time": 2777.4}}, "weekday": "sunday", "livingplace": "Carrouge"}, "dim. 26.10.2014": {"year": 2014, "day": 26, "month": 10, "categories": {"10-H30": {"distance": 10, "rank": 317, "pace": 288000000000, "time": 2886.0}}, "weekday": "sunday", "livingplace": "Carrouge"}, "dim. 28.10.2012": {"year": 2012, "day": 28, "month": 10, "categories": {"21-H2": {"distance": 21, "rank": 710, "pace": 334000000000, "time": 7063.5}}, "weekday": "sunday", "livingplace": "Carrouge"}}, "location": "Lausanne"}, "20km de Lausanne": {"latitude": 46.5196535, "longitude": 6.6322734, "race": "20km de Lausanne", "date": {"sam. 25.04.2015": {"year": 2015, "day": 25, "month": 4, "categories": {"20-H30": {"distance": 20, "rank": 387, "pace": 280000000000, "time": 5608.6}}, "weekday": "saturday", "livingplace": "Carrouge"}, "sam. 26.04.2014": {"year": 2014, "day": 26, "month": 4, "categories": {"10-H30": {"distance": 10, "rank": 302, "pace": 288000000000, "time": 2880.6}}, "weekday": "saturday", "livingplace": "Carrouge"}}, "location": "Lausanne"}, "D\u00e9fi du vignoble, Cully": {"latitude": 45.565921, "longitude": -122.6066627, "race": "D\u00e9fi du vignoble, Cully", "date": {"mer. 14.05.2014": {"year": 2014, "day": 14, "month": 5, "categories": {"M30": {"distance": 4, "rank": 43, "pace": 525000000000, "time": 1914.0}}, "weekday": "wednesday", "livingplace": "Carrouge"}}, "location": "Cully"}, "Tour du Pays de Vaud #3, Chavornay": {"latitude": 46.7784736, "longitude": 6.641183, "race": "Tour du Pays de Vaud #3, Chavornay", "date": {"mer. 27.08.2014": {"year": 2014, "day": 27, "month": 8, "categories": {"H-Sen1": {"distance": 9, "rank": 61, "pace": 277000000000, "time": 2385.2}}, "weekday": "wednesday", "livingplace": "Carrouge"}}, "location": "Yverdon-les-Bains"}}, "birth": 1981}