{"name": "Bugnon Josiane", "sex": "F", "races": {"Tour du Chablais #5 Bex": {"latitude": 46.3603257, "longitude": 6.931504599999999, "race": "Tour du Chablais #5 Bex", "date": {"mer. 09.05.2012": {"year": 2012, "day": 9, "month": 5, "categories": {"F-F50": {"distance": 9, "rank": 30, "pace": 357000000000, "time": 3170.4}}, "weekday": "wednesday", "livingplace": "Vionnaz"}}, "location": "Roche VD"}, "Tour du Chablais #1 Martigny": {"latitude": 46.2957462, "longitude": 6.9916269, "race": "Tour du Chablais #1 Martigny", "date": {"mer. 23.04.2014": {"year": 2014, "day": 23, "month": 4, "categories": {"F-F50": {"distance": 9, "rank": 41, "pace": 386000000000, "time": 3286.5}}, "weekday": "wednesday", "livingplace": "Vionnaz"}}, "location": "Ollon VD"}, "Tour du Chablais #4 Champ\u00e9ry": {"latitude": NaN, "longitude": NaN, "race": "Tour du Chablais #4 Champ\u00e9ry", "date": {"mer. 02.05.2012": {"year": 2012, "day": 2, "month": 5, "categories": {"F-F50": {"distance": 8, "rank": 31, "pace": 364000000000, "time": 3028.8}}, "weekday": "wednesday", "livingplace": "Vionnaz"}}, "location": "Les Mosses"}, "Tour du Chablais #1 Montreux": {"latitude": 46.2957462, "longitude": 6.9916269, "race": "Tour du Chablais #1 Montreux", "date": {"mer. 11.04.2012": {"year": 2012, "day": 11, "month": 4, "categories": {"F-F50": {"distance": 8, "rank": 30, "pace": 389000000000, "time": 2961.9}}, "weekday": "wednesday", "livingplace": "Vionnaz"}}, "location": "Ollon VD"}, "Tour du Chablais #6 Montreux": {"latitude": 46.3190253, "longitude": 6.970566, "race": "Tour du Chablais #6 Montreux", "date": {"mer. 16.05.2012": {"year": 2012, "day": 16, "month": 5, "categories": {"F-F50": {"distance": 9, "rank": 22, "pace": 336000000000, "time": 3112.1}}, "weekday": "wednesday", "livingplace": "Vionnaz"}}, "location": "Aigle"}, "Morat-Fribourg": {"latitude": 46.92922110000001, "longitude": 7.120184, "race": "Morat-Fribourg", "date": {"sam. 03.10.2009": {"year": 2009, "day": 3, "month": 10, "categories": {"C-W50": {"distance": 17, "rank": 146, "pace": 446000000000, "time": 7673.3}}, "weekday": "saturday", "livingplace": "Vionnaz"}, "sam. 04.10.2008": {"year": 2008, "day": 4, "month": 10, "categories": {"C-W50": {"distance": 17, "rank": 128, "pace": 397000000000, "time": 6819.5}}, "weekday": "saturday", "livingplace": "Vionnaz"}}, "location": "Murten"}, "Tour du Chablais #2 Bex": {"latitude": 46.3835529, "longitude": 6.854975199999999, "race": "Tour du Chablais #2 Bex", "date": {"mer. 18.04.2012": {"year": 2012, "day": 18, "month": 4, "categories": {"F-F50": {"distance": 8, "rank": 32, "pace": 368000000000, "time": 2944.9}}, "weekday": "wednesday", "livingplace": "Vionnaz"}}, "location": "Bouveret"}, "Tour du Chablais #3 Collombey-Muraz": {"latitude": 46.1782231, "longitude": 7.0223787, "race": "Tour du Chablais #3 Collombey-Muraz", "date": {"mer. 25.04.2012": {"year": 2012, "day": 25, "month": 4, "categories": {"F-F50": {"distance": 9, "rank": 33, "pace": 362000000000, "time": 3254.1}}, "weekday": "wednesday", "livingplace": "Vionnaz"}}, "location": "Evionnaz"}}, "birth": 1957}