{"name": "Buhlmann Jacques", "sex": "M", "races": {"Tour du Chablais #2 Rennaz": {"latitude": 46.3835529, "longitude": 6.854975199999999, "race": "Tour du Chablais #2 Rennaz", "date": {"mer. 04.05.2011": {"year": 2011, "day": 4, "month": 5, "categories": {"M-M50": {"distance": 9, "rank": 68, "pace": 300000000000, "time": 2812.8}}, "weekday": "wednesday", "livingplace": "Vouvry"}}, "location": "Bouveret"}, "Tour du Chablais #3 Bex": {"latitude": 46.1782231, "longitude": 7.0223787, "race": "Tour du Chablais #3 Bex", "date": {"mer. 21.04.2010": {"year": 2010, "day": 21, "month": 4, "categories": {"M-M50": {"distance": 10, "rank": 75, "pace": 337000000000, "time": 3378.1}}, "weekday": "wednesday", "livingplace": "Vouvry"}}, "location": "Evionnaz"}, "Tour du Chablais #4 Morgins": {"latitude": NaN, "longitude": NaN, "race": "Tour du Chablais #4 Morgins", "date": {"mer. 18.05.2011": {"year": 2011, "day": 18, "month": 5, "categories": {"M-M50": {"distance": 8, "rank": 52, "pace": 315000000000, "time": 2636.7}}, "weekday": "wednesday", "livingplace": "Vouvry"}}, "location": "Les Mosses"}, "Tour du Chablais #3 Le Bouveret": {"latitude": 46.1782231, "longitude": 7.0223787, "race": "Tour du Chablais #3 Le Bouveret", "date": {"mer. 11.05.2011": {"year": 2011, "day": 11, "month": 5, "categories": {"M-M50": {"distance": 10, "rank": 61, "pace": 300000000000, "time": 3003.7}}, "weekday": "wednesday", "livingplace": "Vouvry"}}, "location": "Evionnaz"}, "Tour du Chablais #1 Lavey": {"latitude": 46.2957462, "longitude": 6.9916269, "race": "Tour du Chablais #1 Lavey", "date": {"mer. 27.04.2011": {"year": 2011, "day": 27, "month": 4, "categories": {"M-M50": {"distance": 9, "rank": 73, "pace": 315000000000, "time": 2841.9}}, "weekday": "wednesday", "livingplace": "Vouvry"}}, "location": "Ollon VD"}, "Tour du Chablais #2 St-Gingolph": {"latitude": 46.3835529, "longitude": 6.854975199999999, "race": "Tour du Chablais #2 St-Gingolph", "date": {"mer. 14.04.2010": {"year": 2010, "day": 14, "month": 4, "categories": {"M-M50": {"distance": 8, "rank": 50, "pace": 325000000000, "time": 2714.7}}, "weekday": "wednesday", "livingplace": "Vouvry"}}, "location": "Bouveret"}, "Tour du Chablais #1 Martigny": {"latitude": 46.2957462, "longitude": 6.9916269, "race": "Tour du Chablais #1 Martigny", "date": {"mer. 23.04.2014": {"year": 2014, "day": 23, "month": 4, "categories": {"M-M50": {"distance": 9, "rank": 106, "pace": 361000000000, "time": 3068.6}}, "weekday": "wednesday", "livingplace": "Vouvry"}}, "location": "Ollon VD"}, "Tour du Chablais #6 Mouthey": {"latitude": 46.3190253, "longitude": 6.970566, "race": "Tour du Chablais #6 Mouthey", "date": {"mer. 12.05.2010": {"year": 2010, "day": 12, "month": 5, "categories": {"M-M50": {"distance": 9, "rank": 59, "pace": 304000000000, "time": 2798.7}}, "weekday": "wednesday", "livingplace": "Vouvry"}}, "location": "Aigle"}, "Tour du Chablais #1 Montreux": {"latitude": 46.2957462, "longitude": 6.9916269, "race": "Tour du Chablais #1 Montreux", "date": {"mer. 11.04.2012": {"year": 2012, "day": 11, "month": 4, "categories": {"M-M50": {"distance": 8, "rank": 65, "pace": 322000000000, "time": 2451.9}}, "weekday": "wednesday", "livingplace": "Vouvry"}}, "location": "Ollon VD"}, "Tour du Chablais #5 Les Mosses": {"latitude": 46.3603257, "longitude": 6.931504599999999, "race": "Tour du Chablais #5 Les Mosses", "date": {"mer. 25.05.2011": {"year": 2011, "day": 25, "month": 5, "categories": {"M-M50": {"distance": 8, "rank": 46, "pace": 323000000000, "time": 2585.6}}, "weekday": "wednesday", "livingplace": "Vouvry"}}, "location": "Roche VD"}, "Lausanne Marathon": {"latitude": 46.5196535, "longitude": 6.6322734, "race": "Lausanne Marathon", "date": {"dim. 31.10.2010": {"year": 2010, "day": 31, "month": 10, "categories": {"21-H4": {"distance": 21, "rank": 215, "pace": 319000000000, "time": 6733.3}}, "weekday": "sunday", "livingplace": "Vouvry"}, "dim. 30.10.2011": {"year": 2011, "day": 30, "month": 10, "categories": {"21-H4": {"distance": 21, "rank": 172, "pace": 306000000000, "time": 6467.4}}, "weekday": "sunday", "livingplace": "Vouvry"}}, "location": "Lausanne"}, "Tour du Chablais #6 Aigle": {"latitude": 46.3190253, "longitude": 6.970566, "race": "Tour du Chablais #6 Aigle", "date": {"mer. 01.06.2011": {"year": 2011, "day": 1, "month": 6, "categories": {"M-M50": {"distance": 10, "rank": 70, "pace": 308000000000, "time": 3149.3}}, "weekday": "wednesday", "livingplace": "Vouvry"}}, "location": "Aigle"}, "Tour du Chablais #4 Yvorne": {"latitude": NaN, "longitude": NaN, "race": "Tour du Chablais #4 Yvorne", "date": {"mer. 28.04.2010": {"year": 2010, "day": 28, "month": 4, "categories": {"M-M50": {"distance": 8, "rank": 44, "pace": 324000000000, "time": 2690.3}}, "weekday": "wednesday", "livingplace": "Vouvry"}}, "location": "Les Mosses"}, "Tour du Chablais #2 Bex": {"latitude": 46.3835529, "longitude": 6.854975199999999, "race": "Tour du Chablais #2 Bex", "date": {"mer. 18.04.2012": {"year": 2012, "day": 18, "month": 4, "categories": {"M-M50": {"distance": 8, "rank": 56, "pace": 298000000000, "time": 2391.8}}, "weekday": "wednesday", "livingplace": "Vouvry"}}, "location": "Bouveret"}, "Tour du Chablais #3 Collombey-Muraz": {"latitude": 46.1782231, "longitude": 7.0223787, "race": "Tour du Chablais #3 Collombey-Muraz", "date": {"mer. 25.04.2012": {"year": 2012, "day": 25, "month": 4, "categories": {"M-M50": {"distance": 9, "rank": 52, "pace": 294000000000, "time": 2642.0}}, "weekday": "wednesday", "livingplace": "Vouvry"}}, "location": "Evionnaz"}, "Tour du Chablais #6 Montreux": {"latitude": 46.3190253, "longitude": 6.970566, "race": "Tour du Chablais #6 Montreux", "date": {"mer. 16.05.2012": {"year": 2012, "day": 16, "month": 5, "categories": {"M-M50": {"distance": 9, "rank": 65, "pace": 293000000000, "time": 2716.0}}, "weekday": "wednesday", "livingplace": "Vouvry"}}, "location": "Aigle"}}, "birth": 1957}