{"name": "B\u00fchler Roland", "sex": "M", "races": {"Tour du Pays de Vaud etape 5 - La Sarraz": {"latitude": 46.5993131, "longitude": 6.539251200000001, "race": "Tour du Pays de Vaud etape 5 - La Sarraz", "date": {"mer. 10.09.2008": {"year": 2008, "day": 10, "month": 9, "categories": {"HomSen2": {"distance": 9, "rank": 151, "pace": 361000000000, "time": 3106.8}}, "weekday": "wednesday", "livingplace": "Marin Epagnier"}}, "location": "Penthaz"}, "Grand Prix Craft, Neuch\u00e2tel": {"latitude": 46.9899874, "longitude": 6.9292732, "race": "Grand Prix Craft, Neuch\u00e2tel", "date": {"dim. 17.12.2006": {"year": 2006, "day": 17, "month": 12, "categories": {"HS2": {"distance": 7, "rank": 65, "pace": 297000000000, "time": 2084.1}}, "weekday": "sunday", "livingplace": "Marin Epagnier"}}, "location": "Neuch\u00e2tel"}, "Tour du Pays de Vaud printanier #2 Yverdon-les-Bains": {"latitude": 46.6698891, "longitude": 6.7975224, "race": "Tour du Pays de Vaud printanier #2 Yverdon-les-Bains", "date": {"mer. 11.06.2014": {"year": 2014, "day": 11, "month": 6, "categories": {"H-Sen3": {"distance": 9, "rank": 52, "pace": 494000000000, "time": 4500.1}}, "weekday": "wednesday", "livingplace": "Marin Epagnier"}}, "location": "Moudon"}, "Kerzerslauf": {"latitude": 46.97488999999999, "longitude": 7.1954365, "race": "Kerzerslauf", "date": {"sam. 15.03.2008": {"year": 2008, "day": 15, "month": 3, "categories": {"15/M45": {"distance": 15, "rank": 588, "pace": 406000000000, "time": 6098.8}}, "weekday": "saturday", "livingplace": "Marin Epagnier"}}, "location": "Kerzers"}, "BCN Tour Colombier": {"latitude": 46.9668714, "longitude": 6.8589727, "race": "BCN Tour Colombier", "date": {"mer. 23.04.2008": {"year": 2008, "day": 23, "month": 4, "categories": {"HS2": {"distance": 10, "rank": 243, "pace": 393000000000, "time": 4018.6}}, "weekday": "wednesday", "livingplace": "Marin Epagnier"}}, "location": "Colombier NE"}}, "birth": 1959}