{"name": "Buntschu Michael", "sex": "M", "races": {"Morat-Fribourg": {"latitude": 46.92922110000001, "longitude": 7.120184, "race": "Morat-Fribourg", "date": {"sam. 03.10.2009": {"year": 2009, "day": 3, "month": 10, "categories": {"C-M20": {"distance": 17, "rank": 1863, "pace": 372000000000, "time": 6400.7}}, "weekday": "saturday", "livingplace": "Fretereules"}, "sam. 04.10.2008": {"year": 2008, "day": 4, "month": 10, "categories": {"C-M20": {"distance": 17, "rank": 1781, "pace": 391000000000, "time": 6727.0}}, "weekday": "saturday", "livingplace": "Fretereules"}}, "location": "Murten"}, "BCN Tour Neuch\u00e2tel": {"latitude": 46.9899874, "longitude": 6.9292732, "race": "BCN Tour Neuch\u00e2tel", "date": {"mer. 26.05.2010": {"year": 2010, "day": 26, "month": 5, "categories": {"HS1": {"distance": 10, "rank": 270, "pace": 525000000000, "time": 5097.2}}, "weekday": "wednesday", "livingplace": "Dombresson"}}, "location": "Neuch\u00e2tel"}, "BCN Tour Ponts-de-Martel": {"latitude": 47.0624261, "longitude": 6.9175754, "race": "BCN Tour Ponts-de-Martel", "date": {"mer. 28.04.2010": {"year": 2010, "day": 28, "month": 4, "categories": {"HS1": {"distance": 11, "rank": 202, "pace": 381000000000, "time": 4268.7}}, "weekday": "wednesday", "livingplace": "Dombresson"}}, "location": "Ch\u00e9zard-St-Martin"}, "BCN Tour M\u00f4tier": {"latitude": 46.9262933, "longitude": 6.6324944, "race": "BCN Tour M\u00f4tier", "date": {"mer. 19.05.2010": {"year": 2010, "day": 19, "month": 5, "categories": {"HS1": {"distance": 10, "rank": 206, "pace": 365000000000, "time": 3619.3}}, "weekday": "wednesday", "livingplace": "Dombresson"}}, "location": "Couvet"}, "BCN Tour Boudry": {"latitude": 46.9668714, "longitude": 6.8589727, "race": "BCN Tour Boudry", "date": {"mer. 26.04.2006": {"year": 2006, "day": 26, "month": 4, "categories": {"HS1": {"distance": 10, "rank": 228, "pace": 430000000000, "time": 4387.5}}, "weekday": "wednesday", "livingplace": "Villiers"}}, "location": "Colombier NE"}, "BCN Tour Le Landeron": {"latitude": 46.9668714, "longitude": 6.8589727, "race": "BCN Tour Le Landeron", "date": {"mer. 22.04.2009": {"year": 2009, "day": 22, "month": 4, "categories": {"HS1": {"distance": 11, "rank": 216, "pace": 394000000000, "time": 4376.1}}, "weekday": "wednesday", "livingplace": "Brot Dessous"}}, "location": "Colombier NE"}, "BCN Tour La Chaux-de-fonds": {"latitude": 47.1034892, "longitude": 6.832783800000001, "race": "BCN Tour La Chaux-de-fonds", "date": {"mer. 12.05.2010": {"year": 2010, "day": 12, "month": 5, "categories": {"HS1": {"distance": 11, "rank": 225, "pace": 489000000000, "time": 5236.4}}, "weekday": "wednesday", "livingplace": "Dombresson"}}, "location": "La Chaux-de-Fonds"}, "BCN Tour Colombier": {"latitude": 46.9668714, "longitude": 6.8589727, "race": "BCN Tour Colombier", "date": {"mer. 21.04.2010": {"year": 2010, "day": 21, "month": 4, "categories": {"HS1": {"distance": 10, "rank": 220, "pace": 412000000000, "time": 4129.9}}, "weekday": "wednesday", "livingplace": "Dombresson"}}, "location": "Colombier NE"}, "BCN Tour Auvernier": {"latitude": 46.9668714, "longitude": 6.8589727, "race": "BCN Tour Auvernier", "date": {"mer. 20.04.2011": {"year": 2011, "day": 20, "month": 4, "categories": {"HS1": {"distance": 11, "rank": 273, "pace": 418000000000, "time": 4522.6}}, "weekday": "wednesday", "livingplace": "Fretereules"}}, "location": "Colombier NE"}}, "birth": 1974}