{"name": "Burgat Bertrand", "sex": "M", "races": {"Grand Prix Craft, Neuch\u00e2tel": {"latitude": 46.9899874, "longitude": 6.9292732, "race": "Grand Prix Craft, Neuch\u00e2tel", "date": {"dim. 16.12.2007": {"year": 2007, "day": 16, "month": 12, "categories": {"HS1": {"distance": 7, "rank": 39, "pace": 250000000000, "time": 1753.5}}, "weekday": "sunday", "livingplace": "Saint Aubin"}, "dim. 17.12.2006": {"year": 2006, "day": 17, "month": 12, "categories": {"HS1": {"distance": 7, "rank": 60, "pace": 264000000000, "time": 1851.1}}, "weekday": "sunday", "livingplace": "St Aubin Sauges"}}, "location": "Neuch\u00e2tel"}, "Course de l'Escalade, Gen\u00e8ve": {"latitude": 46.2043907, "longitude": 6.1431577, "race": "Course de l'Escalade, Gen\u00e8ve", "date": {"sam. 06.12.2003": {"year": 2003, "day": 6, "month": 12, "categories": {"Hommes2": {"distance": 7, "rank": 425, "pace": 262000000000, "time": 1901.3}}, "weekday": "saturday", "livingplace": "Saint Aubin"}}, "location": "Gen\u00e8ve"}, "D\u00e9fi Val-de-Travers, Couvet": {"latitude": 46.9262933, "longitude": 6.6324944, "race": "D\u00e9fi Val-de-Travers, Couvet", "date": {"sam. 21.06.2008": {"year": 2008, "day": 21, "month": 6, "categories": {"DHS1": {"distance": 75, "rank": 26, "pace": 486000000000, "time": 36517.5}}, "weekday": "saturday", "livingplace": "Saint aubin"}}, "location": "Couvet"}, "BCN Tour Le Landeron": {"latitude": 46.9668714, "longitude": 6.8589727, "race": "BCN Tour Le Landeron", "date": {"mer. 22.04.2009": {"year": 2009, "day": 22, "month": 4, "categories": {"HS2": {"distance": 11, "rank": 149, "pace": 315000000000, "time": 3507.1}}, "weekday": "wednesday", "livingplace": "Saint aubin"}}, "location": "Colombier NE"}, "Aletsch-Halbmarathon, Bettmeralp": {"latitude": NaN, "longitude": NaN, "race": "Aletsch-Halbmarathon, Bettmeralp", "date": {"dim. 29.06.2014": {"year": 2014, "day": 29, "month": 6, "categories": {"M45": {"distance": 13, "rank": 43, "pace": 343000000000, "time": 4569.2}}, "weekday": "sunday", "livingplace": "St Aubin Sauges"}}, "location": "Bettmeralp"}, "BCN Tour #4 Fleurier": {"latitude": 47.1034892, "longitude": 6.832783800000001, "race": "BCN Tour #4 Fleurier", "date": {"mer. 15.05.2013": {"year": 2013, "day": 15, "month": 5, "categories": {"HS2": {"distance": 9, "rank": 82, "pace": 284000000000, "time": 2463.1}}, "weekday": "wednesday", "livingplace": "St Aubin Sauges"}}, "location": "La Chaux-de-Fonds"}, "BCN Tour Colombier": {"latitude": 46.9668714, "longitude": 6.8589727, "race": "BCN Tour Colombier", "date": {"mer. 23.04.2008": {"year": 2008, "day": 23, "month": 4, "categories": {"HS2": {"distance": 10, "rank": 139, "pace": 324000000000, "time": 3310.8}}, "weekday": "wednesday", "livingplace": "Saint aubin"}}, "location": "Colombier NE"}, "La Trotteuse-Tissot, La Chaux-de-Fonds": {"latitude": 47.1034892, "longitude": 6.832783800000001, "race": "La Trotteuse-Tissot, La Chaux-de-Fonds", "date": {"sam. 18.12.2010": {"year": 2010, "day": 18, "month": 12, "categories": {"GC-H40": {"distance": 8, "rank": 45, "pace": 288000000000, "time": 2306.8}}, "weekday": "saturday", "livingplace": "St Aubin Sauges"}}, "location": "La Chaux-de-Fonds"}, "Montreux - Les Rochers de Naye": {"latitude": 46.4312213, "longitude": 6.9106799, "race": "Montreux - Les Rochers de Naye", "date": {"dim. 26.06.2005": {"year": 2005, "day": 26, "month": 6, "categories": {"Sen": {"distance": 19, "rank": 81, "pace": 503000000000, "time": 9473.3}}, "weekday": "sunday", "livingplace": "St Aubin Sauges"}}, "location": "Montreux"}, "Morat-Fribourg": {"latitude": 46.92922110000001, "longitude": 7.120184, "race": "Morat-Fribourg", "date": {"sam. 06.10.2007": {"year": 2007, "day": 6, "month": 10, "categories": {"C/M20": {"distance": 17, "rank": 915, "pace": 300000000000, "time": 5160.3}}, "weekday": "saturday", "livingplace": "Saint aubin"}}, "location": "Murten"}, "BCN Tour Boudry": {"latitude": 46.9668714, "longitude": 6.8589727, "race": "BCN Tour Boudry", "date": {"mer. 26.04.2006": {"year": 2006, "day": 26, "month": 4, "categories": {"HS1": {"distance": 10, "rank": 148, "pace": 317000000000, "time": 3241.5}}, "weekday": "wednesday", "livingplace": "St Aubin Sauges"}}, "location": "Colombier NE"}, "Kerzerslauf": {"latitude": 46.97488999999999, "longitude": 7.1954365, "race": "Kerzerslauf", "date": {"sam. 21.03.2015": {"year": 2015, "day": 21, "month": 3, "categories": {"15-M45": {"distance": 15, "rank": 176, "pace": 274000000000, "time": 4113.3}}, "weekday": "saturday", "livingplace": "St Aubin Sauges"}, "sam. 15.03.2014": {"year": 2014, "day": 15, "month": 3, "categories": {"15-M45": {"distance": 15, "rank": 301, "pace": 288000000000, "time": 4326.8}}, "weekday": "saturday", "livingplace": "St Aubin Sauges"}, "sam. 15.03.2008": {"year": 2008, "day": 15, "month": 3, "categories": {"15/M40": {"distance": 15, "rank": 382, "pace": 296000000000, "time": 4452.3}}, "weekday": "saturday", "livingplace": "Saint Aubin"}, "sam. 16.03.2013": {"year": 2013, "day": 16, "month": 3, "categories": {"15-M45": {"distance": 15, "rank": 252, "pace": 286000000000, "time": 4293.5}}, "weekday": "saturday", "livingplace": "St Aubin Sauges"}}, "location": "Kerzers"}, "BCN Tour #3 Dombresson": {"latitude": 46.999113, "longitude": 6.733554799999999, "race": "BCN Tour #3 Dombresson", "date": {"mer. 08.05.2013": {"year": 2013, "day": 8, "month": 5, "categories": {"HS2": {"distance": 10, "rank": 155, "pace": 290000000000, "time": 2873.4}}, "weekday": "wednesday", "livingplace": "St Aubin Sauges"}}, "location": "Les Ponts-de-Martel"}}, "birth": 1968}