{"name": "Burgat Louis-Philippe", "sex": "M", "races": {"BCN Tour #5 Colombier": {"latitude": 46.9262933, "longitude": 6.6324944, "race": "BCN Tour #5 Colombier", "date": {"mer. 22.05.2013": {"year": 2013, "day": 22, "month": 5, "categories": {"HS2": {"distance": 11, "rank": 217, "pace": 293000000000, "time": 3086.6}}, "weekday": "wednesday", "livingplace": "Colombier"}}, "location": "Couvet"}, "BCN Tour #3 Dombresson": {"latitude": 46.999113, "longitude": 6.733554799999999, "race": "BCN Tour #3 Dombresson", "date": {"mer. 08.05.2013": {"year": 2013, "day": 8, "month": 5, "categories": {"HS2": {"distance": 10, "rank": 273, "pace": 325000000000, "time": 3219.5}}, "weekday": "wednesday", "livingplace": "Colombier"}}, "location": "Les Ponts-de-Martel"}, "BCN Tour Colombier": {"latitude": 46.9668714, "longitude": 6.8589727, "race": "BCN Tour Colombier", "date": {"mer. 21.04.2010": {"year": 2010, "day": 21, "month": 4, "categories": {"HS2": {"distance": 10, "rank": 272, "pace": 390000000000, "time": 3906.4}}, "weekday": "wednesday", "livingplace": "Colombier"}}, "location": "Colombier NE"}, "BCN Tour #4 Fleurier": {"latitude": 47.1034892, "longitude": 6.832783800000001, "race": "BCN Tour #4 Fleurier", "date": {"mer. 15.05.2013": {"year": 2013, "day": 15, "month": 5, "categories": {"HS2": {"distance": 9, "rank": 186, "pace": 322000000000, "time": 2791.9}}, "weekday": "wednesday", "livingplace": "Colombier"}}, "location": "La Chaux-de-Fonds"}, "BCN Tour #2 La Chaux-de-Fonds": {"latitude": 47.0624261, "longitude": 6.9175754, "race": "BCN Tour #2 La Chaux-de-Fonds", "date": {"mer. 01.05.2013": {"year": 2013, "day": 1, "month": 5, "categories": {"HS2": {"distance": 11, "rank": 286, "pace": 335000000000, "time": 3585.5}}, "weekday": "wednesday", "livingplace": "Colombier"}}, "location": "Ch\u00e9zard-St-Martin"}}, "birth": 1966}