{"name": "Burger Patrick", "sex": "M", "races": {"Thuner Stadtlauf, Thun": {"latitude": 46.7579868, "longitude": 7.6279881, "race": "Thuner Stadtlauf, Thun", "date": {"dim. 25.08.2013": {"year": 2013, "day": 25, "month": 8, "categories": {"5-VolksM": {"distance": 5, "rank": 11, "pace": 215000000000, "time": 1076.8}}, "weekday": "sunday", "livingplace": "Ostermundigen"}}, "location": "Thun"}, "SwissCityMarathon - Lucerne, Luzern": {"latitude": 47.05016819999999, "longitude": 8.3093072, "race": "SwissCityMarathon - Lucerne, Luzern", "date": {"dim. 25.10.2015": {"year": 2015, "day": 25, "month": 10, "categories": {"F-Mann": {"distance": 9, "rank": 38, "pace": 249000000000, "time": 2150.2}}, "weekday": "sunday", "livingplace": "Ostermundigen"}}, "location": "Luzern"}, "Bieler Lauftage, Biel Bienne": {"latitude": 47.1367785, "longitude": 7.2467909, "race": "Bieler Lauftage, Biel Bienne", "date": {"jeu. 11.06.2015": {"year": 2015, "day": 11, "month": 6, "categories": {"H-M20": {"distance": 21, "rank": 36, "pace": 330000000000, "time": 6980.8}}, "weekday": "thursday", "livingplace": "Ostermundigen"}}, "location": "Biel/Bienne"}, "Basler Stadtlauf": {"latitude": 47.5595986, "longitude": 7.5885761, "race": "Basler Stadtlauf", "date": {"sam. 29.11.2014": {"year": 2014, "day": 29, "month": 11, "categories": {"M20": {"distance": 6, "rank": 313, "pace": 266000000000, "time": 1464.3}}, "weekday": "saturday", "livingplace": "Ostermundigen"}, "sam. 30.11.2013": {"year": 2013, "day": 30, "month": 11, "categories": {"M20": {"distance": 6, "rank": 94, "pace": 230000000000, "time": 1269.9}}, "weekday": "saturday", "livingplace": "Ostermundigen"}}, "location": "Basel"}, "Lausanne Marathon": {"latitude": 46.5196535, "longitude": 6.6322734, "race": "Lausanne Marathon", "date": {"dim. 26.10.2014": {"year": 2014, "day": 26, "month": 10, "categories": {"10-H20": {"distance": 10, "rank": 155, "pace": 261000000000, "time": 2614.5}}, "weekday": "sunday", "livingplace": "Ostermundigen"}}, "location": "Lausanne"}, "Steinh\u00f6lzlilauf, Liebefeld": {"latitude": 46.933331, "longitude": 7.416668, "race": "Steinh\u00f6lzlilauf, Liebefeld", "date": {"dim. 02.12.2012": {"year": 2012, "day": 2, "month": 12, "categories": {"K-M1": {"distance": 4, "rank": 24, "pace": 271000000000, "time": 1194.3}}, "weekday": "sunday", "livingplace": "Ostermundigen"}}, "location": "Liebefeld"}, "Winterthur Marathon": {"latitude": 39.8088766, "longitude": -75.6037351, "race": "Winterthur Marathon", "date": {"dim. 01.06.2014": {"year": 2014, "day": 1, "month": 6, "categories": {"5-SLM": {"distance": 5, "rank": 5, "pace": 245000000000, "time": 1323.6}}, "weekday": "sunday", "livingplace": "Ostermundigen"}}, "location": "Winterthur"}, "Luzerner Stadtlauf": {"latitude": 47.05016819999999, "longitude": 8.3093072, "race": "Luzerner Stadtlauf", "date": {"sam. 03.05.2014": {"year": 2014, "day": 3, "month": 5, "categories": {"K-35": {"distance": 6, "rank": 49, "pace": 238000000000, "time": 1344.3}}, "weekday": "saturday", "livingplace": "Ostermundigen"}}, "location": "Luzern"}, "Kerzerslauf": {"latitude": 46.97488999999999, "longitude": 7.1954365, "race": "Kerzerslauf", "date": {"sam. 21.03.2015": {"year": 2015, "day": 21, "month": 3, "categories": {"5-M20": {"distance": 5, "rank": 50, "pace": 267000000000, "time": 1338.8}}, "weekday": "saturday", "livingplace": "Ostermundigen"}}, "location": "Kerzers"}}, "birth": 1991}