{"name": "Burkhalter Marie", "sex": "F", "races": {"Tour du Pays de Vaud #2 - Genolier": {"latitude": 46.5955273, "longitude": 6.7702883, "race": "Tour du Pays de Vaud #2 - Genolier", "date": {"mer. 15.08.2012": {"year": 2012, "day": 15, "month": 8, "categories": {"D-Sen1": {"distance": 9, "rank": 75, "pace": 384000000000, "time": 3271.1}}, "weekday": "wednesday", "livingplace": "Morges"}}, "location": "M\u00e9zi\u00e8res VD"}, "Tour du Pays de Vaud printanier #3 - Yens": {"latitude": 46.7829756, "longitude": 6.5728678, "race": "Tour du Pays de Vaud printanier #3 - Yens", "date": {"mer. 12.06.2013": {"year": 2013, "day": 12, "month": 6, "categories": {"D-Sen1": {"distance": 9, "rank": 46, "pace": 398000000000, "time": 3625.6}}, "weekday": "wednesday", "livingplace": "Apples"}}, "location": "Champvent"}, "Tour du Pays de Vaud #3 - Chavornay": {"latitude": 46.7784736, "longitude": 6.641183, "race": "Tour du Pays de Vaud #3 - Chavornay", "date": {"mer. 28.08.2013": {"year": 2013, "day": 28, "month": 8, "categories": {"D-Sen1": {"distance": 9, "rank": 65, "pace": 364000000000, "time": 3240.6}}, "weekday": "wednesday", "livingplace": "Apples"}}, "location": "Yverdon-les-Bains"}, "Morat-Fribourg": {"latitude": 46.92922110000001, "longitude": 7.120184, "race": "Morat-Fribourg", "date": {"sam. 05.10.2013": {"year": 2013, "day": 5, "month": 10, "categories": {"17-W20": {"distance": 17, "rank": 562, "pace": 388000000000, "time": 6774.0}}, "weekday": "saturday", "livingplace": "Apples"}, "sam. 06.10.2012": {"year": 2012, "day": 6, "month": 10, "categories": {"17-W20": {"distance": 17, "rank": 519, "pace": 401000000000, "time": 7002.8}}, "weekday": "saturday", "livingplace": "Morges"}}, "location": "Murten"}, "Tour du pays de Vaud #1 - Penthaz": {"latitude": 46.5993131, "longitude": 6.539251200000001, "race": "Tour du pays de Vaud #1 - Penthaz", "date": {"mer. 14.08.2013": {"year": 2013, "day": 14, "month": 8, "categories": {"D-Sen1": {"distance": 9, "rank": 74, "pace": 367000000000, "time": 3138.4}}, "weekday": "wednesday", "livingplace": "Apples"}, "mer. 08.08.2012": {"year": 2012, "day": 8, "month": 8, "categories": {"D-Sen1": {"distance": 9, "rank": 85, "pace": 403000000000, "time": 3443.5}}, "weekday": "wednesday", "livingplace": "Morges"}}, "location": "Penthaz"}, "Tour du Pays de Vaud #4 - La Sarraz": {"latitude": 46.7088129, "longitude": 6.5707689, "race": "Tour du Pays de Vaud #4 - La Sarraz", "date": {"mer. 29.08.2012": {"year": 2012, "day": 29, "month": 8, "categories": {"D-Sen1": {"distance": 9, "rank": 78, "pace": 378000000000, "time": 3215.3}}, "weekday": "wednesday", "livingplace": "Morges"}, "mer. 04.09.2013": {"year": 2013, "day": 4, "month": 9, "categories": {"D-Sen1": {"distance": 9, "rank": 67, "pace": 380000000000, "time": 3237.1}}, "weekday": "wednesday", "livingplace": "Apples"}}, "location": "Chavornay"}}, "birth": 1981}