{"name": "Burkhardt Ralf", "sex": "M", "races": {"Bl\u00fcemlisalp-Lauf, Reichenbach": {"latitude": 46.6254387, "longitude": 7.6940529, "race": "Bl\u00fcemlisalp-Lauf, Reichenbach", "date": {"dim. 25.05.2014": {"year": 2014, "day": 25, "month": 5, "categories": {"M40": {"distance": 16, "rank": 166, "pace": 467000000000, "time": 7521.8}}, "weekday": "sunday", "livingplace": "smrun"}}, "location": "Reichenbach im Kandertal"}, "Murilauf, Muri b  Bern": {"latitude": 46.9350521, "longitude": 7.498472799999999, "race": "Murilauf, Muri b  Bern", "date": {"dim. 01.07.2012": {"year": 2012, "day": 1, "month": 7, "categories": {"10-M92": {"distance": 10, "rank": 35, "pace": 303000000000, "time": 3031.2}}, "weekday": "sunday", "livingplace": "Bern"}}, "location": "Muri b. Bern"}, "Thuner Stadtlauf, Thun": {"latitude": 46.7579868, "longitude": 7.6279881, "race": "Thuner Stadtlauf, Thun", "date": {"dim. 22.08.2010": {"year": 2010, "day": 22, "month": 8, "categories": {"10-M40": {"distance": 10, "rank": 93, "pace": 313000000000, "time": 3137.7}}, "weekday": "sunday", "livingplace": "Bern"}}, "location": "Thun"}, "Morat-Fribourg": {"latitude": 46.92922110000001, "longitude": 7.120184, "race": "Morat-Fribourg", "date": {"sam. 03.10.2009": {"year": 2009, "day": 3, "month": 10, "categories": {"C-M40": {"distance": 17, "rank": 648, "pace": 341000000000, "time": 5872.0}}, "weekday": "saturday", "livingplace": "Ostermundigen"}, "sam. 06.10.2007": {"year": 2007, "day": 6, "month": 10, "categories": {"C/M40": {"distance": 17, "rank": 783, "pace": 377000000000, "time": 6488.9}}, "weekday": "saturday", "livingplace": "Ostermundigen"}}, "location": "Murten"}, "ASICS Bremgarter Reusslauf": {"latitude": 47.34917739999999, "longitude": 8.3397905, "race": "ASICS Bremgarter Reusslauf", "date": {"sam. 23.02.2013": {"year": 2013, "day": 23, "month": 2, "categories": {"11-M40": {"distance": 11, "rank": 412, "pace": 320000000000, "time": 3529.0}}, "weekday": "saturday", "livingplace": "smrun"}}, "location": "Bremgarten AG"}, "Ch\u00e4sitzerlouf, Kehrsatz": {"latitude": NaN, "longitude": NaN, "race": "Ch\u00e4sitzerlouf, Kehrsatz", "date": {"sam. 04.04.2009": {"year": 2009, "day": 4, "month": 4, "categories": {"M40": {"distance": 12, "rank": 135, "pace": 307000000000, "time": 3690.4}}, "weekday": "saturday", "livingplace": "Ostermundigen"}}, "location": "Kehrsatz"}, "Steinh\u00f6lzlilauf, Liebefeld": {"latitude": 46.933331, "longitude": 7.416668, "race": "Steinh\u00f6lzlilauf, Liebefeld", "date": {"dim. 06.12.2009": {"year": 2009, "day": 6, "month": 12, "categories": {"SenIIM": {"distance": 11, "rank": 36, "pace": 292000000000, "time": 3076.1}}, "weekday": "sunday", "livingplace": "Ostermundigen"}}, "location": "Liebefeld"}, "10km Schweizer Meisterschaften Lyss": {"latitude": 47.0746504, "longitude": 7.3077022, "race": "10km Schweizer Meisterschaften Lyss", "date": {"sam. 02.04.2011": {"year": 2011, "day": 2, "month": 4, "categories": {"10-M45": {"distance": 10, "rank": 52, "pace": 286000000000, "time": 2867.9}}, "weekday": "saturday", "livingplace": "Bern"}}, "location": "Lyss"}, "Gurtenclassic, Wabern": {"latitude": 46.92901639999999, "longitude": 7.448973199999999, "race": "Gurtenclassic, Wabern", "date": {"dim. 04.11.2012": {"year": 2012, "day": 4, "month": 11, "categories": {"15-M40": {"distance": 15, "rank": 110, "pace": 376000000000, "time": 5641.3}}, "weekday": "sunday", "livingplace": "Bern"}, "dim. 01.11.2009": {"year": 2009, "day": 1, "month": 11, "categories": {"M40": {"distance": 15, "rank": 135, "pace": 351000000000, "time": 5276.7}}, "weekday": "sunday", "livingplace": "Ostermundigen"}}, "location": "Wabern"}, "Kerzerslauf": {"latitude": 46.97488999999999, "longitude": 7.1954365, "race": "Kerzerslauf", "date": {"sam. 19.03.2011": {"year": 2011, "day": 19, "month": 3, "categories": {"15-M45": {"distance": 15, "rank": 428, "pace": 310000000000, "time": 4652.1}}, "weekday": "saturday", "livingplace": "Bern"}, "sam. 15.03.2008": {"year": 2008, "day": 15, "month": 3, "categories": {"15/M40": {"distance": 15, "rank": 576, "pace": 353000000000, "time": 5308.6}}, "weekday": "saturday", "livingplace": "Ostermundigen"}}, "location": "Kerzers"}, "Z\u00fcrich Marathon, Teamrun und Cityrun": {"latitude": 47.3768866, "longitude": 8.541694, "race": "Z\u00fcrich Marathon, Teamrun und Cityrun", "date": {"dim. 17.04.2011": {"year": 2011, "day": 17, "month": 4, "categories": {"42-M45": {"distance": 42, "rank": 303, "pace": 322000000000, "time": 13595.5}}, "weekday": "sunday", "livingplace": "Bern"}}, "location": "Z\u00fcrich"}}, "birth": 1966}