{"name": "Burkhardt Maximilien", "sex": "M", "races": {"Tour de Presinge": {"latitude": 46.21860299999999, "longitude": 6.2535283, "race": "Tour de Presinge", "date": {"dim. 22.03.2009": {"year": 2009, "day": 22, "month": 3, "categories": {"1k/PF": {"distance": 1, "rank": 12, "pace": 271000000000, "time": 271.2}}, "weekday": "sunday", "livingplace": "Grand Saconnex"}, "dim. 21.03.2010": {"year": 2010, "day": 21, "month": 3, "categories": {"1k/PF": {"distance": 1, "rank": 6, "pace": 248000000000, "time": 248.8}}, "weekday": "sunday", "livingplace": "Grand Saconnex"}}, "location": "Presinge"}, "Course de l'Escalade, Gen\u00e8ve": {"latitude": 46.2043907, "longitude": 6.1431577, "race": "Course de l'Escalade, Gen\u00e8ve", "date": {"sam. 05.12.2009": {"year": 2009, "day": 5, "month": 12, "categories": {"HPousB7": {"distance": 2, "rank": 2, "pace": 244000000000, "time": 432.9}}, "weekday": "saturday", "livingplace": "Grand Saconnex"}, "sam. 06.12.2008": {"year": 2008, "day": 6, "month": 12, "categories": {"HPousB": {"distance": 2, "rank": 287, "pace": 352000000000, "time": 641.7}}, "weekday": "saturday", "livingplace": "Commune Du Grand Saconnex"}, "sam. 04.12.2010": {"year": 2010, "day": 4, "month": 12, "categories": {"H-PA8": {"distance": 2, "rank": 2, "pace": 252000000000, "time": 446.5}}, "weekday": "saturday", "livingplace": "Grand Saconnex"}}, "location": "Gen\u00e8ve"}, "A travers Carouge - Run to Run": {"latitude": 46.1829674, "longitude": 6.1378539, "race": "A travers Carouge - Run to Run", "date": {"sam. 25.09.2010": {"year": 2010, "day": 25, "month": 9, "categories": {"PousBM": {"distance": 1, "rank": 4, "pace": 208000000000, "time": 166.7}}, "weekday": "saturday", "livingplace": "Grand Saconnex"}}, "location": "Carouge GE"}, "Morat-Fribourg": {"latitude": 46.92922110000001, "longitude": 7.120184, "race": "Morat-Fribourg", "date": {"sam. 06.10.2007": {"year": 2007, "day": 6, "month": 10, "categories": {"K/PM": {"distance": 1, "rank": 5, "pace": 281000000000, "time": 197.1}}, "weekday": "saturday", "livingplace": "Grand Saconnex"}}, "location": "Murten"}, "Course Titz\u00e9 de no\u00ebl Sion": {"latitude": 46.2331221, "longitude": 7.360625999999999, "race": "Course Titz\u00e9 de no\u00ebl Sion", "date": {"sam. 08.12.2007": {"year": 2007, "day": 8, "month": 12, "categories": {"EMC": {"distance": 1, "rank": 74, "pace": 308000000000, "time": 308.2}}, "weekday": "saturday", "livingplace": "Grand Saconnex"}}, "location": "Sion"}}, "birth": 2002}