{"name": "Burnier Marilyn", "sex": "F", "races": {"Tour du pays de Vaud #1 \u2013 St  Prex": {"latitude": 46.7784736, "longitude": 6.641183, "race": "Tour du pays de Vaud #1 \u2013 St  Prex", "date": {"mer. 11.08.2010": {"year": 2010, "day": 11, "month": 8, "categories": {"Dam": {"distance": 8, "rank": 21, "pace": 378000000000, "time": 3176.4}}, "weekday": "wednesday", "livingplace": "Lausanne"}}, "location": "Yverdon-les-Bains"}, "20km de Lausanne": {"latitude": 46.5196535, "longitude": 6.6322734, "race": "20km de Lausanne", "date": {"sam. 27.04.2013": {"year": 2013, "day": 27, "month": 4, "categories": {"10-F20": {"distance": 10, "rank": 249, "pace": 325000000000, "time": 3259.8}}, "weekday": "saturday", "livingplace": "Epalinges"}, "sam. 25.04.2009": {"year": 2009, "day": 25, "month": 4, "categories": {"10-F20": {"distance": 10, "rank": 204, "pace": 343000000000, "time": 3437.4}}, "weekday": "saturday", "livingplace": "Lausanne"}, "sam. 25.04.2015": {"year": 2015, "day": 25, "month": 4, "categories": {"10-F20": {"distance": 10, "rank": 113, "pace": 301000000000, "time": 3019.0}}, "weekday": "saturday", "livingplace": "Epalinges"}}, "location": "Lausanne"}, "Tour du Pays de Vaud #4, La Sarraz": {"latitude": 46.7088129, "longitude": 6.5707689, "race": "Tour du Pays de Vaud #4, La Sarraz", "date": {"mer. 03.09.2014": {"year": 2014, "day": 3, "month": 9, "categories": {"D-Dam": {"distance": 9, "rank": 16, "pace": 314000000000, "time": 2670.4}}, "weekday": "wednesday", "livingplace": "Epalinges"}}, "location": "Chavornay"}, "Tour du Pays de Vaud #5 - La Sarraz": {"latitude": 46.5993131, "longitude": 6.539251200000001, "race": "Tour du Pays de Vaud #5 - La Sarraz", "date": {"mer. 08.09.2010": {"year": 2010, "day": 8, "month": 9, "categories": {"Dam": {"distance": 9, "rank": 23, "pace": 358000000000, "time": 3266.4}}, "weekday": "wednesday", "livingplace": "Lausanne"}}, "location": "Penthaz"}, "Tour du Pays de Vaud #2, Mezi\u00e8res": {"latitude": 46.5955273, "longitude": 6.7702883, "race": "Tour du Pays de Vaud #2, Mezi\u00e8res", "date": {"mer. 20.08.2014": {"year": 2014, "day": 20, "month": 8, "categories": {"D-Dam": {"distance": 8, "rank": 23, "pace": 353000000000, "time": 2859.4}}, "weekday": "wednesday", "livingplace": "Epalinges"}}, "location": "M\u00e9zi\u00e8res VD"}}, "birth": 1987}