{"name": "Burri Bryan", "sex": "M", "races": {"BCN Tour M\u00f4tier": {"latitude": 46.9262933, "longitude": 6.6324944, "race": "BCN Tour M\u00f4tier", "date": {"mer. 19.05.2010": {"year": 2010, "day": 19, "month": 5, "categories": {"HJ": {"distance": 10, "rank": 33, "pace": 281000000000, "time": 2785.5}}, "weekday": "wednesday", "livingplace": "Motiers"}}, "location": "Couvet"}, "BCN Tour La Br\u00e9vine": {"latitude": 46.999113, "longitude": 6.733554799999999, "race": "BCN Tour La Br\u00e9vine", "date": {"mer. 04.05.2011": {"year": 2011, "day": 4, "month": 5, "categories": {"HJ": {"distance": 10, "rank": 42, "pace": 305000000000, "time": 3051.7}}, "weekday": "wednesday", "livingplace": "Motiers"}}, "location": "Les Ponts-de-Martel"}, "BCN Tour Neuch\u00e2tel": {"latitude": 46.9899874, "longitude": 6.9292732, "race": "BCN Tour Neuch\u00e2tel", "date": {"mer. 26.05.2010": {"year": 2010, "day": 26, "month": 5, "categories": {"HJ": {"distance": 10, "rank": 63, "pace": 353000000000, "time": 3428.8}}, "weekday": "wednesday", "livingplace": "Motiers"}}, "location": "Neuch\u00e2tel"}, "BCN Tour Le Locle": {"latitude": 46.999113, "longitude": 6.733554799999999, "race": "BCN Tour Le Locle", "date": {"mer. 05.05.2010": {"year": 2010, "day": 5, "month": 5, "categories": {"HJ": {"distance": 11, "rank": 33, "pace": 294000000000, "time": 3214.4}}, "weekday": "wednesday", "livingplace": "Motiers"}}, "location": "Les Ponts-de-Martel"}, "BCN Tour Ponts-de-Martel": {"latitude": 47.0624261, "longitude": 6.9175754, "race": "BCN Tour Ponts-de-Martel", "date": {"mer. 28.04.2010": {"year": 2010, "day": 28, "month": 4, "categories": {"HJ": {"distance": 11, "rank": 48, "pace": 319000000000, "time": 3583.6}}, "weekday": "wednesday", "livingplace": "Motiers"}}, "location": "Ch\u00e9zard-St-Martin"}, "BCN Tour La Chaux-de-fonds": {"latitude": 47.1034892, "longitude": 6.832783800000001, "race": "BCN Tour La Chaux-de-fonds", "date": {"mer. 12.05.2010": {"year": 2010, "day": 12, "month": 5, "categories": {"HJ": {"distance": 11, "rank": 67, "pace": 438000000000, "time": 4693.6}}, "weekday": "wednesday", "livingplace": "Motiers"}}, "location": "La Chaux-de-Fonds"}, "BCN Tour Colombier": {"latitude": 46.9668714, "longitude": 6.8589727, "race": "BCN Tour Colombier", "date": {"mer. 21.04.2010": {"year": 2010, "day": 21, "month": 4, "categories": {"HJ": {"distance": 10, "rank": 56, "pace": 398000000000, "time": 3988.3}}, "weekday": "wednesday", "livingplace": "Motiers"}}, "location": "Colombier NE"}}, "birth": 1992}