{"name": "B\u00fcschi Mathias", "sex": "M", "races": {"Tour du Pays de Vaud printanier #2 Yverdon-les-Bains": {"latitude": 46.6698891, "longitude": 6.7975224, "race": "Tour du Pays de Vaud printanier #2 Yverdon-les-Bains", "date": {"mer. 11.06.2014": {"year": 2014, "day": 11, "month": 6, "categories": {"H-Hom": {"distance": 9, "rank": 4, "pace": 250000000000, "time": 2275.6}}, "weekday": "wednesday", "livingplace": "Yverdon les Bains"}}, "location": "Moudon"}, "Morat-Fribourg": {"latitude": 46.92922110000001, "longitude": 7.120184, "race": "Morat-Fribourg", "date": {"dim. 07.10.2001": {"year": 2001, "day": 7, "month": 10, "categories": {"CadH": {"distance": 17, "rank": 2, "pace": 228000000000, "time": 3920.8}}, "weekday": "sunday", "livingplace": "Grolley"}}, "location": "Murten"}, "La Trotteuse-Tissot, La Chaux-de-Fonds": {"latitude": 47.1034892, "longitude": 6.832783800000001, "race": "La Trotteuse-Tissot, La Chaux-de-Fonds", "date": {"sam. 12.12.2015": {"year": 2015, "day": 12, "month": 12, "categories": {"GC-H30": {"distance": 8, "rank": 29, "pace": 239000000000, "time": 1915.6}}, "weekday": "saturday", "livingplace": "Yverdon"}}, "location": "La Chaux-de-Fonds"}, "Tour du Pays de Vaud #3 - Chavornay": {"latitude": 46.7784736, "longitude": 6.641183, "race": "Tour du Pays de Vaud #3 - Chavornay", "date": {"mer. 28.08.2013": {"year": 2013, "day": 28, "month": 8, "categories": {"H-Hom": {"distance": 9, "rank": 41, "pace": 262000000000, "time": 2337.1}}, "weekday": "wednesday", "livingplace": "Yverdon les Bains"}}, "location": "Yverdon-les-Bains"}, "20km de Lausanne": {"latitude": 46.5196535, "longitude": 6.6322734, "race": "20km de Lausanne", "date": {"sam. 25.04.2015": {"year": 2015, "day": 25, "month": 4, "categories": {"20-H30": {"distance": 20, "rank": 48, "pace": 237000000000, "time": 4752.1}}, "weekday": "saturday", "livingplace": "Yverdon"}}, "location": "Lausanne"}, "Tour du Pays de Vaud #4 - La Sarraz": {"latitude": 46.7088129, "longitude": 6.5707689, "race": "Tour du Pays de Vaud #4 - La Sarraz", "date": {"mer. 04.09.2013": {"year": 2013, "day": 4, "month": 9, "categories": {"H-Hom": {"distance": 9, "rank": 26, "pace": 254000000000, "time": 2167.2}}, "weekday": "wednesday", "livingplace": "Yverdon les Bains"}}, "location": "Chavornay"}, "Bieler Lauftage, Biel Bienne": {"latitude": 47.1367785, "longitude": 7.2467909, "race": "Bieler Lauftage, Biel Bienne", "date": {"jeu. 11.06.2015": {"year": 2015, "day": 11, "month": 6, "categories": {"M-M30": {"distance": 42, "rank": 2, "pace": 322000000000, "time": 13589.8}}, "weekday": "thursday", "livingplace": "Yverdon les Bains"}}, "location": "Biel/Bienne"}}, "birth": 1985}