{"name": "Buthion Michel", "sex": "M", "races": {"Tour du Pays de Vaud printanier #2 Yverdon-les-Bains": {"latitude": 46.6698891, "longitude": 6.7975224, "race": "Tour du Pays de Vaud printanier #2 Yverdon-les-Bains", "date": {"mer. 05.06.2013": {"year": 2013, "day": 5, "month": 6, "categories": {"H-Sen4": {"distance": 9, "rank": 6, "pace": 329000000000, "time": 2998.6}}, "weekday": "wednesday", "livingplace": "Crissier"}}, "location": "Moudon"}, "Tour du pays de Vaud #6 - St  Prex": {"latitude": 46.4829113, "longitude": 6.458343500000001, "race": "Tour du pays de Vaud #6 - St  Prex", "date": {"mer. 14.09.2011": {"year": 2011, "day": 14, "month": 9, "categories": {"H-Sen4": {"distance": 9, "rank": 8, "pace": 278000000000, "time": 2392.5}}, "weekday": "wednesday", "livingplace": "Crissier"}}, "location": "St-Prex"}, "Tour du pays de Vaud #1 - Penthaz": {"latitude": 46.5993131, "longitude": 6.539251200000001, "race": "Tour du pays de Vaud #1 - Penthaz", "date": {"mer. 14.08.2013": {"year": 2013, "day": 14, "month": 8, "categories": {"H-Sen4": {"distance": 9, "rank": 10, "pace": 278000000000, "time": 2372.1}}, "weekday": "wednesday", "livingplace": "Crissier"}}, "location": "Penthaz"}, "Tour du Pays de Vaud #2 - Mezi\u00e8res": {"latitude": 46.5955273, "longitude": 6.7702883, "race": "Tour du Pays de Vaud #2 - Mezi\u00e8res", "date": {"mer. 21.08.2013": {"year": 2013, "day": 21, "month": 8, "categories": {"H-Sen4": {"distance": 8, "rank": 7, "pace": 298000000000, "time": 2421.2}}, "weekday": "wednesday", "livingplace": "Crissier"}}, "location": "M\u00e9zi\u00e8res VD"}, "Tour du Pays de Vaud #3, Chavornay": {"latitude": 46.7784736, "longitude": 6.641183, "race": "Tour du Pays de Vaud #3, Chavornay", "date": {"mer. 27.08.2014": {"year": 2014, "day": 27, "month": 8, "categories": {"H-Sen4": {"distance": 9, "rank": 5, "pace": 281000000000, "time": 2418.4}}, "weekday": "wednesday", "livingplace": "Crissier"}}, "location": "Yverdon-les-Bains"}, "Kerzerslauf": {"latitude": 46.97488999999999, "longitude": 7.1954365, "race": "Kerzerslauf", "date": {"sam. 15.03.2014": {"year": 2014, "day": 15, "month": 3, "categories": {"15-M60": {"distance": 15, "rank": 28, "pace": 274000000000, "time": 4113.8}}, "weekday": "saturday", "livingplace": "Crissier"}}, "location": "Kerzers"}, "Tour du Pays de Vaud #2 - Genolier": {"latitude": 46.5955273, "longitude": 6.7702883, "race": "Tour du Pays de Vaud #2 - Genolier", "date": {"mer. 17.08.2011": {"year": 2011, "day": 17, "month": 8, "categories": {"H-Sen4": {"distance": 9, "rank": 10, "pace": 286000000000, "time": 2432.7}}, "weekday": "wednesday", "livingplace": "Crissier"}}, "location": "M\u00e9zi\u00e8res VD"}, "Lausanne Marathon": {"latitude": 46.5196535, "longitude": 6.6322734, "race": "Lausanne Marathon", "date": {"sam. 24.10.2015": {"year": 2015, "day": 24, "month": 10, "categories": {"21-H60": {"distance": 21, "rank": 51, "pace": 337000000000, "time": 7122.5}}, "weekday": "saturday", "livingplace": "Crissier"}, "dim. 26.10.2014": {"year": 2014, "day": 26, "month": 10, "categories": {"21-H60": {"distance": 21, "rank": 6, "pace": 275000000000, "time": 5807.1}}, "weekday": "sunday", "livingplace": "Crissier"}}, "location": "Lausanne"}, "Willisauer Lauf, Willisau": {"latitude": NaN, "longitude": NaN, "race": "Willisauer Lauf, Willisau", "date": {"sam. 21.09.2013": {"year": 2013, "day": 21, "month": 9, "categories": {"H-M60": {"distance": 12, "rank": 3, "pace": 265000000000, "time": 3180.9}}, "weekday": "saturday", "livingplace": "Crissier"}}, "location": "Willisau"}, "Tour du Pays de Vaud #2, Mezi\u00e8res": {"latitude": 46.5955273, "longitude": 6.7702883, "race": "Tour du Pays de Vaud #2, Mezi\u00e8res", "date": {"mer. 20.08.2014": {"year": 2014, "day": 20, "month": 8, "categories": {"H-Sen4": {"distance": 8, "rank": 6, "pace": 298000000000, "time": 2417.4}}, "weekday": "wednesday", "livingplace": "Crissier"}}, "location": "M\u00e9zi\u00e8res VD"}, "Tour du Pays de Vaud #3 - Chavornay": {"latitude": 46.7784736, "longitude": 6.641183, "race": "Tour du Pays de Vaud #3 - Chavornay", "date": {"mer. 28.08.2013": {"year": 2013, "day": 28, "month": 8, "categories": {"H-Sen4": {"distance": 9, "rank": 7, "pace": 275000000000, "time": 2447.5}}, "weekday": "wednesday", "livingplace": "Crissier"}}, "location": "Yverdon-les-Bains"}, "Montreux - Les Rochers de Naye": {"latitude": 46.4312213, "longitude": 6.9106799, "race": "Montreux - Les Rochers de Naye", "date": {"dim. 07.07.2013": {"year": 2013, "day": 7, "month": 7, "categories": {"M-HV\u00e9t2": {"distance": 19, "rank": 38, "pace": 532000000000, "time": 10012.7}}, "weekday": "sunday", "livingplace": "Crissier"}, "dim. 08.07.2012": {"year": 2012, "day": 8, "month": 7, "categories": {"M-HV\u00e9t2": {"distance": 19, "rank": 54, "pace": 543000000000, "time": 10222.4}}, "weekday": "sunday", "livingplace": "Crissier"}}, "location": "Montreux"}, "Morat-Fribourg": {"latitude": 46.92922110000001, "longitude": 7.120184, "race": "Morat-Fribourg", "date": {"sam. 03.10.2015": {"year": 2015, "day": 3, "month": 10, "categories": {"17-M65": {"distance": 17, "rank": 4, "pace": 278000000000, "time": 4774.1}}, "weekday": "saturday", "livingplace": "Crissier"}}, "location": "Murten"}, "Tour du Pays de Vaud #4 - La Sarraz": {"latitude": 46.7088129, "longitude": 6.5707689, "race": "Tour du Pays de Vaud #4 - La Sarraz", "date": {"mer. 04.09.2013": {"year": 2013, "day": 4, "month": 9, "categories": {"H-Sen4": {"distance": 9, "rank": 7, "pace": 278000000000, "time": 2365.0}}, "weekday": "wednesday", "livingplace": "Crissier"}}, "location": "Chavornay"}, "20km de Lausanne": {"latitude": 46.5196535, "longitude": 6.6322734, "race": "20km de Lausanne", "date": {"sam. 30.04.2011": {"year": 2011, "day": 30, "month": 4, "categories": {"20-H60": {"distance": 20, "rank": 15, "pace": 296000000000, "time": 5935.0}}, "weekday": "saturday", "livingplace": "TL 20 km 3"}, "sam. 26.04.2014": {"year": 2014, "day": 26, "month": 4, "categories": {"10-H60": {"distance": 10, "rank": 13, "pace": 286000000000, "time": 2867.9}}, "weekday": "saturday", "livingplace": "Crissier"}, "sam. 28.04.2012": {"year": 2012, "day": 28, "month": 4, "categories": {"20-H60": {"distance": 20, "rank": 14, "pace": 305000000000, "time": 6109.0}}, "weekday": "saturday", "livingplace": "TL 4 20km"}, "sam. 22.04.2006": {"year": 2006, "day": 22, "month": 4, "categories": {"20/H55": {"distance": 20, "rank": 46, "pace": 324000000000, "time": 6497.7}}, "weekday": "saturday", "livingplace": "Equipe TL 1"}}, "location": "Lausanne"}, "Les Traine-Savates, Cheseaux-sur-Lausanne": {"latitude": 46.585452, "longitude": 6.6047712, "race": "Les Traine-Savates, Cheseaux-sur-Lausanne", "date": {"sam. 18.04.2015": {"year": 2015, "day": 18, "month": 4, "categories": {"10-M60": {"distance": 10, "rank": 10, "pace": 271000000000, "time": 2795.6}}, "weekday": "saturday", "livingplace": "Crissier"}, "sam. 14.04.2012": {"year": 2012, "day": 14, "month": 4, "categories": {"10-M60": {"distance": 10, "rank": 8, "pace": 272000000000, "time": 2834.5}}, "weekday": "saturday", "livingplace": "Crissier"}, "sam. 12.04.2014": {"year": 2014, "day": 12, "month": 4, "categories": {"10-M60": {"distance": 10, "rank": 9, "pace": 273000000000, "time": 2821.0}}, "weekday": "saturday", "livingplace": "Crissier"}}, "location": "Cheseaux-sur-Lausanne"}}, "birth": 1950}