{"name": "Butticaz Isabelle", "sex": "F", "races": {"Tour du Pays de Vaud #2 - Genolier": {"latitude": 46.5955273, "longitude": 6.7702883, "race": "Tour du Pays de Vaud #2 - Genolier", "date": {"mer. 15.08.2012": {"year": 2012, "day": 15, "month": 8, "categories": {"D-Dam": {"distance": 9, "rank": 38, "pace": 351000000000, "time": 2985.2}}, "weekday": "wednesday", "livingplace": "Vevey"}, "mer. 17.08.2011": {"year": 2011, "day": 17, "month": 8, "categories": {"D-Dam": {"distance": 9, "rank": 35, "pace": 409000000000, "time": 3480.0}}, "weekday": "wednesday", "livingplace": "Vevey"}}, "location": "M\u00e9zi\u00e8res VD"}, "Tour du Pays de Vaud printanier #3 - Yens": {"latitude": 46.7829756, "longitude": 6.5728678, "race": "Tour du Pays de Vaud printanier #3 - Yens", "date": {"mer. 12.06.2013": {"year": 2013, "day": 12, "month": 6, "categories": {"D-Dam": {"distance": 9, "rank": 31, "pace": 383000000000, "time": 3486.0}}, "weekday": "wednesday", "livingplace": "Vevey"}}, "location": "Champvent"}, "Course de l'Avent, Yverdon": {"latitude": 46.8064773, "longitude": 7.161971899999999, "race": "Course de l'Avent, Yverdon", "date": {"dim. 27.11.2011": {"year": 2011, "day": 27, "month": 11, "categories": {"P-F2": {"distance": 6, "rank": 5, "pace": 309000000000, "time": 1905.3}}, "weekday": "sunday", "livingplace": "Vevey"}}, "location": "Fribourg"}, "Tour du pays de Vaud #1 - Mezi\u00e8res": {"latitude": 46.7784736, "longitude": 6.641183, "race": "Tour du pays de Vaud #1 - Mezi\u00e8res", "date": {"mer. 10.08.2011": {"year": 2011, "day": 10, "month": 8, "categories": {"D-Dam": {"distance": 9, "rank": 27, "pace": 371000000000, "time": 3159.3}}, "weekday": "wednesday", "livingplace": "Vevey"}}, "location": "Yverdon-les-Bains"}, "Morat-Fribourg": {"latitude": 46.92922110000001, "longitude": 7.120184, "race": "Morat-Fribourg", "date": {"sam. 03.10.2015": {"year": 2015, "day": 3, "month": 10, "categories": {"17-W20": {"distance": 17, "rank": 58, "pace": 296000000000, "time": 5089.9}}, "weekday": "saturday", "livingplace": "Vevey"}}, "location": "Murten"}, "20km de Lausanne": {"latitude": 46.5196535, "longitude": 6.6322734, "race": "20km de Lausanne", "date": {"sam. 27.04.2013": {"year": 2013, "day": 27, "month": 4, "categories": {"10-F20": {"distance": 10, "rank": 529, "pace": 356000000000, "time": 3562.3}}, "weekday": "saturday", "livingplace": "Vevey"}, "sam. 25.04.2015": {"year": 2015, "day": 25, "month": 4, "categories": {"20-F20": {"distance": 20, "rank": 97, "pace": 316000000000, "time": 6327.6}}, "weekday": "saturday", "livingplace": "Vevey"}}, "location": "Lausanne"}, "Tour du Pays de Vaud #3 - Chavornay": {"latitude": 46.7784736, "longitude": 6.641183, "race": "Tour du Pays de Vaud #3 - Chavornay", "date": {"mer. 28.08.2013": {"year": 2013, "day": 28, "month": 8, "categories": {"D-Dam": {"distance": 9, "rank": 46, "pace": 365000000000, "time": 3252.2}}, "weekday": "wednesday", "livingplace": "Vevey"}}, "location": "Yverdon-les-Bains"}, "Course de l'Avent, Fribourg": {"latitude": 46.8064773, "longitude": 7.161971899999999, "race": "Course de l'Avent, Fribourg", "date": {"dim. 24.11.2013": {"year": 2013, "day": 24, "month": 11, "categories": {"P-F20": {"distance": 6, "rank": 21, "pace": 350000000000, "time": 2210.2}}, "weekday": "sunday", "livingplace": "Orbe"}}, "location": "Fribourg"}}, "birth": 1988}