{"name": "Butty C\u00e9line", "sex": "F", "races": {"Groupe E Tour Fribourg #4, Siviriez": {"latitude": 46.6585092, "longitude": 6.877722, "race": "Groupe E Tour Fribourg #4, Siviriez", "date": {"mer. 10.09.2014": {"year": 2014, "day": 10, "month": 9, "categories": {"D-Dam1": {"distance": 11, "rank": 13, "pace": 369000000000, "time": 3990.9}}, "weekday": "wednesday", "livingplace": "Onnens"}}, "location": "Siviriez"}, "Morat-Fribourg": {"latitude": 46.92922110000001, "longitude": 7.120184, "race": "Morat-Fribourg", "date": {"sam. 03.10.2009": {"year": 2009, "day": 3, "month": 10, "categories": {"C-W20": {"distance": 17, "rank": 282, "pace": 364000000000, "time": 6261.1}}, "weekday": "saturday", "livingplace": "Onnens"}}, "location": "Murten"}, "Groupe E Tour Fribourg #2, Charmey": {"latitude": 46.6175845, "longitude": 7.1654493, "race": "Groupe E Tour Fribourg #2, Charmey", "date": {"mer. 27.08.2014": {"year": 2014, "day": 27, "month": 8, "categories": {"D-Dam1": {"distance": 10, "rank": 18, "pace": 364000000000, "time": 3514.3}}, "weekday": "wednesday", "livingplace": "Onnens"}}, "location": "Charmey (Gruy\u00e8re)"}, "Schweizer Frauenlauf Bern": {"latitude": 46.9479739, "longitude": 7.4474468, "race": "Schweizer Frauenlauf Bern", "date": {"dim. 14.06.2015": {"year": 2015, "day": 14, "month": 6, "categories": {"10-W30": {"distance": 10, "rank": 168, "pace": 323000000000, "time": 3237.9}}, "weekday": "sunday", "livingplace": "Onnens"}}, "location": "Bern"}, "Groupe E Tour Fribourg #3, Kerzers": {"latitude": 46.97488999999999, "longitude": 7.1954365, "race": "Groupe E Tour Fribourg #3, Kerzers", "date": {"mer. 03.09.2014": {"year": 2014, "day": 3, "month": 9, "categories": {"D-Dam1": {"distance": 10, "rank": 16, "pace": 323000000000, "time": 3292.4}}, "weekday": "wednesday", "livingplace": "Onnens"}}, "location": "Kerzers"}, "Groupe E Tour Fribourg #5, Givisiez": {"latitude": 46.8128615, "longitude": 7.131657799999999, "race": "Groupe E Tour Fribourg #5, Givisiez", "date": {"mer. 17.09.2014": {"year": 2014, "day": 17, "month": 9, "categories": {"D-Dam1": {"distance": 10, "rank": 17, "pace": 336000000000, "time": 3454.1}}, "weekday": "wednesday", "livingplace": "Onnens"}}, "location": "Givisiez"}, "Kerzerslauf": {"latitude": 46.97488999999999, "longitude": 7.1954365, "race": "Kerzerslauf", "date": {"sam. 21.03.2015": {"year": 2015, "day": 21, "month": 3, "categories": {"15-F20": {"distance": 15, "rank": 308, "pace": 352000000000, "time": 5286.4}}, "weekday": "saturday", "livingplace": "Onnens"}}, "location": "Kerzers"}, "Groupe E Tour Fribourg #1, Cousset": {"latitude": 46.81832, "longitude": 6.977279999999999, "race": "Groupe E Tour Fribourg #1, Cousset", "date": {"mer. 20.08.2014": {"year": 2014, "day": 20, "month": 8, "categories": {"D-Dam1": {"distance": 9, "rank": 18, "pace": 332000000000, "time": 3124.4}}, "weekday": "wednesday", "livingplace": "Onnens"}}, "location": "Cousset"}}, "birth": 1985}