{"name": "Butty Alain", "sex": "M", "races": {"Tour du Chablais #1 Roche": {"latitude": 46.2957462, "longitude": 6.9916269, "race": "Tour du Chablais #1 Roche", "date": {"mer. 07.04.2010": {"year": 2010, "day": 7, "month": 4, "categories": {"M-M20": {"distance": 9, "rank": 77, "pace": 250000000000, "time": 2240.4}}, "weekday": "wednesday", "livingplace": "Choex"}, "mer. 03.04.2013": {"year": 2013, "day": 3, "month": 4, "categories": {"M-M40": {"distance": 9, "rank": 77, "pace": 277000000000, "time": 2458.9}}, "weekday": "wednesday", "livingplace": "Choex"}}, "location": "Ollon VD"}, "Tour du Chablais #2 Rennaz": {"latitude": 46.3835529, "longitude": 6.854975199999999, "race": "Tour du Chablais #2 Rennaz", "date": {"mer. 04.05.2011": {"year": 2011, "day": 4, "month": 5, "categories": {"M-M20": {"distance": 9, "rank": 80, "pace": 254000000000, "time": 2378.3}}, "weekday": "wednesday", "livingplace": "Choex"}}, "location": "Bouveret"}, "Morat-Fribourg": {"latitude": 46.92922110000001, "longitude": 7.120184, "race": "Morat-Fribourg", "date": {"sam. 05.10.2013": {"year": 2013, "day": 5, "month": 10, "categories": {"17-M40": {"distance": 17, "rank": 301, "pace": 291000000000, "time": 5095.2}}, "weekday": "saturday", "livingplace": "Choex"}}, "location": "Murten"}, "Tour du Chablais #3 Le Bouveret": {"latitude": 46.1782231, "longitude": 7.0223787, "race": "Tour du Chablais #3 Le Bouveret", "date": {"mer. 11.05.2011": {"year": 2011, "day": 11, "month": 5, "categories": {"M-M20": {"distance": 10, "rank": 86, "pace": 256000000000, "time": 2563.4}}, "weekday": "wednesday", "livingplace": "Choex"}}, "location": "Evionnaz"}, "Tour du Chablais #6 Monthey": {"latitude": 46.3190253, "longitude": 6.970566, "race": "Tour du Chablais #6 Monthey", "date": {"mer. 08.05.2013": {"year": 2013, "day": 8, "month": 5, "categories": {"M-M40": {"distance": 9, "rank": 38, "pace": 253000000000, "time": 2365.7}}, "weekday": "wednesday", "livingplace": "Choex"}}, "location": "Aigle"}, "20km de Lausanne": {"latitude": 46.5196535, "longitude": 6.6322734, "race": "20km de Lausanne", "date": {"sam. 30.04.2011": {"year": 2011, "day": 30, "month": 4, "categories": {"20-H30": {"distance": 20, "rank": 286, "pace": 277000000000, "time": 5557.4}}, "weekday": "saturday", "livingplace": "Choex"}, "sam. 27.04.2013": {"year": 2013, "day": 27, "month": 4, "categories": {"20-H40": {"distance": 20, "rank": 118, "pace": 273000000000, "time": 5460.9}}, "weekday": "saturday", "livingplace": "Migros Vaud"}, "sam. 26.04.2014": {"year": 2014, "day": 26, "month": 4, "categories": {"20-H40": {"distance": 20, "rank": 176, "pace": 287000000000, "time": 5742.0}}, "weekday": "saturday", "livingplace": "Migros"}}, "location": "Lausanne"}, "Tour du Chablais #1 Lavey": {"latitude": 46.2957462, "longitude": 6.9916269, "race": "Tour du Chablais #1 Lavey", "date": {"mer. 27.04.2011": {"year": 2011, "day": 27, "month": 4, "categories": {"M-M20": {"distance": 9, "rank": 73, "pace": 252000000000, "time": 2273.8}}, "weekday": "wednesday", "livingplace": "Choex"}}, "location": "Ollon VD"}, "Tour du Chablais #2 Yvorne": {"latitude": 46.3835529, "longitude": 6.854975199999999, "race": "Tour du Chablais #2 Yvorne", "date": {"mer. 10.04.2013": {"year": 2013, "day": 10, "month": 4, "categories": {"M-M40": {"distance": 8, "rank": 53, "pace": 292000000000, "time": 2339.3}}, "weekday": "wednesday", "livingplace": "Choex"}}, "location": "Bouveret"}, "Tour du Chablais #2 St-Gingolph": {"latitude": 46.3835529, "longitude": 6.854975199999999, "race": "Tour du Chablais #2 St-Gingolph", "date": {"mer. 14.04.2010": {"year": 2010, "day": 14, "month": 4, "categories": {"M-M20": {"distance": 8, "rank": 71, "pace": 277000000000, "time": 2313.7}}, "weekday": "wednesday", "livingplace": "Choex"}}, "location": "Bouveret"}, "Corrida Bulloise, Bulle": {"latitude": 46.6154512, "longitude": 7.057726799999999, "race": "Corrida Bulloise, Bulle", "date": {"sam. 16.11.2013": {"year": 2013, "day": 16, "month": 11, "categories": {"PopHomm": {"distance": 6, "rank": 146, "pace": 261000000000, "time": 1605.7}}, "weekday": "saturday", "livingplace": "Choex"}, "sam. 17.11.2012": {"year": 2012, "day": 17, "month": 11, "categories": {"M40": {"distance": 8, "rank": 81, "pace": 255000000000, "time": 2084.2}}, "weekday": "saturday", "livingplace": "Choex"}, "sam. 15.11.2014": {"year": 2014, "day": 15, "month": 11, "categories": {"Pop-Hom": {"distance": 6, "rank": 168, "pace": 267000000000, "time": 1642.4}}, "weekday": "saturday", "livingplace": "Choex"}, "sam. 19.11.2011": {"year": 2011, "day": 19, "month": 11, "categories": {"M20": {"distance": 8, "rank": 93, "pace": 259000000000, "time": 2111.1}}, "weekday": "saturday", "livingplace": "Choex"}}, "location": "Bulle"}, "Tour du Chablais #4 Champ\u00e9ry": {"latitude": NaN, "longitude": NaN, "race": "Tour du Chablais #4 Champ\u00e9ry", "date": {"mer. 02.05.2012": {"year": 2012, "day": 2, "month": 5, "categories": {"M-M40": {"distance": 8, "rank": 31, "pace": 251000000000, "time": 2091.0}}, "weekday": "wednesday", "livingplace": "Choex"}}, "location": "Les Mosses"}, "Tour du Chablais #5 Morgins": {"latitude": 46.3603257, "longitude": 6.931504599999999, "race": "Tour du Chablais #5 Morgins", "date": {"mer. 01.05.2013": {"year": 2013, "day": 1, "month": 5, "categories": {"M-M40": {"distance": 8, "rank": 45, "pace": 277000000000, "time": 2108.1}}, "weekday": "wednesday", "livingplace": "Choex"}}, "location": "Roche VD"}, "Tour du Chablais #5 Les Mosses": {"latitude": 46.3603257, "longitude": 6.931504599999999, "race": "Tour du Chablais #5 Les Mosses", "date": {"mer. 25.05.2011": {"year": 2011, "day": 25, "month": 5, "categories": {"M-M20": {"distance": 8, "rank": 74, "pace": 269000000000, "time": 2158.3}}, "weekday": "wednesday", "livingplace": "Choex"}}, "location": "Roche VD"}, "Lausanne Marathon": {"latitude": 46.5196535, "longitude": 6.6322734, "race": "Lausanne Marathon", "date": {"dim. 31.10.2010": {"year": 2010, "day": 31, "month": 10, "categories": {"10-H2": {"distance": 10, "rank": 112, "pace": 257000000000, "time": 2573.5}}, "weekday": "sunday", "livingplace": "Choex"}, "dim. 30.10.2011": {"year": 2011, "day": 30, "month": 10, "categories": {"21-H2": {"distance": 21, "rank": 258, "pace": 281000000000, "time": 5932.3}}, "weekday": "sunday", "livingplace": "Choex"}, "dim. 26.10.2014": {"year": 2014, "day": 26, "month": 10, "categories": {"21-H40": {"distance": 21, "rank": 268, "pace": 294000000000, "time": 6222.4}}, "weekday": "sunday", "livingplace": "Choex"}}, "location": "Lausanne"}, "Tour du Chablais #6 Aigle": {"latitude": 46.3190253, "longitude": 6.970566, "race": "Tour du Chablais #6 Aigle", "date": {"mer. 01.06.2011": {"year": 2011, "day": 1, "month": 6, "categories": {"M-M20": {"distance": 10, "rank": 75, "pace": 245000000000, "time": 2502.8}}, "weekday": "wednesday", "livingplace": "Choex"}}, "location": "Aigle"}, "Tour du Chablais #4 St  Maurice": {"latitude": NaN, "longitude": NaN, "race": "Tour du Chablais #4 St  Maurice", "date": {"mer. 24.04.2013": {"year": 2013, "day": 24, "month": 4, "categories": {"M-M40": {"distance": 10, "rank": 56, "pace": 270000000000, "time": 2701.6}}, "weekday": "wednesday", "livingplace": "Choex"}}, "location": "Les Mosses"}, "Tour du Chablais #3 Collombey-Muraz": {"latitude": 46.1782231, "longitude": 7.0223787, "race": "Tour du Chablais #3 Collombey-Muraz", "date": {"mer. 25.04.2012": {"year": 2012, "day": 25, "month": 4, "categories": {"M-M40": {"distance": 9, "rank": 34, "pace": 250000000000, "time": 2251.8}}, "weekday": "wednesday", "livingplace": "Choex"}}, "location": "Evionnaz"}, "Tour du Chablais #5 Bex": {"latitude": 46.3603257, "longitude": 6.931504599999999, "race": "Tour du Chablais #5 Bex", "date": {"mer. 09.05.2012": {"year": 2012, "day": 9, "month": 5, "categories": {"M-M40": {"distance": 9, "rank": 14, "pace": 240000000000, "time": 2132.9}}, "weekday": "wednesday", "livingplace": "Choex"}}, "location": "Roche VD"}, "Course de l'Escalade, Gen\u00e8ve": {"latitude": 46.2043907, "longitude": 6.1431577, "race": "Course de l'Escalade, Gen\u00e8ve", "date": {"sam. 06.12.2014": {"year": 2014, "day": 6, "month": 12, "categories": {"Esc-Hom3": {"distance": 7, "rank": 550, "pace": 279000000000, "time": 2048.8}}, "weekday": "saturday", "livingplace": "Choex"}}, "location": "Gen\u00e8ve"}, "Tour du Chablais #4 Morgins": {"latitude": NaN, "longitude": NaN, "race": "Tour du Chablais #4 Morgins", "date": {"mer. 18.05.2011": {"year": 2011, "day": 18, "month": 5, "categories": {"M-M20": {"distance": 8, "rank": 71, "pace": 266000000000, "time": 2228.9}}, "weekday": "wednesday", "livingplace": "Choex"}}, "location": "Les Mosses"}, "Tour du Chablais #1 Martigny": {"latitude": 46.2957462, "longitude": 6.9916269, "race": "Tour du Chablais #1 Martigny", "date": {"mer. 23.04.2014": {"year": 2014, "day": 23, "month": 4, "categories": {"M-M40": {"distance": 9, "rank": 52, "pace": 265000000000, "time": 2260.1}}, "weekday": "wednesday", "livingplace": "Choex"}}, "location": "Ollon VD"}, "Tour du Chablais #6 Mouthey": {"latitude": 46.3190253, "longitude": 6.970566, "race": "Tour du Chablais #6 Mouthey", "date": {"mer. 12.05.2010": {"year": 2010, "day": 12, "month": 5, "categories": {"M-M20": {"distance": 9, "rank": 77, "pace": 245000000000, "time": 2260.7}}, "weekday": "wednesday", "livingplace": "Choex"}}, "location": "Aigle"}, "Tour du Chablais #1 Montreux": {"latitude": 46.2957462, "longitude": 6.9916269, "race": "Tour du Chablais #1 Montreux", "date": {"mer. 11.04.2012": {"year": 2012, "day": 11, "month": 4, "categories": {"M-M40": {"distance": 8, "rank": 42, "pace": 262000000000, "time": 1995.7}}, "weekday": "wednesday", "livingplace": "Choex"}}, "location": "Ollon VD"}, "Tour du Chablais #3 Bouveret": {"latitude": 46.1782231, "longitude": 7.0223787, "race": "Tour du Chablais #3 Bouveret", "date": {"mer. 17.04.2013": {"year": 2013, "day": 17, "month": 4, "categories": {"M-M40": {"distance": 10, "rank": 53, "pace": 269000000000, "time": 2692.5}}, "weekday": "wednesday", "livingplace": "Choex"}}, "location": "Evionnaz"}, "Tour du Chablais #4 Yvorne": {"latitude": NaN, "longitude": NaN, "race": "Tour du Chablais #4 Yvorne", "date": {"mer. 28.04.2010": {"year": 2010, "day": 28, "month": 4, "categories": {"M-M20": {"distance": 8, "rank": 78, "pace": 274000000000, "time": 2276.0}}, "weekday": "wednesday", "livingplace": "Choex"}}, "location": "Les Mosses"}, "Tour du Chablais #5 Leysin": {"latitude": 46.3603257, "longitude": 6.931504599999999, "race": "Tour du Chablais #5 Leysin", "date": {"mer. 05.05.2010": {"year": 2010, "day": 5, "month": 5, "categories": {"M-M20": {"distance": 8, "rank": 60, "pace": 277000000000, "time": 2344.5}}, "weekday": "wednesday", "livingplace": "Choex"}}, "location": "Roche VD"}, "Tour du Chablais #2 Bex": {"latitude": 46.3835529, "longitude": 6.854975199999999, "race": "Tour du Chablais #2 Bex", "date": {"mer. 18.04.2012": {"year": 2012, "day": 18, "month": 4, "categories": {"M-M40": {"distance": 8, "rank": 38, "pace": 258000000000, "time": 2069.1}}, "weekday": "wednesday", "livingplace": "Choex"}}, "location": "Bouveret"}, "Tour du Chablais #6 Montreux": {"latitude": 46.3190253, "longitude": 6.970566, "race": "Tour du Chablais #6 Montreux", "date": {"mer. 16.05.2012": {"year": 2012, "day": 16, "month": 5, "categories": {"M-M40": {"distance": 9, "rank": 39, "pace": 244000000000, "time": 2260.1}}, "weekday": "wednesday", "livingplace": "Choex"}}, "location": "Aigle"}}, "birth": 1972}