{"name": "Cabrini Franco", "sex": "M", "races": {"Lucerne Marathon, Luzern": {"latitude": 47.05016819999999, "longitude": 8.3093072, "race": "Lucerne Marathon, Luzern", "date": {"dim. 31.10.2010": {"year": 2010, "day": 31, "month": 10, "categories": {"H-M60": {"distance": 21, "rank": 105, "pace": 392000000000, "time": 8290.1}}, "weekday": "sunday", "livingplace": "Rho "}}, "location": "Luzern"}, "Stralugano, Lugano": {"latitude": 46.0036778, "longitude": 8.951051999999999, "race": "Stralugano, Lugano", "date": {"dim. 20.09.2009": {"year": 2009, "day": 20, "month": 9, "categories": {"30-M60": {"distance": 30, "rank": 27, "pace": 398000000000, "time": 11943.5}}, "weekday": "sunday", "livingplace": "Rho "}, "dim. 27.09.2015": {"year": 2015, "day": 27, "month": 9, "categories": {"10-M60": {"distance": 10, "rank": 58, "pace": 374000000000, "time": 3745.7}}, "weekday": "sunday", "livingplace": "Rho "}, "dim. 28.09.2014": {"year": 2014, "day": 28, "month": 9, "categories": {"10-M60": {"distance": 10, "rank": 54, "pace": 335000000000, "time": 3352.5}}, "weekday": "sunday", "livingplace": "Rho "}}, "location": "Lugano"}, "SwissCityMarathon - Lucerne, Luzern": {"latitude": 47.05016819999999, "longitude": 8.3093072, "race": "SwissCityMarathon - Lucerne, Luzern", "date": {"dim. 27.10.2013": {"year": 2013, "day": 27, "month": 10, "categories": {"M-M60": {"distance": 42, "rank": 42, "pace": 408000000000, "time": 17235.9}}, "weekday": "sunday", "livingplace": "Rho "}}, "location": "Luzern"}, "20km de Lausanne": {"latitude": 46.5196535, "longitude": 6.6322734, "race": "20km de Lausanne", "date": {"sam. 28.04.2012": {"year": 2012, "day": 28, "month": 4, "categories": {"20-H60": {"distance": 20, "rank": 47, "pace": 355000000000, "time": 7113.2}}, "weekday": "saturday", "livingplace": "Rho "}}, "location": "Lausanne"}, "Winterthur Marathon": {"latitude": 39.8088766, "longitude": -75.6037351, "race": "Winterthur Marathon", "date": {"dim. 29.05.2011": {"year": 2011, "day": 29, "month": 5, "categories": {"M-M60": {"distance": 42, "rank": 4, "pace": 381000000000, "time": 16094.6}}, "weekday": "sunday", "livingplace": "canottieri milano"}}, "location": "Winterthur"}, "Z\u00fcrich Marathon, Teamrun und Cityrun": {"latitude": 47.3768866, "longitude": 8.541694, "race": "Z\u00fcrich Marathon, Teamrun und Cityrun", "date": {"dim. 01.04.2007": {"year": 2007, "day": 1, "month": 4, "categories": {"M55": {"distance": 42, "rank": 183, "pace": 391000000000, "time": 16503.8}}, "weekday": "sunday", "livingplace": "Rho "}}, "location": "Z\u00fcrich"}}, "birth": 1948}