{"name": "Cachin Arnaud", "sex": "M", "races": {"Tour du Pays de Vaud etape 5 - La Sarraz": {"latitude": 46.5993131, "longitude": 6.539251200000001, "race": "Tour du Pays de Vaud etape 5 - La Sarraz", "date": {"mer. 09.09.2009": {"year": 2009, "day": 9, "month": 9, "categories": {"HS2": {"distance": 9, "rank": 123, "pace": 320000000000, "time": 2692.0}}, "weekday": "wednesday", "livingplace": "Vufflens le Chateau"}}, "location": "Penthaz"}, "Tour du Pays de Vaud #2 - Genolier": {"latitude": 46.5955273, "longitude": 6.7702883, "race": "Tour du Pays de Vaud #2 - Genolier", "date": {"mer. 18.08.2010": {"year": 2010, "day": 18, "month": 8, "categories": {"HSen2": {"distance": 8, "rank": 122, "pace": 319000000000, "time": 2591.5}}, "weekday": "wednesday", "livingplace": "Vufflens le Chateau"}}, "location": "M\u00e9zi\u00e8res VD"}, "Course de l'Escalade, Gen\u00e8ve": {"latitude": 46.2043907, "longitude": 6.1431577, "race": "Course de l'Escalade, Gen\u00e8ve", "date": {"sam. 01.12.2007": {"year": 2007, "day": 1, "month": 12, "categories": {"DucH2": {"distance": 18, "rank": 750, "pace": 305000000000, "time": 5553.5}}, "weekday": "saturday", "livingplace": "Ch"}, "sam. 02.12.2006": {"year": 2006, "day": 2, "month": 12, "categories": {"Hommes2": {"distance": 7, "rank": 382, "pace": 258000000000, "time": 1873.5}}, "weekday": "saturday", "livingplace": "Ch"}}, "location": "Gen\u00e8ve"}, "Tour du Pays de Vaud etape 2 - Genolier": {"latitude": 46.5955273, "longitude": 6.7702883, "race": "Tour du Pays de Vaud etape 2 - Genolier", "date": {"mer. 19.08.2009": {"year": 2009, "day": 19, "month": 8, "categories": {"HSen2": {"distance": 8, "rank": 118, "pace": 327000000000, "time": 2652.0}}, "weekday": "wednesday", "livingplace": "Vufflens le Chateau"}}, "location": "M\u00e9zi\u00e8res VD"}, "Tour du Pays de Vaud etape 1 - Le Mont sur Lausanne": {"latitude": 46.7784736, "longitude": 6.641183, "race": "Tour du Pays de Vaud etape 1 - Le Mont sur Lausanne", "date": {"mer. 12.08.2009": {"year": 2009, "day": 12, "month": 8, "categories": {"HS2": {"distance": 9, "rank": 131, "pace": 328000000000, "time": 3058.6}}, "weekday": "wednesday", "livingplace": "Vufflens le Chateau"}, "mer. 13.08.2008": {"year": 2008, "day": 13, "month": 8, "categories": {"HomSen1": {"distance": 8, "rank": 92, "pace": 315000000000, "time": 2652.8}}, "weekday": "wednesday", "livingplace": "Vufflens le Chateau"}}, "location": "Yverdon-les-Bains"}, "20km de Lausanne": {"latitude": 46.5196535, "longitude": 6.6322734, "race": "20km de Lausanne", "date": {"sam. 30.04.2011": {"year": 2011, "day": 30, "month": 4, "categories": {"20-H40": {"distance": 20, "rank": 368, "pace": 332000000000, "time": 6648.6}}, "weekday": "saturday", "livingplace": "Ch"}, "sam. 22.04.2006": {"year": 2006, "day": 22, "month": 4, "categories": {"10/H30": {"distance": 10, "rank": 225, "pace": 306000000000, "time": 3060.6}}, "weekday": "saturday", "livingplace": "Ch"}}, "location": "Lausanne"}, "Morat-Fribourg": {"latitude": 46.92922110000001, "longitude": 7.120184, "race": "Morat-Fribourg", "date": {"sam. 04.10.2008": {"year": 2008, "day": 4, "month": 10, "categories": {"C-M20": {"distance": 17, "rank": 1544, "pace": 340000000000, "time": 5849.9}}, "weekday": "saturday", "livingplace": "Vufflens le Chateau"}}, "location": "Murten"}, "Tour du Pays de Vaud #5 - La Sarraz": {"latitude": 46.5993131, "longitude": 6.539251200000001, "race": "Tour du Pays de Vaud #5 - La Sarraz", "date": {"mer. 08.09.2010": {"year": 2010, "day": 8, "month": 9, "categories": {"HSen2": {"distance": 9, "rank": 117, "pace": 324000000000, "time": 2953.0}}, "weekday": "wednesday", "livingplace": "Vufflens le Chateau"}}, "location": "Penthaz"}, "Tour du pays de Vaud #1 \u2013 St  Prex": {"latitude": 46.7784736, "longitude": 6.641183, "race": "Tour du pays de Vaud #1 \u2013 St  Prex", "date": {"mer. 11.08.2010": {"year": 2010, "day": 11, "month": 8, "categories": {"HSen2": {"distance": 8, "rank": 130, "pace": 336000000000, "time": 2826.1}}, "weekday": "wednesday", "livingplace": "Vufflens le Chateau"}}, "location": "Yverdon-les-Bains"}}, "birth": 1969}