{"name": "Caiazza Dany", "sex": "M", "races": {"Tour du Pays de Vaud printanier #2 Yverdon-les-Bains": {"latitude": 46.6698891, "longitude": 6.7975224, "race": "Tour du Pays de Vaud printanier #2 Yverdon-les-Bains", "date": {"mer. 11.06.2014": {"year": 2014, "day": 11, "month": 6, "categories": {"H-Sen2": {"distance": 9, "rank": 63, "pace": 401000000000, "time": 3652.9}}, "weekday": "wednesday", "livingplace": "Mollie Margot"}, "mer. 05.06.2013": {"year": 2013, "day": 5, "month": 6, "categories": {"H-Sen2": {"distance": 9, "rank": 80, "pace": 364000000000, "time": 3313.1}}, "weekday": "wednesday", "livingplace": "Mollie Margot"}}, "location": "Moudon"}, "Tour du Pays de Vaud printanier #1 Moudon": {"latitude": 46.3832683, "longitude": 6.2347852, "race": "Tour du Pays de Vaud printanier #1 Moudon", "date": {"mer. 04.06.2014": {"year": 2014, "day": 4, "month": 6, "categories": {"H-Sen2": {"distance": 8, "rank": 54, "pace": 368000000000, "time": 3093.8}}, "weekday": "wednesday", "livingplace": "Mollie Margot"}}, "location": "Nyon"}, "Tour du Pays de Vaud #4 - La Sarraz": {"latitude": 46.7088129, "longitude": 6.5707689, "race": "Tour du Pays de Vaud #4 - La Sarraz", "date": {"mer. 04.09.2013": {"year": 2013, "day": 4, "month": 9, "categories": {"H-Sen2": {"distance": 9, "rank": 170, "pace": 347000000000, "time": 2956.1}}, "weekday": "wednesday", "livingplace": "Mollie Margot"}}, "location": "Chavornay"}, "Tour du Pays de Vaud printanier #3 - Yens": {"latitude": 46.7829756, "longitude": 6.5728678, "race": "Tour du Pays de Vaud printanier #3 - Yens", "date": {"mer. 12.06.2013": {"year": 2013, "day": 12, "month": 6, "categories": {"H-Sen2": {"distance": 9, "rank": 91, "pace": 354000000000, "time": 3227.8}}, "weekday": "wednesday", "livingplace": "Mollie Margot"}, "mer. 18.06.2014": {"year": 2014, "day": 18, "month": 6, "categories": {"H-Sen2": {"distance": 9, "rank": 75, "pace": 356000000000, "time": 3243.8}}, "weekday": "wednesday", "livingplace": "Mollie Margot"}}, "location": "Champvent"}, "Tour du Pays de Vaud #2, Mezi\u00e8res": {"latitude": 46.5955273, "longitude": 6.7702883, "race": "Tour du Pays de Vaud #2, Mezi\u00e8res", "date": {"mer. 20.08.2014": {"year": 2014, "day": 20, "month": 8, "categories": {"H-Sen2": {"distance": 8, "rank": 108, "pace": 369000000000, "time": 2996.7}}, "weekday": "wednesday", "livingplace": "Mollie Margot"}}, "location": "M\u00e9zi\u00e8res VD"}, "Tour du Pays de Vaud #2 - Mezi\u00e8res": {"latitude": 46.5955273, "longitude": 6.7702883, "race": "Tour du Pays de Vaud #2 - Mezi\u00e8res", "date": {"mer. 21.08.2013": {"year": 2013, "day": 21, "month": 8, "categories": {"H-Sen2": {"distance": 8, "rank": 155, "pace": 375000000000, "time": 3040.4}}, "weekday": "wednesday", "livingplace": "Mollie Margot"}}, "location": "M\u00e9zi\u00e8res VD"}, "Tour du pays de Vaud #1 - Penthaz": {"latitude": 46.5993131, "longitude": 6.539251200000001, "race": "Tour du pays de Vaud #1 - Penthaz", "date": {"mer. 14.08.2013": {"year": 2013, "day": 14, "month": 8, "categories": {"H-Sen2": {"distance": 9, "rank": 163, "pace": 354000000000, "time": 3024.9}}, "weekday": "wednesday", "livingplace": "Mollie Margot"}}, "location": "Penthaz"}, "Tour du Pays de Vaud #3 - Chavornay": {"latitude": 46.7784736, "longitude": 6.641183, "race": "Tour du Pays de Vaud #3 - Chavornay", "date": {"mer. 28.08.2013": {"year": 2013, "day": 28, "month": 8, "categories": {"H-Sen2": {"distance": 9, "rank": 164, "pace": 335000000000, "time": 2985.0}}, "weekday": "wednesday", "livingplace": "Mollie Margot"}}, "location": "Yverdon-les-Bains"}, "Tour du Pays de Vaud #4, La Sarraz": {"latitude": 46.7088129, "longitude": 6.5707689, "race": "Tour du Pays de Vaud #4, La Sarraz", "date": {"mer. 03.09.2014": {"year": 2014, "day": 3, "month": 9, "categories": {"H-Sen2": {"distance": 9, "rank": 124, "pace": 333000000000, "time": 2838.6}}, "weekday": "wednesday", "livingplace": "Mollie Margot"}}, "location": "Chavornay"}, "Tour du Pays de Vaud #3, Chavornay": {"latitude": 46.7784736, "longitude": 6.641183, "race": "Tour du Pays de Vaud #3, Chavornay", "date": {"mer. 27.08.2014": {"year": 2014, "day": 27, "month": 8, "categories": {"H-Sen2": {"distance": 9, "rank": 134, "pace": 354000000000, "time": 3046.8}}, "weekday": "wednesday", "livingplace": "Mollie Margot"}}, "location": "Yverdon-les-Bains"}}, "birth": 1973}