{"name": "Caloz Vincent", "sex": "M", "races": {"Montreux - Les Rochers de Naye": {"latitude": 46.4312213, "longitude": 6.9106799, "race": "Montreux - Les Rochers de Naye", "date": {"dim. 06.07.2014": {"year": 2014, "day": 6, "month": 7, "categories": {"M-HElite": {"distance": 19, "rank": 81, "pace": 421000000000, "time": 7924.5}}, "weekday": "sunday", "livingplace": "Noes"}}, "location": "Montreux"}, "Morat-Fribourg": {"latitude": 46.92922110000001, "longitude": 7.120184, "race": "Morat-Fribourg", "date": {"sam. 05.10.2013": {"year": 2013, "day": 5, "month": 10, "categories": {"17-M20": {"distance": 17, "rank": 1017, "pace": 293000000000, "time": 5115.3}}, "weekday": "saturday", "livingplace": "Noes"}}, "location": "Murten"}, "Corrida Bulloise, Bulle": {"latitude": 46.6154512, "longitude": 7.057726799999999, "race": "Corrida Bulloise, Bulle", "date": {"sam. 16.11.2013": {"year": 2013, "day": 16, "month": 11, "categories": {"M20": {"distance": 8, "rank": 98, "pace": 251000000000, "time": 2052.1}}, "weekday": "saturday", "livingplace": "Noes"}}, "location": "Bulle"}, "Lausanne Marathon": {"latitude": 46.5196535, "longitude": 6.6322734, "race": "Lausanne Marathon", "date": {"sam. 24.10.2015": {"year": 2015, "day": 24, "month": 10, "categories": {"21-H20": {"distance": 21, "rank": 101, "pace": 271000000000, "time": 5720.0}}, "weekday": "saturday", "livingplace": "Noes"}, "dim. 27.10.2013": {"year": 2013, "day": 27, "month": 10, "categories": {"21-H1": {"distance": 21, "rank": 70, "pace": 261000000000, "time": 5518.8}}, "weekday": "sunday", "livingplace": "Noes"}, "dim. 26.10.2014": {"year": 2014, "day": 26, "month": 10, "categories": {"10-H20": {"distance": 10, "rank": 115, "pace": 251000000000, "time": 2517.6}}, "weekday": "sunday", "livingplace": "Sierre"}, "dim. 28.10.2012": {"year": 2012, "day": 28, "month": 10, "categories": {"21-H1": {"distance": 21, "rank": 132, "pace": 274000000000, "time": 5786.1}}, "weekday": "sunday", "livingplace": "Noes"}}, "location": "Lausanne"}, "Course de l'Escalade, Gen\u00e8ve": {"latitude": 46.2043907, "longitude": 6.1431577, "race": "Course de l'Escalade, Gen\u00e8ve", "date": {"sam. 03.12.2011": {"year": 2011, "day": 3, "month": 12, "categories": {"H-H1": {"distance": 7, "rank": 404, "pace": 276000000000, "time": 2003.6}}, "weekday": "saturday", "livingplace": "Noes"}}, "location": "Gen\u00e8ve"}, "20km de Lausanne": {"latitude": 46.5196535, "longitude": 6.6322734, "race": "20km de Lausanne", "date": {"sam. 27.04.2013": {"year": 2013, "day": 27, "month": 4, "categories": {"20-H20": {"distance": 20, "rank": 209, "pace": 276000000000, "time": 5529.0}}, "weekday": "saturday", "livingplace": "Noes"}, "sam. 28.04.2012": {"year": 2012, "day": 28, "month": 4, "categories": {"20-H20": {"distance": 20, "rank": 181, "pace": 290000000000, "time": 5815.2}}, "weekday": "saturday", "livingplace": "Noes"}}, "location": "Lausanne"}}, "birth": 1990}