{"name": "Campini Dominique", "sex": "F", "races": {"Tour du Pays de Vaud #2 - Genolier": {"latitude": 46.5955273, "longitude": 6.7702883, "race": "Tour du Pays de Vaud #2 - Genolier", "date": {"mer. 15.08.2012": {"year": 2012, "day": 15, "month": 8, "categories": {"D-Sen3": {"distance": 9, "rank": 25, "pace": 348000000000, "time": 2966.4}}, "weekday": "wednesday", "livingplace": "Eclepens"}, "mer. 17.08.2011": {"year": 2011, "day": 17, "month": 8, "categories": {"D-Sen2": {"distance": 9, "rank": 34, "pace": 345000000000, "time": 2939.2}}, "weekday": "wednesday", "livingplace": "Eclepens"}}, "location": "M\u00e9zi\u00e8res VD"}, "Tour du pays de Vaud #6 - St  Prex": {"latitude": 46.4829113, "longitude": 6.458343500000001, "race": "Tour du pays de Vaud #6 - St  Prex", "date": {"mer. 14.09.2011": {"year": 2011, "day": 14, "month": 9, "categories": {"D-Sen2": {"distance": 9, "rank": 57, "pace": 349000000000, "time": 3008.6}}, "weekday": "wednesday", "livingplace": "Eclepens"}}, "location": "St-Prex"}, "Tour du Pays de Vaud #2 - Mezi\u00e8res": {"latitude": 46.5955273, "longitude": 6.7702883, "race": "Tour du Pays de Vaud #2 - Mezi\u00e8res", "date": {"mer. 21.08.2013": {"year": 2013, "day": 21, "month": 8, "categories": {"D-Sen3": {"distance": 8, "rank": 16, "pace": 360000000000, "time": 2920.1}}, "weekday": "wednesday", "livingplace": "Boussens"}}, "location": "M\u00e9zi\u00e8res VD"}, "Tour du pays de Vaud #1 - Mezi\u00e8res": {"latitude": 46.7784736, "longitude": 6.641183, "race": "Tour du pays de Vaud #1 - Mezi\u00e8res", "date": {"mer. 10.08.2011": {"year": 2011, "day": 10, "month": 8, "categories": {"D-Sen2": {"distance": 9, "rank": 46, "pace": 341000000000, "time": 2902.6}}, "weekday": "wednesday", "livingplace": "Eclepens"}}, "location": "Yverdon-les-Bains"}, "Tour du pays de Vaud #5 - Penthaz": {"latitude": 46.5993131, "longitude": 6.539251200000001, "race": "Tour du pays de Vaud #5 - Penthaz", "date": {"mer. 07.09.2011": {"year": 2011, "day": 7, "month": 9, "categories": {"D-Sen2": {"distance": 8, "rank": 36, "pace": 378000000000, "time": 3162.8}}, "weekday": "wednesday", "livingplace": "Eclepens"}}, "location": "Penthaz"}, "Morat-Fribourg": {"latitude": 46.92922110000001, "longitude": 7.120184, "race": "Morat-Fribourg", "date": {"sam. 03.10.2009": {"year": 2009, "day": 3, "month": 10, "categories": {"C-W45": {"distance": 17, "rank": 126, "pace": 359000000000, "time": 6177.1}}, "weekday": "saturday", "livingplace": "Vufflens la Ville"}, "sam. 06.10.2007": {"year": 2007, "day": 6, "month": 10, "categories": {"C/W45": {"distance": 17, "rank": 147, "pace": 381000000000, "time": 6556.9}}, "weekday": "saturday", "livingplace": "Vufflens la Ville"}}, "location": "Murten"}, "20km de Lausanne": {"latitude": 46.5196535, "longitude": 6.6322734, "race": "20km de Lausanne", "date": {"sam. 30.04.2011": {"year": 2011, "day": 30, "month": 4, "categories": {"20-F45": {"distance": 20, "rank": 78, "pace": 354000000000, "time": 7089.8}}, "weekday": "saturday", "livingplace": "Eclepens"}, "sam. 27.04.2013": {"year": 2013, "day": 27, "month": 4, "categories": {"20-F50": {"distance": 20, "rank": 54, "pace": 368000000000, "time": 7364.8}}, "weekday": "saturday", "livingplace": "Boussens"}}, "location": "Lausanne"}, "Tour du Pays de Vaud #4 - La Sarraz": {"latitude": 46.7088129, "longitude": 6.5707689, "race": "Tour du Pays de Vaud #4 - La Sarraz", "date": {"mer. 29.08.2012": {"year": 2012, "day": 29, "month": 8, "categories": {"D-Sen3": {"distance": 9, "rank": 29, "pace": 338000000000, "time": 2876.8}}, "weekday": "wednesday", "livingplace": "Eclepens"}}, "location": "Chavornay"}, "Tour du Pays de Vaud #3 - Chavornay": {"latitude": 46.7784736, "longitude": 6.641183, "race": "Tour du Pays de Vaud #3 - Chavornay", "date": {"mer. 28.08.2013": {"year": 2013, "day": 28, "month": 8, "categories": {"D-Sen3": {"distance": 9, "rank": 22, "pace": 332000000000, "time": 2963.4}}, "weekday": "wednesday", "livingplace": "Boussens"}}, "location": "Yverdon-les-Bains"}, "Tour du pays de Vaud #1 - Penthaz": {"latitude": 46.5993131, "longitude": 6.539251200000001, "race": "Tour du pays de Vaud #1 - Penthaz", "date": {"mer. 14.08.2013": {"year": 2013, "day": 14, "month": 8, "categories": {"D-Sen3": {"distance": 9, "rank": 18, "pace": 342000000000, "time": 2920.6}}, "weekday": "wednesday", "livingplace": "Boussens"}}, "location": "Penthaz"}}, "birth": 1962}