{"name": "Cantin Bruno", "sex": "M", "races": {"Tour du Pays de Vaud etape 5 - La Sarraz": {"latitude": 46.5993131, "longitude": 6.539251200000001, "race": "Tour du Pays de Vaud etape 5 - La Sarraz", "date": {"mer. 09.09.2009": {"year": 2009, "day": 9, "month": 9, "categories": {"HS4": {"distance": 9, "rank": 38, "pace": 416000000000, "time": 3494.4}}, "weekday": "wednesday", "livingplace": "Lausanne"}}, "location": "Penthaz"}, "Course de l'Escalade, Gen\u00e8ve": {"latitude": 46.2043907, "longitude": 6.1431577, "race": "Course de l'Escalade, Gen\u00e8ve", "date": {"sam. 06.12.2003": {"year": 2003, "day": 6, "month": 12, "categories": {"Hommes4": {"distance": 7, "rank": 949, "pace": 359000000000, "time": 2603.6}}, "weekday": "saturday", "livingplace": "Lausanne"}, "sam. 07.12.2002": {"year": 2002, "day": 7, "month": 12, "categories": {"Hommes4": {"distance": 7, "rank": 700, "pace": 360000000000, "time": 2611.8}}, "weekday": "saturday", "livingplace": "Lausanne"}}, "location": "Gen\u00e8ve"}, "Tour du Pays de Vaud #2, Mezi\u00e8res": {"latitude": 46.5955273, "longitude": 6.7702883, "race": "Tour du Pays de Vaud #2, Mezi\u00e8res", "date": {"mer. 20.08.2014": {"year": 2014, "day": 20, "month": 8, "categories": {"H-Sen4": {"distance": 8, "rank": 30, "pace": 427000000000, "time": 3462.6}}, "weekday": "wednesday", "livingplace": "Lausanne"}}, "location": "M\u00e9zi\u00e8res VD"}, "Tour du Pays de Vaud etape 1 - Le Mont sur Lausanne": {"latitude": 46.7784736, "longitude": 6.641183, "race": "Tour du Pays de Vaud etape 1 - Le Mont sur Lausanne", "date": {"mer. 12.08.2009": {"year": 2009, "day": 12, "month": 8, "categories": {"HS4": {"distance": 9, "rank": 36, "pace": 427000000000, "time": 3979.2}}, "weekday": "wednesday", "livingplace": "Lausanne"}, "mer. 13.08.2008": {"year": 2008, "day": 13, "month": 8, "categories": {"HomSen4": {"distance": 8, "rank": 45, "pace": 398000000000, "time": 3348.0}}, "weekday": "wednesday", "livingplace": "Lausanne"}}, "location": "Yverdon-les-Bains"}, "Tour du pays de Vaud #1 - Penthaz": {"latitude": 46.5993131, "longitude": 6.539251200000001, "race": "Tour du pays de Vaud #1 - Penthaz", "date": {"mer. 14.08.2013": {"year": 2013, "day": 14, "month": 8, "categories": {"H-Sen4": {"distance": 9, "rank": 32, "pace": 389000000000, "time": 3324.4}}, "weekday": "wednesday", "livingplace": "Lausanne"}}, "location": "Penthaz"}, "Tour du Pays de Vaud #3, Chavornay": {"latitude": 46.7784736, "longitude": 6.641183, "race": "Tour du Pays de Vaud #3, Chavornay", "date": {"mer. 27.08.2014": {"year": 2014, "day": 27, "month": 8, "categories": {"H-Sen4": {"distance": 9, "rank": 37, "pace": 407000000000, "time": 3503.9}}, "weekday": "wednesday", "livingplace": "Lausanne"}}, "location": "Yverdon-les-Bains"}, "Kerzerslauf": {"latitude": 46.97488999999999, "longitude": 7.1954365, "race": "Kerzerslauf", "date": {"sam. 21.03.2015": {"year": 2015, "day": 21, "month": 3, "categories": {"15-M65": {"distance": 15, "rank": 94, "pace": 402000000000, "time": 6039.0}}, "weekday": "saturday", "livingplace": "Cheseaux sur Lausann"}}, "location": "Kerzers"}, "Tour du Pays de Vaud #1, Penthaz": {"latitude": 46.5993131, "longitude": 6.539251200000001, "race": "Tour du Pays de Vaud #1, Penthaz", "date": {"mer. 13.08.2014": {"year": 2014, "day": 13, "month": 8, "categories": {"H-Sen4": {"distance": 9, "rank": 33, "pace": 384000000000, "time": 3282.0}}, "weekday": "wednesday", "livingplace": "Lausanne"}}, "location": "Penthaz"}, "Morat-Fribourg": {"latitude": 46.92922110000001, "longitude": 7.120184, "race": "Morat-Fribourg", "date": {"dim. 07.10.2001": {"year": 2001, "day": 7, "month": 10, "categories": {"M50": {"distance": 17, "rank": 462, "pace": 398000000000, "time": 6838.5}}, "weekday": "sunday", "livingplace": "Lausanne"}, "sam. 04.10.2014": {"year": 2014, "day": 4, "month": 10, "categories": {"17-M65": {"distance": 17, "rank": 95, "pace": 434000000000, "time": 7453.9}}, "weekday": "saturday", "livingplace": "Lausanne"}}, "location": "Murten"}, "Tour du Pays de Vaud etape 2 - Genolier": {"latitude": 46.5955273, "longitude": 6.7702883, "race": "Tour du Pays de Vaud etape 2 - Genolier", "date": {"mer. 19.08.2009": {"year": 2009, "day": 19, "month": 8, "categories": {"HSen4": {"distance": 8, "rank": 36, "pace": 434000000000, "time": 3516.3}}, "weekday": "wednesday", "livingplace": "Lausanne"}}, "location": "M\u00e9zi\u00e8res VD"}, "Tour du Pays de Vaud #2 - Mezi\u00e8res": {"latitude": 46.5955273, "longitude": 6.7702883, "race": "Tour du Pays de Vaud #2 - Mezi\u00e8res", "date": {"mer. 21.08.2013": {"year": 2013, "day": 21, "month": 8, "categories": {"H-Sen4": {"distance": 8, "rank": 34, "pace": 418000000000, "time": 3386.0}}, "weekday": "wednesday", "livingplace": "Lausanne"}}, "location": "M\u00e9zi\u00e8res VD"}, "Lausanne Marathon": {"latitude": 46.5196535, "longitude": 6.6322734, "race": "Lausanne Marathon", "date": {"dim. 26.10.2014": {"year": 2014, "day": 26, "month": 10, "categories": {"21-H60": {"distance": 21, "rank": 106, "pace": 415000000000, "time": 8759.6}}, "weekday": "sunday", "livingplace": "Lausanne"}}, "location": "Lausanne"}, "Tour du pays de Vaud #6 - St  Prex": {"latitude": 46.4829113, "longitude": 6.458343500000001, "race": "Tour du pays de Vaud #6 - St  Prex", "date": {"mer. 14.09.2011": {"year": 2011, "day": 14, "month": 9, "categories": {"H-Sen4": {"distance": 9, "rank": 32, "pace": 383000000000, "time": 3301.8}}, "weekday": "wednesday", "livingplace": "Lausanne"}}, "location": "St-Prex"}, "Tour du Pays de Vaud #4 - La Sarraz": {"latitude": 46.7088129, "longitude": 6.5707689, "race": "Tour du Pays de Vaud #4 - La Sarraz", "date": {"mer. 04.09.2013": {"year": 2013, "day": 4, "month": 9, "categories": {"H-Sen4": {"distance": 9, "rank": 32, "pace": 394000000000, "time": 3353.8}}, "weekday": "wednesday", "livingplace": "Lausanne"}}, "location": "Chavornay"}, "20km de Lausanne": {"latitude": 46.5196535, "longitude": 6.6322734, "race": "20km de Lausanne", "date": {"sam. 30.04.2011": {"year": 2011, "day": 30, "month": 4, "categories": {"10-H60": {"distance": 10, "rank": 66, "pace": 384000000000, "time": 3842.9}}, "weekday": "saturday", "livingplace": "Lausanne"}, "sam. 27.04.2013": {"year": 2013, "day": 27, "month": 4, "categories": {"10-H65": {"distance": 10, "rank": 36, "pace": 376000000000, "time": 3766.5}}, "weekday": "saturday", "livingplace": "Lausanne"}, "sam. 25.04.2015": {"year": 2015, "day": 25, "month": 4, "categories": {"10-H65": {"distance": 10, "rank": 42, "pace": 385000000000, "time": 3853.8}}, "weekday": "saturday", "livingplace": "Lausanne"}, "sam. 22.04.2006": {"year": 2006, "day": 22, "month": 4, "categories": {"20/H55": {"distance": 20, "rank": 99, "pace": 408000000000, "time": 8165.9}}, "weekday": "saturday", "livingplace": "Lausanne"}}, "location": "Lausanne"}, "Les Traine-Savates, Cheseaux-sur-Lausanne": {"latitude": 46.585452, "longitude": 6.6047712, "race": "Les Traine-Savates, Cheseaux-sur-Lausanne", "date": {"sam. 18.04.2015": {"year": 2015, "day": 18, "month": 4, "categories": {"10-M60": {"distance": 10, "rank": 57, "pace": 404000000000, "time": 4165.9}}, "weekday": "saturday", "livingplace": "Lausanne"}, "sam. 09.04.2011": {"year": 2011, "day": 9, "month": 4, "categories": {"10-M60": {"distance": 10, "rank": 48, "pace": 380000000000, "time": 3962.1}}, "weekday": "saturday", "livingplace": "Lausanne"}, "sam. 13.04.2013": {"year": 2013, "day": 13, "month": 4, "categories": {"10-M60": {"distance": 10, "rank": 50, "pace": 387000000000, "time": 3996.2}}, "weekday": "saturday", "livingplace": "Lausanne"}}, "location": "Cheseaux-sur-Lausanne"}}, "birth": 1947}