{"name": "Carnevale Antonio", "sex": "M", "races": {"Lucerne Marathon, Luzern": {"latitude": 47.05016819999999, "longitude": 8.3093072, "race": "Lucerne Marathon, Luzern", "date": {"dim. 31.10.2010": {"year": 2010, "day": 31, "month": 10, "categories": {"H-M40": {"distance": 21, "rank": 930, "pace": 332000000000, "time": 7014.9}}, "weekday": "sunday", "livingplace": "Dagmersellen"}}, "location": "Luzern"}, "Luzerner Stadtlauf": {"latitude": 47.05016819999999, "longitude": 8.3093072, "race": "Luzerner Stadtlauf", "date": {"sam. 26.04.2008": {"year": 2008, "day": 26, "month": 4, "categories": {"K/28": {"distance": 6, "rank": 211, "pace": 277000000000, "time": 1563.5}}, "weekday": "saturday", "livingplace": "Dagmersellen"}}, "location": "Luzern"}, "ASICS Bremgarter Reusslauf": {"latitude": 47.34917739999999, "longitude": 8.3397905, "race": "ASICS Bremgarter Reusslauf", "date": {"sam. 27.02.2010": {"year": 2010, "day": 27, "month": 2, "categories": {"M40": {"distance": 11, "rank": 343, "pace": 278000000000, "time": 3059.5}}, "weekday": "saturday", "livingplace": "Luzern"}, "sam. 23.02.2008": {"year": 2008, "day": 23, "month": 2, "categories": {"M40": {"distance": 11, "rank": 411, "pace": 282000000000, "time": 3103.5}}, "weekday": "saturday", "livingplace": "Manscetti"}}, "location": "Bremgarten AG"}, "Badener Limmat-Lauf, Baden": {"latitude": 48.5699281, "longitude": 8.5303972, "race": "Badener Limmat-Lauf, Baden", "date": {"sam. 29.03.2008": {"year": 2008, "day": 29, "month": 3, "categories": {"M40": {"distance": 13, "rank": 151, "pace": 308000000000, "time": 4071.3}}, "weekday": "saturday", "livingplace": "Manschetti"}}, "location": "Baden"}, "Rotseelauf, Ebikon": {"latitude": NaN, "longitude": NaN, "race": "Rotseelauf, Ebikon", "date": {"sam. 19.04.2008": {"year": 2008, "day": 19, "month": 4, "categories": {"M40": {"distance": 10, "rank": 117, "pace": 291000000000, "time": 2912.4}}, "weekday": "saturday", "livingplace": "Maschetti"}}, "location": "Ebikon"}, "Kerzerslauf": {"latitude": 46.97488999999999, "longitude": 7.1954365, "race": "Kerzerslauf", "date": {"sam. 15.03.2008": {"year": 2008, "day": 15, "month": 3, "categories": {"15/M40": {"distance": 15, "rank": 429, "pace": 304000000000, "time": 4569.2}}, "weekday": "saturday", "livingplace": "Dagmersellen"}}, "location": "Kerzers"}, "Int Greifenseelauf, Uster": {"latitude": 47.3482747, "longitude": 8.717873899999999, "race": "Int Greifenseelauf, Uster", "date": {"sam. 22.09.2007": {"year": 2007, "day": 22, "month": 9, "categories": {"H/M40": {"distance": 21, "rank": 716, "pace": 326000000000, "time": 6889.5}}, "weekday": "saturday", "livingplace": "Dagmersellen"}, "sam. 20.09.2008": {"year": 2008, "day": 20, "month": 9, "categories": {"H-M40": {"distance": 21, "rank": 370, "pace": 285000000000, "time": 6017.8}}, "weekday": "saturday", "livingplace": "Dagmersellen"}}, "location": "Uster"}}, "birth": 1965}