{"name": "Carnal Damien", "sex": "M", "races": {"BCN Tour La Chaux-de-Fonds": {"latitude": 47.1034892, "longitude": 6.832783800000001, "race": "BCN Tour La Chaux-de-Fonds", "date": {"mer. 11.05.2011": {"year": 2011, "day": 11, "month": 5, "categories": {"HJ": {"distance": 11, "rank": 33, "pace": 331000000000, "time": 3550.3}}, "weekday": "wednesday", "livingplace": "Preles"}}, "location": "La Chaux-de-Fonds"}, "BCN Tour Le Landeron": {"latitude": 46.9668714, "longitude": 6.8589727, "race": "BCN Tour Le Landeron", "date": {"mer. 22.04.2009": {"year": 2009, "day": 22, "month": 4, "categories": {"KG4": {"distance": 4, "rank": 13, "pace": 250000000000, "time": 1000.8}}, "weekday": "wednesday", "livingplace": "Preles"}}, "location": "Colombier NE"}, "Corrida Bulloise, Bulle": {"latitude": 46.6154512, "longitude": 7.057726799999999, "race": "Corrida Bulloise, Bulle", "date": {"sam. 21.11.2009": {"year": 2009, "day": 21, "month": 11, "categories": {"CMB": {"distance": 3, "rank": 13, "pace": 232000000000, "time": 731.4}}, "weekday": "saturday", "livingplace": "Preles"}}, "location": "Bulle"}, "BCN Tour Ponts-de-Martel": {"latitude": 47.0624261, "longitude": 6.9175754, "race": "BCN Tour Ponts-de-Martel", "date": {"mer. 28.04.2010": {"year": 2010, "day": 28, "month": 4, "categories": {"KG4": {"distance": 4, "rank": 9, "pace": 208000000000, "time": 874.3}}, "weekday": "wednesday", "livingplace": "Diesse"}}, "location": "Ch\u00e9zard-St-Martin"}, "BCN Tour Les Ponts de Martel": {"latitude": 46.9262933, "longitude": 6.6324944, "race": "BCN Tour Les Ponts de Martel", "date": {"mer. 18.05.2011": {"year": 2011, "day": 18, "month": 5, "categories": {"HJ": {"distance": 13, "rank": 30, "pace": 296000000000, "time": 3791.4}}, "weekday": "wednesday", "livingplace": "Preles"}}, "location": "Couvet"}, "BCN Tour M\u00f4tier": {"latitude": 46.9262933, "longitude": 6.6324944, "race": "BCN Tour M\u00f4tier", "date": {"mer. 19.05.2010": {"year": 2010, "day": 19, "month": 5, "categories": {"KG4": {"distance": 4, "rank": 8, "pace": 244000000000, "time": 928.4}}, "weekday": "wednesday", "livingplace": "Diesse"}}, "location": "Couvet"}, "BCN Tour Le Locle": {"latitude": 46.999113, "longitude": 6.733554799999999, "race": "BCN Tour Le Locle", "date": {"mer. 05.05.2010": {"year": 2010, "day": 5, "month": 5, "categories": {"KG4": {"distance": 4, "rank": 9, "pace": 231000000000, "time": 854.7}}, "weekday": "wednesday", "livingplace": "Diesse"}}, "location": "Les Ponts-de-Martel"}, "BCN Tour Neuch\u00e2tel": {"latitude": 46.9899874, "longitude": 6.9292732, "race": "BCN Tour Neuch\u00e2tel", "date": {"mer. 26.05.2010": {"year": 2010, "day": 26, "month": 5, "categories": {"KG4": {"distance": 3, "rank": 10, "pace": 189000000000, "time": 643.9}}, "weekday": "wednesday", "livingplace": "Diesse"}, "mer. 25.05.2011": {"year": 2011, "day": 25, "month": 5, "categories": {"HJ": {"distance": 11, "rank": 29, "pace": 290000000000, "time": 3317.3}}, "weekday": "wednesday", "livingplace": "Preles"}}, "location": "Neuch\u00e2tel"}, "BCN Tour La Chaux-de-fonds": {"latitude": 47.1034892, "longitude": 6.832783800000001, "race": "BCN Tour La Chaux-de-fonds", "date": {"mer. 12.05.2010": {"year": 2010, "day": 12, "month": 5, "categories": {"KG4": {"distance": 4, "rank": 9, "pace": 228000000000, "time": 891.5}}, "weekday": "wednesday", "livingplace": "Diesse"}}, "location": "La Chaux-de-Fonds"}, "BCN Tour Colombier": {"latitude": 46.9668714, "longitude": 6.8589727, "race": "BCN Tour Colombier", "date": {"mer. 21.04.2010": {"year": 2010, "day": 21, "month": 4, "categories": {"KG4": {"distance": 4, "rank": 10, "pace": 242000000000, "time": 969.4}}, "weekday": "wednesday", "livingplace": "Diesse"}}, "location": "Colombier NE"}}, "birth": 1995}