{"name": "Carroll James", "sex": "M", "races": {"A travers Carouge - Run to Run": {"latitude": 46.1829674, "longitude": 6.1378539, "race": "A travers Carouge - Run to Run", "date": {"sam. 26.09.2009": {"year": 2009, "day": 26, "month": 9, "categories": {"HI/10": {"distance": 10, "rank": 59, "pace": 237000000000, "time": 2373.8}}, "weekday": "saturday", "livingplace": "Essertines sur Rolle"}}, "location": "Carouge GE"}, "Tour du Pays de Vaud #3 - Mezi\u00e8res": {"latitude": 46.7784736, "longitude": 6.641183, "race": "Tour du Pays de Vaud #3 - Mezi\u00e8res", "date": {"mer. 22.08.2012": {"year": 2012, "day": 22, "month": 8, "categories": {"H-Sen1": {"distance": 8, "rank": 14, "pace": 264000000000, "time": 2225.2}}, "weekday": "wednesday", "livingplace": "Essertines sur Rolle"}}, "location": "Yverdon-les-Bains"}, "Tour du Pays de Vaud #2 - Genolier": {"latitude": 46.5955273, "longitude": 6.7702883, "race": "Tour du Pays de Vaud #2 - Genolier", "date": {"mer. 15.08.2012": {"year": 2012, "day": 15, "month": 8, "categories": {"H-Sen1": {"distance": 9, "rank": 19, "pace": 241000000000, "time": 2051.8}}, "weekday": "wednesday", "livingplace": "Essertines sur Rolle"}}, "location": "M\u00e9zi\u00e8res VD"}, "Lausanne Marathon": {"latitude": 46.5196535, "longitude": 6.6322734, "race": "Lausanne Marathon", "date": {"dim. 31.10.2010": {"year": 2010, "day": 31, "month": 10, "categories": {"42-H2": {"distance": 42, "rank": 28, "pace": 262000000000, "time": 11072.6}}, "weekday": "sunday", "livingplace": "Essertines sur Rolle"}, "dim. 27.10.2013": {"year": 2013, "day": 27, "month": 10, "categories": {"42-H2": {"distance": 42, "rank": 26, "pace": 263000000000, "time": 11113.7}}, "weekday": "sunday", "livingplace": "Essertines sur Rolle"}}, "location": "Lausanne"}, "Tour du pays de Vaud #1 - Penthaz": {"latitude": 46.5993131, "longitude": 6.539251200000001, "race": "Tour du pays de Vaud #1 - Penthaz", "date": {"mer. 08.08.2012": {"year": 2012, "day": 8, "month": 8, "categories": {"H-Sen1": {"distance": 9, "rank": 14, "pace": 240000000000, "time": 2052.4}}, "weekday": "wednesday", "livingplace": "Essertines sur Rolle"}}, "location": "Penthaz"}, "Tour du Pays de Vaud #4 - La Sarraz": {"latitude": 46.7088129, "longitude": 6.5707689, "race": "Tour du Pays de Vaud #4 - La Sarraz", "date": {"mer. 29.08.2012": {"year": 2012, "day": 29, "month": 8, "categories": {"H-Sen1": {"distance": 9, "rank": 17, "pace": 238000000000, "time": 2023.0}}, "weekday": "wednesday", "livingplace": "Essertines sur Rolle"}}, "location": "Chavornay"}}, "birth": 1974}