{"name": "Castonguay Mario", "sex": "M", "races": {"Tour du Pays de Vaud etape 5 - La Sarraz": {"latitude": 46.5993131, "longitude": 6.539251200000001, "race": "Tour du Pays de Vaud etape 5 - La Sarraz", "date": {"mer. 09.09.2009": {"year": 2009, "day": 9, "month": 9, "categories": {"HS2": {"distance": 9, "rank": 19, "pace": 241000000000, "time": 2025.9}}, "weekday": "wednesday", "livingplace": "Pully"}}, "location": "Penthaz"}, "Tour du Chablais #1 Roche": {"latitude": 46.2957462, "longitude": 6.9916269, "race": "Tour du Chablais #1 Roche", "date": {"mer. 07.04.2010": {"year": 2010, "day": 7, "month": 4, "categories": {"M-M40": {"distance": 9, "rank": 21, "pace": 232000000000, "time": 2079.3}}, "weekday": "wednesday", "livingplace": "Blonay"}}, "location": "Ollon VD"}, "Morat-Fribourg": {"latitude": 46.92922110000001, "longitude": 7.120184, "race": "Morat-Fribourg", "date": {"sam. 02.10.2010": {"year": 2010, "day": 2, "month": 10, "categories": {"17-M40": {"distance": 17, "rank": 85, "pace": 263000000000, "time": 4530.7}}, "weekday": "saturday", "livingplace": "Blonay"}}, "location": "Murten"}, "Tour du pays de Vaud #1 - Mezi\u00e8res": {"latitude": 46.7784736, "longitude": 6.641183, "race": "Tour du pays de Vaud #1 - Mezi\u00e8res", "date": {"mer. 10.08.2011": {"year": 2011, "day": 10, "month": 8, "categories": {"H-Sen2": {"distance": 9, "rank": 24, "pace": 241000000000, "time": 2055.8}}, "weekday": "wednesday", "livingplace": "Blonay"}}, "location": "Yverdon-les-Bains"}, "Lucerne Marathon, Luzern": {"latitude": 47.05016819999999, "longitude": 8.3093072, "race": "Lucerne Marathon, Luzern", "date": {"dim. 31.10.2010": {"year": 2010, "day": 31, "month": 10, "categories": {"M-M40": {"distance": 42, "rank": 178, "pace": 295000000000, "time": 12465.6}}, "weekday": "sunday", "livingplace": "Blonay"}}, "location": "Luzern"}, "20km de Lausanne": {"latitude": 46.5196535, "longitude": 6.6322734, "race": "20km de Lausanne", "date": {"sam. 30.04.2011": {"year": 2011, "day": 30, "month": 4, "categories": {"20-H45": {"distance": 20, "rank": 42, "pace": 250000000000, "time": 5009.8}}, "weekday": "saturday", "livingplace": "Blonay"}, "sam. 24.04.2010": {"year": 2010, "day": 24, "month": 4, "categories": {"20-H40": {"distance": 20, "rank": 28, "pace": 248000000000, "time": 4965.6}}, "weekday": "saturday", "livingplace": "Blonay"}, "sam. 25.04.2009": {"year": 2009, "day": 25, "month": 4, "categories": {"20-H40": {"distance": 20, "rank": 53, "pace": 252000000000, "time": 5056.5}}, "weekday": "saturday", "livingplace": "Pully"}}, "location": "Lausanne"}, "Tour du Chablais #1 Martigny": {"latitude": 46.2957462, "longitude": 6.9916269, "race": "Tour du Chablais #1 Martigny", "date": {"mer. 23.04.2014": {"year": 2014, "day": 23, "month": 4, "categories": {"M-M40": {"distance": 9, "rank": 28, "pace": 243000000000, "time": 2065.5}}, "weekday": "wednesday", "livingplace": "Blonay"}}, "location": "Ollon VD"}, "Tour du Pays de Vaud #2 - Genolier": {"latitude": 46.5955273, "longitude": 6.7702883, "race": "Tour du Pays de Vaud #2 - Genolier", "date": {"mer. 17.08.2011": {"year": 2011, "day": 17, "month": 8, "categories": {"H-Sen2": {"distance": 9, "rank": 20, "pace": 240000000000, "time": 2044.4}}, "weekday": "wednesday", "livingplace": "Blonay"}}, "location": "M\u00e9zi\u00e8res VD"}, "Lausanne Marathon": {"latitude": 46.5196535, "longitude": 6.6322734, "race": "Lausanne Marathon", "date": {"dim. 27.10.2013": {"year": 2013, "day": 27, "month": 10, "categories": {"21-H3": {"distance": 21, "rank": 164, "pace": 282000000000, "time": 5953.6}}, "weekday": "sunday", "livingplace": "Blonay"}}, "location": "Lausanne"}, "Tour du Pays de Vaud etape 2 - Genolier": {"latitude": 46.5955273, "longitude": 6.7702883, "race": "Tour du Pays de Vaud etape 2 - Genolier", "date": {"mer. 19.08.2009": {"year": 2009, "day": 19, "month": 8, "categories": {"HSen2": {"distance": 8, "rank": 13, "pace": 248000000000, "time": 2015.8}}, "weekday": "wednesday", "livingplace": "Pully"}}, "location": "M\u00e9zi\u00e8res VD"}, "Tour du Pays de Vaud etape 1 - Le Mont sur Lausanne": {"latitude": 46.7784736, "longitude": 6.641183, "race": "Tour du Pays de Vaud etape 1 - Le Mont sur Lausanne", "date": {"mer. 12.08.2009": {"year": 2009, "day": 12, "month": 8, "categories": {"HS2": {"distance": 9, "rank": 19, "pace": 252000000000, "time": 2349.6}}, "weekday": "wednesday", "livingplace": "Pully"}}, "location": "Yverdon-les-Bains"}, "Tour du pays de Vaud #5 - Penthaz": {"latitude": 46.5993131, "longitude": 6.539251200000001, "race": "Tour du pays de Vaud #5 - Penthaz", "date": {"mer. 07.09.2011": {"year": 2011, "day": 7, "month": 9, "categories": {"H-Sen2": {"distance": 8, "rank": 17, "pace": 267000000000, "time": 2236.0}}, "weekday": "wednesday", "livingplace": "Blonay"}}, "location": "Penthaz"}, "Tour du pays de Vaud #6 - St  Prex": {"latitude": 46.4829113, "longitude": 6.458343500000001, "race": "Tour du pays de Vaud #6 - St  Prex", "date": {"mer. 14.09.2011": {"year": 2011, "day": 14, "month": 9, "categories": {"H-Sen2": {"distance": 9, "rank": 24, "pace": 242000000000, "time": 2081.6}}, "weekday": "wednesday", "livingplace": "Blonay"}}, "location": "St-Prex"}, "Kerzerslauf": {"latitude": 46.97488999999999, "longitude": 7.1954365, "race": "Kerzerslauf", "date": {"sam. 20.03.2010": {"year": 2010, "day": 20, "month": 3, "categories": {"15-M40": {"distance": 15, "rank": 67, "pace": 245000000000, "time": 3678.9}}, "weekday": "saturday", "livingplace": "Pully"}, "sam. 19.03.2011": {"year": 2011, "day": 19, "month": 3, "categories": {"15-M45": {"distance": 15, "rank": 65, "pace": 249000000000, "time": 3740.7}}, "weekday": "saturday", "livingplace": "Blonay"}, "sam. 21.03.2009": {"year": 2009, "day": 21, "month": 3, "categories": {"15-M40": {"distance": 15, "rank": 96, "pace": 251000000000, "time": 3765.0}}, "weekday": "saturday", "livingplace": "Pully"}}, "location": "Kerzers"}, "Les Traine-Savates, Cheseaux-sur-Lausanne": {"latitude": 46.585452, "longitude": 6.6047712, "race": "Les Traine-Savates, Cheseaux-sur-Lausanne", "date": {"sam. 14.04.2012": {"year": 2012, "day": 14, "month": 4, "categories": {"10-M40": {"distance": 10, "rank": 19, "pace": 237000000000, "time": 2468.6}}, "weekday": "saturday", "livingplace": "Blonay"}}, "location": "Cheseaux-sur-Lausanne"}}, "birth": 1966}