{"name": "Catastini Roger", "sex": "M", "races": {"BCN Tour Couvet": {"latitude": 47.0624261, "longitude": 6.9175754, "race": "BCN Tour Couvet", "date": {"mer. 02.05.2012": {"year": 2012, "day": 2, "month": 5, "categories": {"HV2": {"distance": 11, "rank": 25, "pace": 360000000000, "time": 4014.7}}, "weekday": "wednesday", "livingplace": "Bevaix"}}, "location": "Ch\u00e9zard-St-Martin"}, "Course de l'Escalade, Gen\u00e8ve": {"latitude": 46.2043907, "longitude": 6.1431577, "race": "Course de l'Escalade, Gen\u00e8ve", "date": {"sam. 06.12.2003": {"year": 2003, "day": 6, "month": 12, "categories": {"Hommes4": {"distance": 7, "rank": 312, "pace": 279000000000, "time": 2023.6}}, "weekday": "saturday", "livingplace": "Boudry"}, "sam. 05.12.2015": {"year": 2015, "day": 5, "month": 12, "categories": {"Esc-Hom5": {"distance": 7, "rank": 256, "pace": 351000000000, "time": 2573.5}}, "weekday": "saturday", "livingplace": "Bevaix"}}, "location": "Gen\u00e8ve"}, "La Trotteuse-Tissot, La Chaux-de-Fonds": {"latitude": 47.1034892, "longitude": 6.832783800000001, "race": "La Trotteuse-Tissot, La Chaux-de-Fonds", "date": {"sam. 12.12.2015": {"year": 2015, "day": 12, "month": 12, "categories": {"GC-H60": {"distance": 8, "rank": 26, "pace": 359000000000, "time": 2877.0}}, "weekday": "saturday", "livingplace": "Bevaix"}}, "location": "La Chaux-de-Fonds"}, "BCN Tour Cornaux": {"latitude": 46.9668714, "longitude": 6.8589727, "race": "BCN Tour Cornaux", "date": {"mer. 25.04.2012": {"year": 2012, "day": 25, "month": 4, "categories": {"HV2": {"distance": 11, "rank": 27, "pace": 397000000000, "time": 4368.2}}, "weekday": "wednesday", "livingplace": "Bevaix"}}, "location": "Colombier NE"}, "BCN Tour #1 Corcelles": {"latitude": 46.9668714, "longitude": 6.8589727, "race": "BCN Tour #1 Corcelles", "date": {"mer. 24.04.2013": {"year": 2013, "day": 24, "month": 4, "categories": {"HV2": {"distance": 10, "rank": 33, "pace": 365000000000, "time": 3586.3}}, "weekday": "wednesday", "livingplace": "Bevaix"}}, "location": "Colombier NE"}, "Kerzerslauf": {"latitude": 46.97488999999999, "longitude": 7.1954365, "race": "Kerzerslauf", "date": {"sam. 15.03.2003": {"year": 2003, "day": 15, "month": 3, "categories": {"M55": {"distance": 15, "rank": 208, "pace": 340000000000, "time": 5104.6}}, "weekday": "saturday", "livingplace": "Boudry"}, "sam. 17.03.2001": {"year": 2001, "day": 17, "month": 3, "categories": {"M50": {"distance": 15, "rank": 216, "pace": 316000000000, "time": 4743.7}}, "weekday": "saturday", "livingplace": "Boudry"}}, "location": "Kerzers"}, "BCN Tour La Chaux-de-Fonds": {"latitude": 46.9262933, "longitude": 6.6324944, "race": "BCN Tour La Chaux-de-Fonds", "date": {"mer. 23.05.2012": {"year": 2012, "day": 23, "month": 5, "categories": {"HV2": {"distance": 11, "rank": 28, "pace": 376000000000, "time": 4065.9}}, "weekday": "wednesday", "livingplace": "Bevaix"}}, "location": "Couvet"}, "BCN Tour Les Ponts-de-Martel": {"latitude": 46.999113, "longitude": 6.733554799999999, "race": "BCN Tour Les Ponts-de-Martel", "date": {"mer. 09.05.2012": {"year": 2012, "day": 9, "month": 5, "categories": {"HV2": {"distance": 10, "rank": 20, "pace": 355000000000, "time": 3657.2}}, "weekday": "wednesday", "livingplace": "Bevaix"}}, "location": "Les Ponts-de-Martel"}, "BCN Tour Neuch\u00e2tel": {"latitude": 46.9899874, "longitude": 6.9292732, "race": "BCN Tour Neuch\u00e2tel", "date": {"mer. 30.05.2012": {"year": 2012, "day": 30, "month": 5, "categories": {"HV2": {"distance": 11, "rank": 21, "pace": 377000000000, "time": 4222.6}}, "weekday": "wednesday", "livingplace": "Bevaix"}}, "location": "Neuch\u00e2tel"}, "BCN Tour #5 Colombier": {"latitude": 46.9262933, "longitude": 6.6324944, "race": "BCN Tour #5 Colombier", "date": {"mer. 22.05.2013": {"year": 2013, "day": 22, "month": 5, "categories": {"HV2": {"distance": 11, "rank": 30, "pace": 333000000000, "time": 3503.8}}, "weekday": "wednesday", "livingplace": "Bevaix"}}, "location": "Couvet"}, "BCN Tour Colombier": {"latitude": 47.1034892, "longitude": 6.832783800000001, "race": "BCN Tour Colombier", "date": {"mer. 16.05.2012": {"year": 2012, "day": 16, "month": 5, "categories": {"HV2": {"distance": 11, "rank": 24, "pace": 341000000000, "time": 3687.4}}, "weekday": "wednesday", "livingplace": "Bevaix"}}, "location": "La Chaux-de-Fonds"}, "BCN Tour #3 Dombresson": {"latitude": 46.999113, "longitude": 6.733554799999999, "race": "BCN Tour #3 Dombresson", "date": {"mer. 08.05.2013": {"year": 2013, "day": 8, "month": 5, "categories": {"HV2": {"distance": 10, "rank": 41, "pace": 372000000000, "time": 3691.2}}, "weekday": "wednesday", "livingplace": "Bevaix"}}, "location": "Les Ponts-de-Martel"}}, "birth": 1947}