{"name": "Cavin Yves", "sex": "M", "races": {"Lausanne Marathon": {"latitude": 46.5196535, "longitude": 6.6322734, "race": "Lausanne Marathon", "date": {"dim. 27.10.2013": {"year": 2013, "day": 27, "month": 10, "categories": {"10-H2": {"distance": 10, "rank": 95, "pace": 255000000000, "time": 2556.5}}, "weekday": "sunday", "livingplace": "Orges"}}, "location": "Lausanne"}, "Morat-Fribourg": {"latitude": 46.92922110000001, "longitude": 7.120184, "race": "Morat-Fribourg", "date": {"dim. 05.10.2003": {"year": 2003, "day": 5, "month": 10, "categories": {"M20": {"distance": 17, "rank": 371, "pace": 255000000000, "time": 4380.5}}, "weekday": "sunday", "livingplace": "Yverdon les Bains"}, "dim. 06.10.2002": {"year": 2002, "day": 6, "month": 10, "categories": {"M20": {"distance": 17, "rank": 462, "pace": 262000000000, "time": 4503.3}}, "weekday": "sunday", "livingplace": "Yverdon les Bains"}}, "location": "Murten"}, "Tour du Pays de Vaud #3 - Chavornay": {"latitude": 46.7784736, "longitude": 6.641183, "race": "Tour du Pays de Vaud #3 - Chavornay", "date": {"mer. 28.08.2013": {"year": 2013, "day": 28, "month": 8, "categories": {"H-Sen1": {"distance": 9, "rank": 111, "pace": 302000000000, "time": 2691.7}}, "weekday": "wednesday", "livingplace": "Orges"}}, "location": "Yverdon-les-Bains"}, "Montreux - Les Rochers de Naye": {"latitude": 46.4312213, "longitude": 6.9106799, "race": "Montreux - Les Rochers de Naye", "date": {"dim. 30.06.2002": {"year": 2002, "day": 30, "month": 6, "categories": {"Se": {"distance": 20, "rank": 95, "pace": 483000000000, "time": 9819.6}}, "weekday": "sunday", "livingplace": "Yverdon les Bains"}}, "location": "Montreux"}, "Tour du Pays de Vaud etape 1 - Le Mont sur Lausanne": {"latitude": 46.7784736, "longitude": 6.641183, "race": "Tour du Pays de Vaud etape 1 - Le Mont sur Lausanne", "date": {"mer. 12.08.2009": {"year": 2009, "day": 12, "month": 8, "categories": {"HS1": {"distance": 9, "rank": 39, "pace": 274000000000, "time": 2550.0}}, "weekday": "wednesday", "livingplace": "Orges"}}, "location": "Yverdon-les-Bains"}, "20km de Lausanne": {"latitude": 46.5196535, "longitude": 6.6322734, "race": "20km de Lausanne", "date": {"sam. 28.04.2007": {"year": 2007, "day": 28, "month": 4, "categories": {"20H30": {"distance": 20, "rank": 549, "pace": 348000000000, "time": 6964.2}}, "weekday": "saturday", "livingplace": "Onnens"}, "sam. 26.04.2003": {"year": 2003, "day": 26, "month": 4, "categories": {"11": {"distance": 20, "rank": 277, "pace": 269000000000, "time": 5385.7}}, "weekday": "saturday", "livingplace": "Yverdon les Bains"}}, "location": "Lausanne"}, "Kerzerslauf": {"latitude": 46.97488999999999, "longitude": 7.1954365, "race": "Kerzerslauf", "date": {"sam. 19.03.2005": {"year": 2005, "day": 19, "month": 3, "categories": {"M20": {"distance": 15, "rank": 329, "pace": 288000000000, "time": 4323.6}}, "weekday": "saturday", "livingplace": "Onnens"}, "sam. 17.03.2007": {"year": 2007, "day": 17, "month": 3, "categories": {"M20": {"distance": 15, "rank": 206, "pace": 254000000000, "time": 3816.0}}, "weekday": "saturday", "livingplace": "Onnens"}}, "location": "Kerzers"}}, "birth": 1975}