{"name": "Celloni Vincent", "sex": "M", "races": {"BCN Tour #3 Dombresson": {"latitude": 46.999113, "longitude": 6.733554799999999, "race": "BCN Tour #3 Dombresson", "date": {"mer. 08.05.2013": {"year": 2013, "day": 8, "month": 5, "categories": {"HS1": {"distance": 10, "rank": 147, "pace": 285000000000, "time": 2822.3}}, "weekday": "wednesday", "livingplace": "Bole"}}, "location": "Les Ponts-de-Martel"}, "Morat-Fribourg": {"latitude": 46.92922110000001, "longitude": 7.120184, "race": "Morat-Fribourg", "date": {"sam. 05.10.2013": {"year": 2013, "day": 5, "month": 10, "categories": {"17-M20": {"distance": 17, "rank": 1272, "pace": 304000000000, "time": 5308.8}}, "weekday": "saturday", "livingplace": "Bole"}, "sam. 03.10.2015": {"year": 2015, "day": 3, "month": 10, "categories": {"17-M20": {"distance": 17, "rank": 606, "pace": 282000000000, "time": 4846.0}}, "weekday": "saturday", "livingplace": "Bole"}, "sam. 06.10.2012": {"year": 2012, "day": 6, "month": 10, "categories": {"17-M20": {"distance": 17, "rank": 1425, "pace": 327000000000, "time": 5708.7}}, "weekday": "saturday", "livingplace": "Bole"}, "sam. 04.10.2014": {"year": 2014, "day": 4, "month": 10, "categories": {"17-M20": {"distance": 17, "rank": 771, "pace": 291000000000, "time": 4997.4}}, "weekday": "saturday", "livingplace": "Bole"}}, "location": "Murten"}, "BCN Tour #6 Neuch\u00e2tel": {"latitude": 46.9899874, "longitude": 6.9292732, "race": "BCN Tour #6 Neuch\u00e2tel", "date": {"mer. 29.05.2013": {"year": 2013, "day": 29, "month": 5, "categories": {"HS1": {"distance": 11, "rank": 96, "pace": 287000000000, "time": 3157.0}}, "weekday": "wednesday", "livingplace": "Bole"}}, "location": "Neuch\u00e2tel"}, "Lausanne Marathon": {"latitude": 46.5196535, "longitude": 6.6322734, "race": "Lausanne Marathon", "date": {"dim. 28.10.2012": {"year": 2012, "day": 28, "month": 10, "categories": {"21-H2": {"distance": 21, "rank": 577, "pace": 317000000000, "time": 6691.4}}, "weekday": "sunday", "livingplace": "Bole"}}, "location": "Lausanne"}, "BCN Tour #5 Colombier": {"latitude": 46.9262933, "longitude": 6.6324944, "race": "BCN Tour #5 Colombier", "date": {"mer. 22.05.2013": {"year": 2013, "day": 22, "month": 5, "categories": {"HS1": {"distance": 11, "rank": 168, "pace": 280000000000, "time": 2940.5}}, "weekday": "wednesday", "livingplace": "Bole"}}, "location": "Couvet"}, "BCN Tour #1 Corcelles": {"latitude": 46.9668714, "longitude": 6.8589727, "race": "BCN Tour #1 Corcelles", "date": {"mer. 24.04.2013": {"year": 2013, "day": 24, "month": 4, "categories": {"HS1": {"distance": 10, "rank": 192, "pace": 309000000000, "time": 3033.2}}, "weekday": "wednesday", "livingplace": "Bole"}}, "location": "Colombier NE"}, "BCN Tour #4 Fleurier": {"latitude": 47.1034892, "longitude": 6.832783800000001, "race": "BCN Tour #4 Fleurier", "date": {"mer. 15.05.2013": {"year": 2013, "day": 15, "month": 5, "categories": {"HS1": {"distance": 9, "rank": 112, "pace": 285000000000, "time": 2471.1}}, "weekday": "wednesday", "livingplace": "Bole"}}, "location": "La Chaux-de-Fonds"}, "BCN Tour #2 La Chaux-de-Fonds": {"latitude": 47.0624261, "longitude": 6.9175754, "race": "BCN Tour #2 La Chaux-de-Fonds", "date": {"mer. 01.05.2013": {"year": 2013, "day": 1, "month": 5, "categories": {"HS1": {"distance": 11, "rank": 179, "pace": 296000000000, "time": 3168.5}}, "weekday": "wednesday", "livingplace": "Bole"}}, "location": "Ch\u00e9zard-St-Martin"}}, "birth": 1982}