{"name": "Chabod Jonathan", "sex": "M", "races": {"BCN Tour #6 Neuch\u00e2tel": {"latitude": 46.9899874, "longitude": 6.9292732, "race": "BCN Tour #6 Neuch\u00e2tel", "date": {"mer. 29.05.2013": {"year": 2013, "day": 29, "month": 5, "categories": {"HE": {"distance": 11, "rank": 135, "pace": 292000000000, "time": 3213.7}}, "weekday": "wednesday", "livingplace": "Gilley"}}, "location": "Neuch\u00e2tel"}, "BCN Tour La Chaux-de-Fonds": {"latitude": 47.1034892, "longitude": 6.832783800000001, "race": "BCN Tour La Chaux-de-Fonds", "date": {"mer. 23.05.2012": {"year": 2012, "day": 23, "month": 5, "categories": {"HE": {"distance": 11, "rank": 71, "pace": 282000000000, "time": 3045.6}}, "weekday": "wednesday", "livingplace": "Gilley"}, "mer. 11.05.2011": {"year": 2011, "day": 11, "month": 5, "categories": {"HE": {"distance": 11, "rank": 89, "pace": 331000000000, "time": 3544.1}}, "weekday": "wednesday", "livingplace": "Gilley"}}, "location": "La Chaux-de-Fonds"}, "BCN Tour Les Ponts-de-Martel": {"latitude": 46.999113, "longitude": 6.733554799999999, "race": "BCN Tour Les Ponts-de-Martel", "date": {"mer. 09.05.2012": {"year": 2012, "day": 9, "month": 5, "categories": {"HE": {"distance": 10, "rank": 86, "pace": 288000000000, "time": 2968.5}}, "weekday": "wednesday", "livingplace": "Gilley"}}, "location": "Les Ponts-de-Martel"}, "BCN Tour La Br\u00e9vine": {"latitude": 46.999113, "longitude": 6.733554799999999, "race": "BCN Tour La Br\u00e9vine", "date": {"mer. 04.05.2011": {"year": 2011, "day": 4, "month": 5, "categories": {"HE": {"distance": 10, "rank": 76, "pace": 289000000000, "time": 2894.1}}, "weekday": "wednesday", "livingplace": "Gilley"}}, "location": "Les Ponts-de-Martel"}, "BCN Tour Neuch\u00e2tel": {"latitude": 46.9899874, "longitude": 6.9292732, "race": "BCN Tour Neuch\u00e2tel", "date": {"mer. 30.05.2012": {"year": 2012, "day": 30, "month": 5, "categories": {"HE": {"distance": 11, "rank": 60, "pace": 282000000000, "time": 3169.2}}, "weekday": "wednesday", "livingplace": "Gilley"}, "mer. 25.05.2011": {"year": 2011, "day": 25, "month": 5, "categories": {"HE": {"distance": 11, "rank": 68, "pace": 283000000000, "time": 3232.3}}, "weekday": "wednesday", "livingplace": "Gilley"}}, "location": "Neuch\u00e2tel"}, "BCN Tour Les Ponts de Martel": {"latitude": 46.9262933, "longitude": 6.6324944, "race": "BCN Tour Les Ponts de Martel", "date": {"mer. 18.05.2011": {"year": 2011, "day": 18, "month": 5, "categories": {"HE": {"distance": 13, "rank": 52, "pace": 281000000000, "time": 3608.7}}, "weekday": "wednesday", "livingplace": "Gilley"}}, "location": "Couvet"}, "BCN Tour #5 Colombier": {"latitude": 46.9262933, "longitude": 6.6324944, "race": "BCN Tour #5 Colombier", "date": {"mer. 22.05.2013": {"year": 2013, "day": 22, "month": 5, "categories": {"HE": {"distance": 11, "rank": 147, "pace": 266000000000, "time": 2796.1}}, "weekday": "wednesday", "livingplace": "Gilley"}}, "location": "Couvet"}, "BCN Tour Couvet": {"latitude": 47.0624261, "longitude": 6.9175754, "race": "BCN Tour Couvet", "date": {"mer. 02.05.2012": {"year": 2012, "day": 2, "month": 5, "categories": {"HE": {"distance": 11, "rank": 78, "pace": 291000000000, "time": 3249.3}}, "weekday": "wednesday", "livingplace": "Gilley"}}, "location": "Ch\u00e9zard-St-Martin"}, "BCN Tour Cornaux": {"latitude": 46.9668714, "longitude": 6.8589727, "race": "BCN Tour Cornaux", "date": {"mer. 25.04.2012": {"year": 2012, "day": 25, "month": 4, "categories": {"HE": {"distance": 11, "rank": 68, "pace": 309000000000, "time": 3400.9}}, "weekday": "wednesday", "livingplace": "Gilley"}}, "location": "Colombier NE"}, "BCN Tour #4 Fleurier": {"latitude": 47.1034892, "longitude": 6.832783800000001, "race": "BCN Tour #4 Fleurier", "date": {"mer. 15.05.2013": {"year": 2013, "day": 15, "month": 5, "categories": {"HE": {"distance": 9, "rank": 141, "pace": 284000000000, "time": 2462.1}}, "weekday": "wednesday", "livingplace": "Gilley"}}, "location": "La Chaux-de-Fonds"}, "BCN Tour Colombier": {"latitude": 47.1034892, "longitude": 6.832783800000001, "race": "BCN Tour Colombier", "date": {"mer. 16.05.2012": {"year": 2012, "day": 16, "month": 5, "categories": {"HE": {"distance": 11, "rank": 75, "pace": 272000000000, "time": 2942.4}}, "weekday": "wednesday", "livingplace": "Gilley"}}, "location": "La Chaux-de-Fonds"}}, "birth": 1988}