{"name": "Challandes Jean-Philippe", "sex": "M", "races": {"Groupe E Tour Fribourg #1 Gurmels": {"latitude": 46.81832, "longitude": 6.977279999999999, "race": "Groupe E Tour Fribourg #1 Gurmels", "date": {"mer. 29.08.2012": {"year": 2012, "day": 29, "month": 8, "categories": {"HS2": {"distance": 8, "rank": 21, "pace": 295000000000, "time": 2482.0}}, "weekday": "wednesday", "livingplace": "Boudevilliers"}}, "location": "Cousset"}, "Morat-Fribourg": {"latitude": 46.92922110000001, "longitude": 7.120184, "race": "Morat-Fribourg", "date": {"sam. 06.10.2012": {"year": 2012, "day": 6, "month": 10, "categories": {"17-M40": {"distance": 17, "rank": 251, "pace": 291000000000, "time": 5081.0}}, "weekday": "saturday", "livingplace": "Boudevilliers"}}, "location": "Murten"}, "Groupe E Tour Fribourg #2, Charmey": {"latitude": 46.6175845, "longitude": 7.1654493, "race": "Groupe E Tour Fribourg #2, Charmey", "date": {"mer. 27.08.2014": {"year": 2014, "day": 27, "month": 8, "categories": {"H-Sen2": {"distance": 10, "rank": 40, "pace": 324000000000, "time": 3132.7}}, "weekday": "wednesday", "livingplace": "Boudevilliers"}}, "location": "Charmey (Gruy\u00e8re)"}, "BCN Tour Le Landeron": {"latitude": 46.9668714, "longitude": 6.8589727, "race": "BCN Tour Le Landeron", "date": {"mer. 22.04.2009": {"year": 2009, "day": 22, "month": 4, "categories": {"HS2": {"distance": 11, "rank": 173, "pace": 326000000000, "time": 3622.4}}, "weekday": "wednesday", "livingplace": "Boudevilliers"}}, "location": "Colombier NE"}, "Groupe E Tour Fribourg #2 Kerzers": {"latitude": 46.6175845, "longitude": 7.1654493, "race": "Groupe E Tour Fribourg #2 Kerzers", "date": {"mer. 28.08.2013": {"year": 2013, "day": 28, "month": 8, "categories": {"HS2": {"distance": 12, "rank": 25, "pace": 274000000000, "time": 3252.8}}, "weekday": "wednesday", "livingplace": "Boudevilliers"}}, "location": "Charmey (Gruy\u00e8re)"}, "BCN Tour Ponts-de-Martel": {"latitude": 47.0624261, "longitude": 6.9175754, "race": "BCN Tour Ponts-de-Martel", "date": {"mer. 28.04.2010": {"year": 2010, "day": 28, "month": 4, "categories": {"HS2": {"distance": 11, "rank": 76, "pace": 285000000000, "time": 3195.5}}, "weekday": "wednesday", "livingplace": "Boudevilliers"}}, "location": "Ch\u00e9zard-St-Martin"}, "BCN Tour Auvernier": {"latitude": 46.9668714, "longitude": 6.8589727, "race": "BCN Tour Auvernier", "date": {"mer. 20.04.2011": {"year": 2011, "day": 20, "month": 4, "categories": {"HS2": {"distance": 11, "rank": 121, "pace": 306000000000, "time": 3309.2}}, "weekday": "wednesday", "livingplace": "Boudevilliers"}}, "location": "Colombier NE"}, "Groupe E Tour Fribourg #4, Siviriez": {"latitude": 46.6585092, "longitude": 6.877722, "race": "Groupe E Tour Fribourg #4, Siviriez", "date": {"mer. 10.09.2014": {"year": 2014, "day": 10, "month": 9, "categories": {"H-Sen2": {"distance": 11, "rank": 28, "pace": 327000000000, "time": 3538.0}}, "weekday": "wednesday", "livingplace": "Boudevilliers"}}, "location": "Siviriez"}, "Groupe E Tour Fribourg #3 Charmey": {"latitude": 46.97488999999999, "longitude": 7.1954365, "race": "Groupe E Tour Fribourg #3 Charmey", "date": {"mer. 04.09.2013": {"year": 2013, "day": 4, "month": 9, "categories": {"HS2": {"distance": 11, "rank": 20, "pace": 290000000000, "time": 3158.1}}, "weekday": "wednesday", "livingplace": "Boudevilliers"}}, "location": "Kerzers"}, "BCN Tour La Chaux-de-Fonds": {"latitude": 47.1034892, "longitude": 6.832783800000001, "race": "BCN Tour La Chaux-de-Fonds", "date": {"mer. 11.05.2011": {"year": 2011, "day": 11, "month": 5, "categories": {"HS2": {"distance": 11, "rank": 74, "pace": 320000000000, "time": 3429.8}}, "weekday": "wednesday", "livingplace": "Boudevilliers"}}, "location": "La Chaux-de-Fonds"}, "La Trotteuse-Tissot, La Chaux-de-Fonds": {"latitude": 47.1034892, "longitude": 6.832783800000001, "race": "La Trotteuse-Tissot, La Chaux-de-Fonds", "date": {"sam. 18.12.2010": {"year": 2010, "day": 18, "month": 12, "categories": {"GC-H40": {"distance": 8, "rank": 35, "pace": 282000000000, "time": 2256.4}}, "weekday": "saturday", "livingplace": "Ch"}, "sam. 17.12.2011": {"year": 2011, "day": 17, "month": 12, "categories": {"GC-H40": {"distance": 8, "rank": 53, "pace": 285000000000, "time": 2280.4}}, "weekday": "saturday", "livingplace": "Ch"}, "sam. 08.12.2012": {"year": 2012, "day": 8, "month": 12, "categories": {"GC-H40": {"distance": 8, "rank": 46, "pace": 285000000000, "time": 2283.8}}, "weekday": "saturday", "livingplace": "Ch"}, "sam. 13.12.2014": {"year": 2014, "day": 13, "month": 12, "categories": {"GC-H40": {"distance": 8, "rank": 94, "pace": 284000000000, "time": 2272.7}}, "weekday": "saturday", "livingplace": "Les CHADEU"}, "sam. 14.12.2013": {"year": 2013, "day": 14, "month": 12, "categories": {"GC-H40": {"distance": 8, "rank": 65, "pace": 279000000000, "time": 2235.4}}, "weekday": "saturday", "livingplace": "Ch"}}, "location": "La Chaux-de-Fonds"}, "BCN Tour Neuch\u00e2tel": {"latitude": 46.9899874, "longitude": 6.9292732, "race": "BCN Tour Neuch\u00e2tel", "date": {"mer. 26.05.2010": {"year": 2010, "day": 26, "month": 5, "categories": {"HS2": {"distance": 10, "rank": 78, "pace": 302000000000, "time": 2930.4}}, "weekday": "wednesday", "livingplace": "Boudevilliers"}, "mer. 25.05.2011": {"year": 2011, "day": 25, "month": 5, "categories": {"HS2": {"distance": 11, "rank": 92, "pace": 294000000000, "time": 3352.8}}, "weekday": "wednesday", "livingplace": "Boudevilliers"}}, "location": "Neuch\u00e2tel"}, "Groupe E Tour Fribourg #1 Siviriez": {"latitude": 46.81832, "longitude": 6.977279999999999, "race": "Groupe E Tour Fribourg #1 Siviriez", "date": {"mer. 21.08.2013": {"year": 2013, "day": 21, "month": 8, "categories": {"HS2": {"distance": 10, "rank": 13, "pace": 271000000000, "time": 2656.9}}, "weekday": "wednesday", "livingplace": "Boudevilliers"}}, "location": "Cousset"}, "Groupe E Tour Fribourg #5, Givisiez": {"latitude": 46.8128615, "longitude": 7.131657799999999, "race": "Groupe E Tour Fribourg #5, Givisiez", "date": {"mer. 17.09.2014": {"year": 2014, "day": 17, "month": 9, "categories": {"H-Sen2": {"distance": 10, "rank": 36, "pace": 296000000000, "time": 3047.1}}, "weekday": "wednesday", "livingplace": "Boudevilliers"}}, "location": "Givisiez"}, "Groupe E Tour Fribourg #3, Kerzers": {"latitude": 46.97488999999999, "longitude": 7.1954365, "race": "Groupe E Tour Fribourg #3, Kerzers", "date": {"mer. 03.09.2014": {"year": 2014, "day": 3, "month": 9, "categories": {"H-Sen2": {"distance": 10, "rank": 36, "pace": 279000000000, "time": 2846.1}}, "weekday": "wednesday", "livingplace": "Boudevilliers"}}, "location": "Kerzers"}, "BCN Tour M\u00f4tier": {"latitude": 46.9262933, "longitude": 6.6324944, "race": "BCN Tour M\u00f4tier", "date": {"mer. 19.05.2010": {"year": 2010, "day": 19, "month": 5, "categories": {"HS2": {"distance": 10, "rank": 54, "pace": 260000000000, "time": 2574.4}}, "weekday": "wednesday", "livingplace": "Boudevilliers"}}, "location": "Couvet"}, "BCN Tour Fontaine Cernier": {"latitude": 47.0624261, "longitude": 6.9175754, "race": "BCN Tour Fontaine Cernier", "date": {"mer. 27.04.2011": {"year": 2011, "day": 27, "month": 4, "categories": {"HS2": {"distance": 10, "rank": 58, "pace": 263000000000, "time": 2717.9}}, "weekday": "wednesday", "livingplace": "Boudevilliers"}}, "location": "Ch\u00e9zard-St-Martin"}, "Groupe E Tour Fribourg #3 Estavayer-le-Lac": {"latitude": 46.97488999999999, "longitude": 7.1954365, "race": "Groupe E Tour Fribourg #3 Estavayer-le-Lac", "date": {"mer. 12.09.2012": {"year": 2012, "day": 12, "month": 9, "categories": {"HS2": {"distance": 10, "rank": 10, "pace": 254000000000, "time": 2511.5}}, "weekday": "wednesday", "livingplace": "Boudevilliers"}}, "location": "Kerzers"}, "BCN Tour La Chaux-de-fonds": {"latitude": 47.1034892, "longitude": 6.832783800000001, "race": "BCN Tour La Chaux-de-fonds", "date": {"mer. 12.05.2010": {"year": 2010, "day": 12, "month": 5, "categories": {"HS2": {"distance": 11, "rank": 74, "pace": 342000000000, "time": 3668.1}}, "weekday": "wednesday", "livingplace": "Boudevilliers"}}, "location": "La Chaux-de-Fonds"}, "BCN Tour Le Locle": {"latitude": 46.999113, "longitude": 6.733554799999999, "race": "BCN Tour Le Locle", "date": {"mer. 05.05.2010": {"year": 2010, "day": 5, "month": 5, "categories": {"HS2": {"distance": 11, "rank": 67, "pace": 277000000000, "time": 3027.4}}, "weekday": "wednesday", "livingplace": "Boudevilliers"}}, "location": "Les Ponts-de-Martel"}, "Groupe E Tour Fribourg #4 Siviriez": {"latitude": 46.6585092, "longitude": 6.877722, "race": "Groupe E Tour Fribourg #4 Siviriez", "date": {"mer. 19.09.2012": {"year": 2012, "day": 19, "month": 9, "categories": {"HS2": {"distance": 9, "rank": 13, "pace": 274000000000, "time": 2582.8}}, "weekday": "wednesday", "livingplace": "Boudevilliers"}}, "location": "Siviriez"}, "Groupe E Tour Fribourg #4 Montagny": {"latitude": 46.6585092, "longitude": 6.877722, "race": "Groupe E Tour Fribourg #4 Montagny", "date": {"mer. 11.09.2013": {"year": 2013, "day": 11, "month": 9, "categories": {"HS2": {"distance": 10, "rank": 17, "pace": 259000000000, "time": 2547.5}}, "weekday": "wednesday", "livingplace": "Boudevilliers"}}, "location": "Siviriez"}, "BCN Tour La Br\u00e9vine": {"latitude": 46.999113, "longitude": 6.733554799999999, "race": "BCN Tour La Br\u00e9vine", "date": {"mer. 04.05.2011": {"year": 2011, "day": 4, "month": 5, "categories": {"HS2": {"distance": 10, "rank": 72, "pace": 280000000000, "time": 2806.9}}, "weekday": "wednesday", "livingplace": "Boudevilliers"}}, "location": "Les Ponts-de-Martel"}, "Groupe E Tour Fribourg #5 Fribourg": {"latitude": 46.8128615, "longitude": 7.131657799999999, "race": "Groupe E Tour Fribourg #5 Fribourg", "date": {"mer. 18.09.2013": {"year": 2013, "day": 18, "month": 9, "categories": {"HS2": {"distance": 10, "rank": 18, "pace": 258000000000, "time": 2587.3}}, "weekday": "wednesday", "livingplace": "Boudevilliers"}, "mer. 26.09.2012": {"year": 2012, "day": 26, "month": 9, "categories": {"HS2": {"distance": 11, "rank": 14, "pace": 267000000000, "time": 2858.6}}, "weekday": "wednesday", "livingplace": "Boudevilliers"}}, "location": "Givisiez"}, "BCN Tour Les Ponts de Martel": {"latitude": 46.9262933, "longitude": 6.6324944, "race": "BCN Tour Les Ponts de Martel", "date": {"mer. 18.05.2011": {"year": 2011, "day": 18, "month": 5, "categories": {"HS2": {"distance": 13, "rank": 62, "pace": 280000000000, "time": 3596.1}}, "weekday": "wednesday", "livingplace": "Boudevilliers"}}, "location": "Couvet"}, "Groupe E Tour Fribourg #2 Plafayon": {"latitude": 46.6175845, "longitude": 7.1654493, "race": "Groupe E Tour Fribourg #2 Plafayon", "date": {"mer. 05.09.2012": {"year": 2012, "day": 5, "month": 9, "categories": {"HS2": {"distance": 9, "rank": 16, "pace": 264000000000, "time": 2473.7}}, "weekday": "wednesday", "livingplace": "Boudevilliers"}}, "location": "Charmey (Gruy\u00e8re)"}, "BCN Tour Colombier": {"latitude": 46.9668714, "longitude": 6.8589727, "race": "BCN Tour Colombier", "date": {"mer. 21.04.2010": {"year": 2010, "day": 21, "month": 4, "categories": {"HS2": {"distance": 10, "rank": 87, "pace": 305000000000, "time": 3059.0}}, "weekday": "wednesday", "livingplace": "Boudevilliers"}}, "location": "Colombier NE"}}, "birth": 1969}