{"name": "Challandes Sophora", "sex": "F", "races": {"Groupe E Tour Fribourg #4, Siviriez": {"latitude": 46.6585092, "longitude": 6.877722, "race": "Groupe E Tour Fribourg #4, Siviriez", "date": {"mer. 10.09.2014": {"year": 2014, "day": 10, "month": 9, "categories": {"EcolC-F": {"distance": 1, "rank": 6, "pace": 278000000000, "time": 347.7}}, "weekday": "wednesday", "livingplace": "Boudevilliers"}}, "location": "Siviriez"}, "Groupe E Tour Fribourg #3, Kerzers": {"latitude": 46.97488999999999, "longitude": 7.1954365, "race": "Groupe E Tour Fribourg #3, Kerzers", "date": {"mer. 03.09.2014": {"year": 2014, "day": 3, "month": 9, "categories": {"EcolC-F": {"distance": 1, "rank": 6, "pace": 300000000000, "time": 360.9}}, "weekday": "wednesday", "livingplace": "Boudevilliers"}}, "location": "Kerzers"}, "Groupe E Tour Fribourg #5, Givisiez": {"latitude": 46.8128615, "longitude": 7.131657799999999, "race": "Groupe E Tour Fribourg #5, Givisiez", "date": {"mer. 17.09.2014": {"year": 2014, "day": 17, "month": 9, "categories": {"EcolC-F": {"distance": 2, "rank": 4, "pace": 249000000000, "time": 398.4}}, "weekday": "wednesday", "livingplace": "Boudevilliers"}}, "location": "Givisiez"}, "Groupe E Tour Fribourg #1, Cousset": {"latitude": 46.81832, "longitude": 6.977279999999999, "race": "Groupe E Tour Fribourg #1, Cousset", "date": {"mer. 20.08.2014": {"year": 2014, "day": 20, "month": 8, "categories": {"EcolC-F": {"distance": 1, "rank": 6, "pace": 269000000000, "time": 323.5}}, "weekday": "wednesday", "livingplace": "Boudevilliers"}}, "location": "Cousset"}, "Groupe E Tour Fribourg #2, Charmey": {"latitude": 46.6175845, "longitude": 7.1654493, "race": "Groupe E Tour Fribourg #2, Charmey", "date": {"mer. 27.08.2014": {"year": 2014, "day": 27, "month": 8, "categories": {"EcolC-F": {"distance": 1, "rank": 6, "pace": 311000000000, "time": 417.7}}, "weekday": "wednesday", "livingplace": "Boudevilliers"}}, "location": "Charmey (Gruy\u00e8re)"}}, "birth": 2006}