{"name": "Challandes Alex", "sex": "M", "races": {"BCN Tour M\u00f4tier": {"latitude": 46.9262933, "longitude": 6.6324944, "race": "BCN Tour M\u00f4tier", "date": {"mer. 19.05.2010": {"year": 2010, "day": 19, "month": 5, "categories": {"KG1": {"distance": 2, "rank": 19, "pace": 267000000000, "time": 480.9}}, "weekday": "wednesday", "livingplace": "Fontaines"}}, "location": "Couvet"}, "BCN Tour La Br\u00e9vine": {"latitude": 46.999113, "longitude": 6.733554799999999, "race": "BCN Tour La Br\u00e9vine", "date": {"mer. 04.05.2011": {"year": 2011, "day": 4, "month": 5, "categories": {"KG1": {"distance": 2, "rank": 14, "pace": 286000000000, "time": 545.0}}, "weekday": "wednesday", "livingplace": "Fontaines"}}, "location": "Les Ponts-de-Martel"}, "BCN Tour Fontaine Cernier": {"latitude": 47.0624261, "longitude": 6.9175754, "race": "BCN Tour Fontaine Cernier", "date": {"mer. 27.04.2011": {"year": 2011, "day": 27, "month": 4, "categories": {"KG1": {"distance": 2, "rank": 17, "pace": 328000000000, "time": 558.4}}, "weekday": "wednesday", "livingplace": "Fontaines"}}, "location": "Ch\u00e9zard-St-Martin"}, "BCN Tour Neuch\u00e2tel": {"latitude": 46.9899874, "longitude": 6.9292732, "race": "BCN Tour Neuch\u00e2tel", "date": {"mer. 26.05.2010": {"year": 2010, "day": 26, "month": 5, "categories": {"KG1": {"distance": 2, "rank": 22, "pace": 237000000000, "time": 355.9}}, "weekday": "wednesday", "livingplace": "Fontaines"}}, "location": "Neuch\u00e2tel"}, "BCN Tour Auvernier": {"latitude": 46.9668714, "longitude": 6.8589727, "race": "BCN Tour Auvernier", "date": {"mer. 20.04.2011": {"year": 2011, "day": 20, "month": 4, "categories": {"KG1": {"distance": 1, "rank": 5, "pace": 237000000000, "time": 321.0}}, "weekday": "wednesday", "livingplace": "Fontaines"}}, "location": "Colombier NE"}, "BCN Tour Le Landeron": {"latitude": 46.9668714, "longitude": 6.8589727, "race": "BCN Tour Le Landeron", "date": {"mer. 22.04.2009": {"year": 2009, "day": 22, "month": 4, "categories": {"KG1": {"distance": 2, "rank": 30, "pace": 282000000000, "time": 565.0}}, "weekday": "wednesday", "livingplace": "Fontaines"}}, "location": "Colombier NE"}, "BCN Tour La Chaux-de-fonds": {"latitude": 47.1034892, "longitude": 6.832783800000001, "race": "BCN Tour La Chaux-de-fonds", "date": {"mer. 12.05.2010": {"year": 2010, "day": 12, "month": 5, "categories": {"KG1": {"distance": 1, "rank": 19, "pace": 795000000000, "time": 771.7}}, "weekday": "wednesday", "livingplace": "Fontaines"}}, "location": "La Chaux-de-Fonds"}, "BCN Tour Colombier": {"latitude": 46.9668714, "longitude": 6.8589727, "race": "BCN Tour Colombier", "date": {"mer. 21.04.2010": {"year": 2010, "day": 21, "month": 4, "categories": {"KG1": {"distance": 2, "rank": 34, "pace": 330000000000, "time": 660.2}}, "weekday": "wednesday", "livingplace": "Fontaines"}}, "location": "Colombier NE"}}, "birth": 2002}