{"name": "Chambovay Marc", "sex": "M", "races": {"Tour du Chablais #2 Rennaz": {"latitude": 46.3835529, "longitude": 6.854975199999999, "race": "Tour du Chablais #2 Rennaz", "date": {"mer. 04.05.2011": {"year": 2011, "day": 4, "month": 5, "categories": {"M-M20": {"distance": 9, "rank": 107, "pace": 262000000000, "time": 2457.3}}, "weekday": "wednesday", "livingplace": "St Maurice"}}, "location": "Bouveret"}, "Tour du Chablais #1 Roche": {"latitude": 46.2957462, "longitude": 6.9916269, "race": "Tour du Chablais #1 Roche", "date": {"mer. 03.04.2013": {"year": 2013, "day": 3, "month": 4, "categories": {"M-M20": {"distance": 9, "rank": 38, "pace": 233000000000, "time": 2068.6}}, "weekday": "wednesday", "livingplace": "St Maurice"}}, "location": "Ollon VD"}, "Morat-Fribourg": {"latitude": 46.92922110000001, "longitude": 7.120184, "race": "Morat-Fribourg", "date": {"sam. 05.10.2013": {"year": 2013, "day": 5, "month": 10, "categories": {"17-M20": {"distance": 17, "rank": 296, "pace": 257000000000, "time": 4486.5}}, "weekday": "saturday", "livingplace": "St Maurice"}, "sam. 03.10.2015": {"year": 2015, "day": 3, "month": 10, "categories": {"17-M20": {"distance": 17, "rank": 1105, "pace": 307000000000, "time": 5273.9}}, "weekday": "saturday", "livingplace": "St Maurice"}, "sam. 06.10.2012": {"year": 2012, "day": 6, "month": 10, "categories": {"17-M20": {"distance": 17, "rank": 322, "pace": 265000000000, "time": 4627.5}}, "weekday": "saturday", "livingplace": "St Maurice"}, "sam. 04.10.2014": {"year": 2014, "day": 4, "month": 10, "categories": {"17-M20": {"distance": 17, "rank": 94, "pace": 237000000000, "time": 4075.0}}, "weekday": "saturday", "livingplace": "St Maurice"}}, "location": "Murten"}, "Tour du Chablais #4 Morgins": {"latitude": NaN, "longitude": NaN, "race": "Tour du Chablais #4 Morgins", "date": {"mer. 18.05.2011": {"year": 2011, "day": 18, "month": 5, "categories": {"M-M20": {"distance": 8, "rank": 63, "pace": 263000000000, "time": 2196.1}}, "weekday": "wednesday", "livingplace": "St Maurice"}}, "location": "Les Mosses"}, "Tour du Chablais #3 Le Bouveret": {"latitude": 46.1782231, "longitude": 7.0223787, "race": "Tour du Chablais #3 Le Bouveret", "date": {"mer. 11.05.2011": {"year": 2011, "day": 11, "month": 5, "categories": {"M-M20": {"distance": 10, "rank": 87, "pace": 257000000000, "time": 2577.7}}, "weekday": "wednesday", "livingplace": "St Maurice"}}, "location": "Evionnaz"}, "Tour du Chablais #6 Monthey": {"latitude": 46.3190253, "longitude": 6.970566, "race": "Tour du Chablais #6 Monthey", "date": {"mer. 08.05.2013": {"year": 2013, "day": 8, "month": 5, "categories": {"M-M20": {"distance": 9, "rank": 27, "pace": 226000000000, "time": 2111.3}}, "weekday": "wednesday", "livingplace": "St Maurice"}}, "location": "Aigle"}, "Tour du Chablais #1 Lavey": {"latitude": 46.2957462, "longitude": 6.9916269, "race": "Tour du Chablais #1 Lavey", "date": {"mer. 27.04.2011": {"year": 2011, "day": 27, "month": 4, "categories": {"M-M20": {"distance": 9, "rank": 127, "pace": 278000000000, "time": 2509.4}}, "weekday": "wednesday", "livingplace": "St Maurice"}}, "location": "Ollon VD"}, "Kerzerslauf": {"latitude": 46.97488999999999, "longitude": 7.1954365, "race": "Kerzerslauf", "date": {"sam. 15.03.2014": {"year": 2014, "day": 15, "month": 3, "categories": {"15-M20": {"distance": 15, "rank": 78, "pace": 232000000000, "time": 3491.2}}, "weekday": "saturday", "livingplace": "St Maurice"}}, "location": "Kerzers"}, "Tour du Chablais #2 Yvorne": {"latitude": 46.3835529, "longitude": 6.854975199999999, "race": "Tour du Chablais #2 Yvorne", "date": {"mer. 10.04.2013": {"year": 2013, "day": 10, "month": 4, "categories": {"M-M20": {"distance": 8, "rank": 40, "pace": 251000000000, "time": 2008.0}}, "weekday": "wednesday", "livingplace": "St Maurice"}}, "location": "Bouveret"}, "Tour du Chablais #5 Morgins": {"latitude": 46.3603257, "longitude": 6.931504599999999, "race": "Tour du Chablais #5 Morgins", "date": {"mer. 01.05.2013": {"year": 2013, "day": 1, "month": 5, "categories": {"M-M20": {"distance": 8, "rank": 34, "pace": 241000000000, "time": 1835.2}}, "weekday": "wednesday", "livingplace": "St Maurice"}}, "location": "Roche VD"}, "Tour du Chablais #1 Martigny": {"latitude": 46.2957462, "longitude": 6.9916269, "race": "Tour du Chablais #1 Martigny", "date": {"mer. 23.04.2014": {"year": 2014, "day": 23, "month": 4, "categories": {"M-M20": {"distance": 9, "rank": 17, "pace": 214000000000, "time": 1827.0}}, "weekday": "wednesday", "livingplace": "St Maurice"}}, "location": "Ollon VD"}, "Tour du Chablais #3 Bouveret": {"latitude": 46.1782231, "longitude": 7.0223787, "race": "Tour du Chablais #3 Bouveret", "date": {"mer. 17.04.2013": {"year": 2013, "day": 17, "month": 4, "categories": {"M-M20": {"distance": 10, "rank": 47, "pace": 240000000000, "time": 2403.0}}, "weekday": "wednesday", "livingplace": "St Maurice"}}, "location": "Evionnaz"}, "Tour du Chablais #1 Montreux": {"latitude": 46.2957462, "longitude": 6.9916269, "race": "Tour du Chablais #1 Montreux", "date": {"mer. 11.04.2012": {"year": 2012, "day": 11, "month": 4, "categories": {"M-M20": {"distance": 8, "rank": 64, "pace": 260000000000, "time": 1979.7}}, "weekday": "wednesday", "livingplace": "St Maurice"}}, "location": "Ollon VD"}, "Tour du Chablais #5 Les Mosses": {"latitude": 46.3603257, "longitude": 6.931504599999999, "race": "Tour du Chablais #5 Les Mosses", "date": {"mer. 25.05.2011": {"year": 2011, "day": 25, "month": 5, "categories": {"M-M20": {"distance": 8, "rank": 54, "pace": 259000000000, "time": 2078.3}}, "weekday": "wednesday", "livingplace": "St Maurice"}}, "location": "Roche VD"}, "Lausanne Marathon": {"latitude": 46.5196535, "longitude": 6.6322734, "race": "Lausanne Marathon", "date": {"dim. 27.10.2013": {"year": 2013, "day": 27, "month": 10, "categories": {"10-H1": {"distance": 10, "rank": 33, "pace": 218000000000, "time": 2183.0}}, "weekday": "sunday", "livingplace": "St Maurice"}, "dim. 28.10.2012": {"year": 2012, "day": 28, "month": 10, "categories": {"21-H1": {"distance": 21, "rank": 83, "pace": 260000000000, "time": 5502.9}}, "weekday": "sunday", "livingplace": "St Maurice"}}, "location": "Lausanne"}, "Tour du Chablais #6 Aigle": {"latitude": 46.3190253, "longitude": 6.970566, "race": "Tour du Chablais #6 Aigle", "date": {"mer. 01.06.2011": {"year": 2011, "day": 1, "month": 6, "categories": {"M-M20": {"distance": 10, "rank": 68, "pace": 241000000000, "time": 2465.3}}, "weekday": "wednesday", "livingplace": "St Maurice"}}, "location": "Aigle"}, "Tour du Chablais #4 St  Maurice": {"latitude": NaN, "longitude": NaN, "race": "Tour du Chablais #4 St  Maurice", "date": {"mer. 24.04.2013": {"year": 2013, "day": 24, "month": 4, "categories": {"M-M20": {"distance": 10, "rank": 47, "pace": 239000000000, "time": 2391.6}}, "weekday": "wednesday", "livingplace": "St Maurice"}}, "location": "Les Mosses"}, "Tour du Chablais #2 Bex": {"latitude": 46.3835529, "longitude": 6.854975199999999, "race": "Tour du Chablais #2 Bex", "date": {"mer. 18.04.2012": {"year": 2012, "day": 18, "month": 4, "categories": {"M-M20": {"distance": 8, "rank": 64, "pace": 251000000000, "time": 2013.8}}, "weekday": "wednesday", "livingplace": "St Maurice"}}, "location": "Bouveret"}, "Tour du Chablais #3 Collombey-Muraz": {"latitude": 46.1782231, "longitude": 7.0223787, "race": "Tour du Chablais #3 Collombey-Muraz", "date": {"mer. 25.04.2012": {"year": 2012, "day": 25, "month": 4, "categories": {"M-M20": {"distance": 9, "rank": 54, "pace": 246000000000, "time": 2213.9}}, "weekday": "wednesday", "livingplace": "St Maurice"}}, "location": "Evionnaz"}, "Tour du Chablais #6 Montreux": {"latitude": 46.3190253, "longitude": 6.970566, "race": "Tour du Chablais #6 Montreux", "date": {"mer. 16.05.2012": {"year": 2012, "day": 16, "month": 5, "categories": {"M-M20": {"distance": 9, "rank": 45, "pace": 236000000000, "time": 2189.0}}, "weekday": "wednesday", "livingplace": "St Maurice"}}, "location": "Aigle"}}, "birth": 1989}