{"name": "Chapuis Fabienne", "sex": "F", "races": {"Tour du Pays de Vaud etape 5 - La Sarraz": {"latitude": 46.5993131, "longitude": 6.539251200000001, "race": "Tour du Pays de Vaud etape 5 - La Sarraz", "date": {"mer. 10.09.2008": {"year": 2008, "day": 10, "month": 9, "categories": {"DamSen1": {"distance": 9, "rank": 11, "pace": 279000000000, "time": 2404.4}}, "weekday": "wednesday", "livingplace": "Morges"}}, "location": "Penthaz"}, "Tour du Pays de Vaud #2 - Genolier": {"latitude": 46.5955273, "longitude": 6.7702883, "race": "Tour du Pays de Vaud #2 - Genolier", "date": {"mer. 15.08.2012": {"year": 2012, "day": 15, "month": 8, "categories": {"D-Sen2": {"distance": 9, "rank": 8, "pace": 281000000000, "time": 2396.5}}, "weekday": "wednesday", "livingplace": "Morges"}}, "location": "M\u00e9zi\u00e8res VD"}, "Tour du Pays de Vaud #4, La Sarraz": {"latitude": 46.7088129, "longitude": 6.5707689, "race": "Tour du Pays de Vaud #4, La Sarraz", "date": {"mer. 03.09.2014": {"year": 2014, "day": 3, "month": 9, "categories": {"D-Sen2": {"distance": 9, "rank": 10, "pace": 284000000000, "time": 2416.7}}, "weekday": "wednesday", "livingplace": "Morges"}}, "location": "Chavornay"}, "Morat-Fribourg": {"latitude": 46.92922110000001, "longitude": 7.120184, "race": "Morat-Fribourg", "date": {"sam. 05.10.2013": {"year": 2013, "day": 5, "month": 10, "categories": {"17-W40": {"distance": 17, "rank": 38, "pace": 296000000000, "time": 5179.0}}, "weekday": "saturday", "livingplace": "Morges"}}, "location": "Murten"}, "Semi-Marathon de la C\u00f4te, Allaman-Nyon": {"latitude": 46.3832683, "longitude": 6.2347852, "race": "Semi-Marathon de la C\u00f4te, Allaman-Nyon", "date": {"dim. 14.09.2014": {"year": 2014, "day": 14, "month": 9, "categories": {"21-F45": {"distance": 21, "rank": 4, "pace": 301000000000, "time": 6355.2}}, "weekday": "sunday", "livingplace": "Morges"}}, "location": "Nyon"}, "20km de Lausanne": {"latitude": 46.5196535, "longitude": 6.6322734, "race": "20km de Lausanne", "date": {"sam. 27.04.2013": {"year": 2013, "day": 27, "month": 4, "categories": {"20-F40": {"distance": 20, "rank": 18, "pace": 289000000000, "time": 5790.8}}, "weekday": "saturday", "livingplace": "Morges"}, "sam. 25.04.2015": {"year": 2015, "day": 25, "month": 4, "categories": {"20-F45": {"distance": 20, "rank": 10, "pace": 284000000000, "time": 5699.2}}, "weekday": "saturday", "livingplace": "Run and B'"}, "sam. 22.04.2006": {"year": 2006, "day": 22, "month": 4, "categories": {"20/F30": {"distance": 20, "rank": 24, "pace": 312000000000, "time": 6257.4}}, "weekday": "saturday", "livingplace": "Morges"}}, "location": "Lausanne"}, "Les Traine-Savates, Cheseaux-sur-Lausanne": {"latitude": 46.585452, "longitude": 6.6047712, "race": "Les Traine-Savates, Cheseaux-sur-Lausanne", "date": {"sam. 04.04.2009": {"year": 2009, "day": 4, "month": 4, "categories": {"Dam V1": {"distance": 10, "rank": 11, "pace": 284000000000, "time": 2955.9}}, "weekday": "saturday", "livingplace": "Morges"}}, "location": "Cheseaux-sur-Lausanne"}, "Kerzerslauf": {"latitude": 46.97488999999999, "longitude": 7.1954365, "race": "Kerzerslauf", "date": {"sam. 15.03.2014": {"year": 2014, "day": 15, "month": 3, "categories": {"15-F45": {"distance": 15, "rank": 144, "pace": 330000000000, "time": 4957.3}}, "weekday": "saturday", "livingplace": "Morges"}}, "location": "Kerzers"}}, "birth": 1969}