{"name": "Chapuis Olivier", "sex": "M", "races": {"Tour du pays de Vaud #1 \u2013 St  Prex": {"latitude": 46.7784736, "longitude": 6.641183, "race": "Tour du pays de Vaud #1 \u2013 St  Prex", "date": {"mer. 11.08.2010": {"year": 2010, "day": 11, "month": 8, "categories": {"HSen3": {"distance": 8, "rank": 43, "pace": 316000000000, "time": 2661.3}}, "weekday": "wednesday", "livingplace": "Renens"}}, "location": "Yverdon-les-Bains"}, "Lausanne Marathon": {"latitude": 46.5196535, "longitude": 6.6322734, "race": "Lausanne Marathon", "date": {"dim. 30.10.2011": {"year": 2011, "day": 30, "month": 10, "categories": {"21-H4": {"distance": 21, "rank": 183, "pace": 308000000000, "time": 6507.6}}, "weekday": "sunday", "livingplace": "Renens"}}, "location": "Lausanne"}, "Course de l'Escalade, Gen\u00e8ve": {"latitude": 46.2043907, "longitude": 6.1431577, "race": "Course de l'Escalade, Gen\u00e8ve", "date": {"sam. 04.12.2010": {"year": 2010, "day": 4, "month": 12, "categories": {"H-H4": {"distance": 7, "rank": 195, "pace": 258000000000, "time": 1875.4}}, "weekday": "saturday", "livingplace": "Renens"}}, "location": "Gen\u00e8ve"}, "Montreux - Les Rochers de Naye": {"latitude": 46.4312213, "longitude": 6.9106799, "race": "Montreux - Les Rochers de Naye", "date": {"dim. 11.07.2010": {"year": 2010, "day": 11, "month": 7, "categories": {"M-V\u00e9t2": {"distance": 19, "rank": 75, "pace": 610000000000, "time": 11473.5}}, "weekday": "sunday", "livingplace": "Renens"}}, "location": "Montreux"}, "20km de Lausanne": {"latitude": 46.5196535, "longitude": 6.6322734, "race": "20km de Lausanne", "date": {"sam. 25.04.2009": {"year": 2009, "day": 25, "month": 4, "categories": {"10-H45": {"distance": 10, "rank": 365, "pace": 462000000000, "time": 4627.2}}, "weekday": "saturday", "livingplace": "Renens"}}, "location": "Lausanne"}, "Les Traine-Savates, Cheseaux-sur-Lausanne": {"latitude": 46.585452, "longitude": 6.6047712, "race": "Les Traine-Savates, Cheseaux-sur-Lausanne", "date": {"sam. 10.04.2010": {"year": 2010, "day": 10, "month": 4, "categories": {"Hom V2": {"distance": 10, "rank": 72, "pace": 305000000000, "time": 3182.2}}, "weekday": "saturday", "livingplace": "Renens"}}, "location": "Cheseaux-sur-Lausanne"}}, "birth": 1960}