{"name": "Charlot Laetitia", "sex": "F", "races": {"Z\u00fcrich Marathon, Teamrun und Cityrun": {"latitude": 47.3768866, "longitude": 8.541694, "race": "Z\u00fcrich Marathon, Teamrun und Cityrun", "date": {"dim. 19.04.2015": {"year": 2015, "day": 19, "month": 4, "categories": {"42-W30": {"distance": 42, "rank": 162, "pace": 463000000000, "time": 19558.1}}, "weekday": "sunday", "livingplace": "Estavayer le Lac"}}, "location": "Z\u00fcrich"}, "Les Traine-Savates, Cheseaux-sur-Lausanne": {"latitude": 46.585452, "longitude": 6.6047712, "race": "Les Traine-Savates, Cheseaux-sur-Lausanne", "date": {"sam. 13.04.2013": {"year": 2013, "day": 13, "month": 4, "categories": {"10-W20": {"distance": 10, "rank": 107, "pace": 363000000000, "time": 3745.9}}, "weekday": "saturday", "livingplace": "Estavayer le Lac"}}, "location": "Cheseaux-sur-Lausanne"}, "20km de Lausanne": {"latitude": 46.5196535, "longitude": 6.6322734, "race": "20km de Lausanne", "date": {"sam. 26.04.2014": {"year": 2014, "day": 26, "month": 4, "categories": {"10-F30": {"distance": 10, "rank": 516, "pace": 369000000000, "time": 3691.5}}, "weekday": "saturday", "livingplace": "Estavayer le Lac"}}, "location": "Lausanne"}, "Kerzerslauf": {"latitude": 46.97488999999999, "longitude": 7.1954365, "race": "Kerzerslauf", "date": {"sam. 21.03.2015": {"year": 2015, "day": 21, "month": 3, "categories": {"15-F20": {"distance": 15, "rank": 323, "pace": 357000000000, "time": 5363.1}}, "weekday": "saturday", "livingplace": "Estavayer le Lac"}, "sam. 19.03.2011": {"year": 2011, "day": 19, "month": 3, "categories": {"15-F20": {"distance": 15, "rank": 252, "pace": 392000000000, "time": 5890.0}}, "weekday": "saturday", "livingplace": "Estavayer le Lac"}, "sam. 15.03.2014": {"year": 2014, "day": 15, "month": 3, "categories": {"5-F20": {"distance": 5, "rank": 153, "pace": 359000000000, "time": 1797.1}}, "weekday": "saturday", "livingplace": "Estavayer le Lac"}}, "location": "Kerzers"}, "Schweizer Frauenlauf Bern": {"latitude": 46.9479739, "longitude": 7.4474468, "race": "Schweizer Frauenlauf Bern", "date": {"dim. 13.06.2010": {"year": 2010, "day": 13, "month": 6, "categories": {"10-W20": {"distance": 10, "rank": 429, "pace": 354000000000, "time": 3549.6}}, "weekday": "sunday", "livingplace": "Estavayer le Lac"}}, "location": "Bern"}}, "birth": 1982}