{"name": "Charmillot Claude", "sex": "M", "races": {"BCN Tour La Chaux-de-Fonds": {"latitude": 47.1034892, "longitude": 6.832783800000001, "race": "BCN Tour La Chaux-de-Fonds", "date": {"mer. 11.05.2011": {"year": 2011, "day": 11, "month": 5, "categories": {"HS2": {"distance": 11, "rank": 308, "pace": 437000000000, "time": 4679.1}}, "weekday": "wednesday", "livingplace": "Corcelles"}}, "location": "La Chaux-de-Fonds"}, "Grand Prix Craft, Neuch\u00e2tel": {"latitude": 46.9899874, "longitude": 6.9292732, "race": "Grand Prix Craft, Neuch\u00e2tel", "date": {"dim. 16.12.2007": {"year": 2007, "day": 16, "month": 12, "categories": {"HS2": {"distance": 7, "rank": 40, "pace": 277000000000, "time": 1943.2}}, "weekday": "sunday", "livingplace": "Team Sport Cycles, Garage"}}, "location": "Neuch\u00e2tel"}, "BCN Tour Le Landeron": {"latitude": 46.9668714, "longitude": 6.8589727, "race": "BCN Tour Le Landeron", "date": {"mer. 22.04.2009": {"year": 2009, "day": 22, "month": 4, "categories": {"HS2": {"distance": 11, "rank": 179, "pace": 328000000000, "time": 3641.9}}, "weekday": "wednesday", "livingplace": "Team Sport Cycles, Garage"}}, "location": "Colombier NE"}, "BCN Tour La Br\u00e9vine": {"latitude": 46.999113, "longitude": 6.733554799999999, "race": "BCN Tour La Br\u00e9vine", "date": {"mer. 04.05.2011": {"year": 2011, "day": 4, "month": 5, "categories": {"HS2": {"distance": 10, "rank": 329, "pace": 414000000000, "time": 4142.2}}, "weekday": "wednesday", "livingplace": "Corcelles"}}, "location": "Les Ponts-de-Martel"}, "BCN Tour Fontaine Cernier": {"latitude": 47.0624261, "longitude": 6.9175754, "race": "BCN Tour Fontaine Cernier", "date": {"mer. 27.04.2011": {"year": 2011, "day": 27, "month": 4, "categories": {"HS2": {"distance": 10, "rank": 311, "pace": 356000000000, "time": 3669.7}}, "weekday": "wednesday", "livingplace": "Corcelles"}}, "location": "Ch\u00e9zard-St-Martin"}, "BCN Tour Ponts-de-Martel": {"latitude": 47.0624261, "longitude": 6.9175754, "race": "BCN Tour Ponts-de-Martel", "date": {"mer. 28.04.2010": {"year": 2010, "day": 28, "month": 4, "categories": {"HS2": {"distance": 11, "rank": 291, "pace": 390000000000, "time": 4376.3}}, "weekday": "wednesday", "livingplace": "Corcelles"}}, "location": "Ch\u00e9zard-St-Martin"}, "BCN Tour Les Ponts de Martel": {"latitude": 46.9262933, "longitude": 6.6324944, "race": "BCN Tour Les Ponts de Martel", "date": {"mer. 18.05.2011": {"year": 2011, "day": 18, "month": 5, "categories": {"HS2": {"distance": 13, "rank": 305, "pace": 423000000000, "time": 5423.9}}, "weekday": "wednesday", "livingplace": "Corcelles"}}, "location": "Couvet"}, "BCN Tour M\u00f4tier": {"latitude": 46.9262933, "longitude": 6.6324944, "race": "BCN Tour M\u00f4tier", "date": {"mer. 19.05.2010": {"year": 2010, "day": 19, "month": 5, "categories": {"HS2": {"distance": 10, "rank": 266, "pace": 362000000000, "time": 3593.1}}, "weekday": "wednesday", "livingplace": "Corcelles"}}, "location": "Couvet"}, "BCN Tour Neuch\u00e2tel": {"latitude": 46.9899874, "longitude": 6.9292732, "race": "BCN Tour Neuch\u00e2tel", "date": {"mer. 26.05.2010": {"year": 2010, "day": 26, "month": 5, "categories": {"HS2": {"distance": 10, "rank": 308, "pace": 484000000000, "time": 4700.7}}, "weekday": "wednesday", "livingplace": "Corcelles"}, "mer. 25.05.2011": {"year": 2011, "day": 25, "month": 5, "categories": {"HS2": {"distance": 11, "rank": 326, "pace": 411000000000, "time": 4687.0}}, "weekday": "wednesday", "livingplace": "Corcelles"}}, "location": "Neuch\u00e2tel"}, "BCN Tour Auvernier": {"latitude": 46.9668714, "longitude": 6.8589727, "race": "BCN Tour Auvernier", "date": {"mer. 20.04.2011": {"year": 2011, "day": 20, "month": 4, "categories": {"HS2": {"distance": 11, "rank": 323, "pace": 415000000000, "time": 4489.1}}, "weekday": "wednesday", "livingplace": "Corcelles"}}, "location": "Colombier NE"}, "BCN Tour Colombier": {"latitude": 46.9668714, "longitude": 6.8589727, "race": "BCN Tour Colombier", "date": {"mer. 23.04.2008": {"year": 2008, "day": 23, "month": 4, "categories": {"HS2": {"distance": 10, "rank": 171, "pace": 337000000000, "time": 3438.8}}, "weekday": "wednesday", "livingplace": "Team Sport Cycles, Garage"}, "mer. 21.04.2010": {"year": 2010, "day": 21, "month": 4, "categories": {"HS2": {"distance": 10, "rank": 293, "pace": 408000000000, "time": 4084.0}}, "weekday": "wednesday", "livingplace": "Corcelles"}}, "location": "Colombier NE"}}, "birth": 1965}