{"name": "Chauvin Didier", "sex": "M", "races": {"Tour du Chablais #1 Roche": {"latitude": 46.2957462, "longitude": 6.9916269, "race": "Tour du Chablais #1 Roche", "date": {"mer. 03.04.2013": {"year": 2013, "day": 3, "month": 4, "categories": {"M-M20": {"distance": 9, "rank": 74, "pace": 257000000000, "time": 2278.8}}, "weekday": "wednesday", "livingplace": "La Tour de Peilz"}}, "location": "Ollon VD"}, "Tour du Chablais #6 Monthey": {"latitude": 46.3190253, "longitude": 6.970566, "race": "Tour du Chablais #6 Monthey", "date": {"mer. 08.05.2013": {"year": 2013, "day": 8, "month": 5, "categories": {"M-M20": {"distance": 9, "rank": 33, "pace": 229000000000, "time": 2140.5}}, "weekday": "wednesday", "livingplace": "La Tour de Peilz"}}, "location": "Aigle"}, "Course de l'Escalade, Gen\u00e8ve": {"latitude": 46.2043907, "longitude": 6.1431577, "race": "Course de l'Escalade, Gen\u00e8ve", "date": {"sam. 06.12.2008": {"year": 2008, "day": 6, "month": 12, "categories": {"Hommes1": {"distance": 7, "rank": 132, "pace": 248000000000, "time": 1803.8}}, "weekday": "saturday", "livingplace": "Lausanne"}, "sam. 06.12.2014": {"year": 2014, "day": 6, "month": 12, "categories": {"Esc-Hom2": {"distance": 7, "rank": 308, "pace": 260000000000, "time": 1911.0}}, "weekday": "saturday", "livingplace": "La Tour de Peilz"}}, "location": "Gen\u00e8ve"}, "Corrida Bulloise, Bulle": {"latitude": 46.6154512, "longitude": 7.057726799999999, "race": "Corrida Bulloise, Bulle", "date": {"sam. 19.11.2011": {"year": 2011, "day": 19, "month": 11, "categories": {"M20": {"distance": 8, "rank": 89, "pace": 257000000000, "time": 2100.4}}, "weekday": "saturday", "livingplace": "La Tour de Peilz"}}, "location": "Bulle"}, "Sierre-Zinal, Sierre": {"latitude": 46.29413110000001, "longitude": 7.533536199999999, "race": "Sierre-Zinal, Sierre", "date": {"dim. 11.08.2013": {"year": 2013, "day": 11, "month": 8, "categories": {"Elites": {"distance": 31, "rank": 181, "pace": 462000000000, "time": 14350.3}}, "weekday": "sunday", "livingplace": "La Tour de Peilz"}}, "location": "Sierre"}, "Morat-Fribourg": {"latitude": 46.92922110000001, "longitude": 7.120184, "race": "Morat-Fribourg", "date": {"sam. 04.10.2008": {"year": 2008, "day": 4, "month": 10, "categories": {"C-M20": {"distance": 17, "rank": 1024, "pace": 303000000000, "time": 5209.9}}, "weekday": "saturday", "livingplace": "Lausanne"}}, "location": "Murten"}, "20km de Lausanne": {"latitude": 46.5196535, "longitude": 6.6322734, "race": "20km de Lausanne", "date": {"sam. 24.04.2010": {"year": 2010, "day": 24, "month": 4, "categories": {"10-H20": {"distance": 10, "rank": 90, "pace": 265000000000, "time": 2657.2}}, "weekday": "saturday", "livingplace": "Lausanne"}, "sam. 25.04.2009": {"year": 2009, "day": 25, "month": 4, "categories": {"10-H20": {"distance": 10, "rank": 137, "pace": 273000000000, "time": 2739.4}}, "weekday": "saturday", "livingplace": "Lausanne"}, "sam. 28.04.2012": {"year": 2012, "day": 28, "month": 4, "categories": {"10-H20": {"distance": 10, "rank": 86, "pace": 263000000000, "time": 2631.1}}, "weekday": "saturday", "livingplace": "La Tour de Peilz"}}, "location": "Lausanne"}, "Z\u00fcrcher Silvesterlauf, Z\u00fcrich": {"latitude": 47.3768866, "longitude": 8.541694, "race": "Z\u00fcrcher Silvesterlauf, Z\u00fcrich", "date": {"dim. 12.12.2010": {"year": 2010, "day": 12, "month": 12, "categories": {"8-MenHK": {"distance": 9, "rank": 316, "pace": 274000000000, "time": 2361.1}}, "weekday": "sunday", "livingplace": "La Tour de Peilz"}}, "location": "Z\u00fcrich"}, "Tour du Chablais #3 Bouveret": {"latitude": 46.1782231, "longitude": 7.0223787, "race": "Tour du Chablais #3 Bouveret", "date": {"mer. 17.04.2013": {"year": 2013, "day": 17, "month": 4, "categories": {"M-M20": {"distance": 10, "rank": 30, "pace": 231000000000, "time": 2316.5}}, "weekday": "wednesday", "livingplace": "La Tour de Peilz"}}, "location": "Evionnaz"}, "Tour du Chablais #2 Yvorne": {"latitude": 46.3835529, "longitude": 6.854975199999999, "race": "Tour du Chablais #2 Yvorne", "date": {"mer. 10.04.2013": {"year": 2013, "day": 10, "month": 4, "categories": {"M-M20": {"distance": 8, "rank": 86, "pace": 280000000000, "time": 2246.5}}, "weekday": "wednesday", "livingplace": "La Tour de Peilz"}}, "location": "Bouveret"}}, "birth": 1984}