{"name": "Chengere Tolossa", "sex": "M", "races": {"A travers Carouge - Run to Run": {"latitude": 46.1829674, "longitude": 6.1378539, "race": "A travers Carouge - Run to Run", "date": {"sam. 25.09.2004": {"year": 2004, "day": 25, "month": 9, "categories": {"Hom I": {"distance": 8, "rank": 1, "pace": 169000000000, "time": 1388.3}}, "weekday": "saturday", "livingplace": "Renens"}}, "location": "Carouge GE"}, "Giro Media Blenio, Dongio": {"latitude": NaN, "longitude": NaN, "race": "Giro Media Blenio, Dongio", "date": {"lun. 09.04.2007": {"year": 2007, "day": 9, "month": 4, "categories": {"11": {"distance": 10, "rank": 7, "pace": 176000000000, "time": 1763.1}}, "weekday": "monday", "livingplace": "Etiopia"}}, "location": "Dongio"}, "Course de l'Escalade, Gen\u00e8ve": {"latitude": 46.2043907, "longitude": 6.1431577, "race": "Course de l'Escalade, Gen\u00e8ve", "date": {"sam. 06.12.2003": {"year": 2003, "day": 6, "month": 12, "categories": {"HElite": {"distance": 7, "rank": 6, "pace": 172000000000, "time": 1248.6}}, "weekday": "saturday", "livingplace": "Ethiopie"}}, "location": "Gen\u00e8ve"}, "Corrida Bulloise, Bulle": {"latitude": 46.6154512, "longitude": 7.057726799999999, "race": "Corrida Bulloise, Bulle", "date": {"sam. 17.11.2007": {"year": 2007, "day": 17, "month": 11, "categories": {"EH": {"distance": 8, "rank": 3, "pace": 180000000000, "time": 1441.0}}, "weekday": "saturday", "livingplace": "Eth"}, "sam. 15.11.2008": {"year": 2008, "day": 15, "month": 11, "categories": {"EH": {"distance": 8, "rank": 3, "pace": 173000000000, "time": 1390.0}}, "weekday": "saturday", "livingplace": "Eth"}}, "location": "Bulle"}, "20km de Lausanne": {"latitude": 46.5196535, "longitude": 6.6322734, "race": "20km de Lausanne", "date": {"sam. 23.04.2005": {"year": 2005, "day": 23, "month": 4, "categories": {"11": {"distance": 20, "rank": 2, "pace": 186000000000, "time": 3724.2}}, "weekday": "saturday", "livingplace": "Team Sport Attitude/Scude"}}, "location": "Lausanne"}, "St  Galler Altstadtlauf": {"latitude": 47.4244818, "longitude": 9.3767173, "race": "St  Galler Altstadtlauf", "date": {"sam. 22.09.2007": {"year": 2007, "day": 22, "month": 9, "categories": {"Hauptk M": {"distance": 9, "rank": 1, "pace": 181000000000, "time": 1631.5}}, "weekday": "saturday", "livingplace": "Eth"}}, "location": "St. Gallen"}}, "birth": 0}