{"name": "Chevalier Colin", "sex": "M", "races": {"Tour du Pays de Vaud #2 - Genolier": {"latitude": 46.5955273, "longitude": 6.7702883, "race": "Tour du Pays de Vaud #2 - Genolier", "date": {"mer. 18.08.2010": {"year": 2010, "day": 18, "month": 8, "categories": {"Hom": {"distance": 8, "rank": 74, "pace": 346000000000, "time": 2803.7}}, "weekday": "wednesday", "livingplace": "Lausanne"}}, "location": "M\u00e9zi\u00e8res VD"}, "Montreux - Les Rochers de Naye": {"latitude": 46.4312213, "longitude": 6.9106799, "race": "Montreux - Les Rochers de Naye", "date": {"dim. 10.07.2011": {"year": 2011, "day": 10, "month": 7, "categories": {"M-HElite": {"distance": 19, "rank": 226, "pace": 623000000000, "time": 11730.3}}, "weekday": "sunday", "livingplace": "Lausanne"}}, "location": "Montreux"}, "Morat-Fribourg": {"latitude": 46.92922110000001, "longitude": 7.120184, "race": "Morat-Fribourg", "date": {"sam. 02.10.2010": {"year": 2010, "day": 2, "month": 10, "categories": {"17-M20": {"distance": 17, "rank": 1949, "pace": 434000000000, "time": 7461.1}}, "weekday": "saturday", "livingplace": "Lausanne"}, "sam. 01.10.2011": {"year": 2011, "day": 1, "month": 10, "categories": {"17-M20": {"distance": 17, "rank": 1780, "pace": 377000000000, "time": 6487.1}}, "weekday": "saturday", "livingplace": "Lausanne"}}, "location": "Murten"}, "Les Traine-Savates, Cheseaux-sur-Lausanne": {"latitude": 46.585452, "longitude": 6.6047712, "race": "Les Traine-Savates, Cheseaux-sur-Lausanne", "date": {"sam. 09.04.2011": {"year": 2011, "day": 9, "month": 4, "categories": {"10-M20": {"distance": 10, "rank": 301, "pace": 364000000000, "time": 3790.8}}, "weekday": "saturday", "livingplace": "Lausanne"}}, "location": "Cheseaux-sur-Lausanne"}, "Lausanne Marathon": {"latitude": 46.5196535, "longitude": 6.6322734, "race": "Lausanne Marathon", "date": {"dim. 31.10.2010": {"year": 2010, "day": 31, "month": 10, "categories": {"21-H1": {"distance": 21, "rank": 413, "pace": 363000000000, "time": 7665.1}}, "weekday": "sunday", "livingplace": "Lausanne"}}, "location": "Lausanne"}, "Tour du Chablais #6 Aigle": {"latitude": 46.3190253, "longitude": 6.970566, "race": "Tour du Chablais #6 Aigle", "date": {"mer. 01.06.2011": {"year": 2011, "day": 1, "month": 6, "categories": {"M-M20": {"distance": 10, "rank": 212, "pace": 310000000000, "time": 3162.5}}, "weekday": "wednesday", "livingplace": "Lausanne"}}, "location": "Aigle"}, "20km de Lausanne": {"latitude": 46.5196535, "longitude": 6.6322734, "race": "20km de Lausanne", "date": {"sam. 24.04.2010": {"year": 2010, "day": 24, "month": 4, "categories": {"10-H20": {"distance": 10, "rank": 499, "pace": 348000000000, "time": 3488.8}}, "weekday": "saturday", "livingplace": "Lausanne"}, "sam. 23.04.2005": {"year": 2005, "day": 23, "month": 4, "categories": {"11": {"distance": 20, "rank": 842, "pace": 357000000000, "time": 7145.6}}, "weekday": "saturday", "livingplace": "Lausanne"}, "sam. 25.04.2015": {"year": 2015, "day": 25, "month": 4, "categories": {"10-H30": {"distance": 10, "rank": 870, "pace": 332000000000, "time": 3326.7}}, "weekday": "saturday", "livingplace": "Pully"}}, "location": "Lausanne"}, "Tour du Pays de Vaud #5 - La Sarraz": {"latitude": 46.5993131, "longitude": 6.539251200000001, "race": "Tour du Pays de Vaud #5 - La Sarraz", "date": {"mer. 08.09.2010": {"year": 2010, "day": 8, "month": 9, "categories": {"Hom": {"distance": 9, "rank": 69, "pace": 354000000000, "time": 3228.7}}, "weekday": "wednesday", "livingplace": "Lausanne"}}, "location": "Penthaz"}, "10km de Payerne": {"latitude": 46.8220266, "longitude": 6.9405663, "race": "10km de Payerne", "date": {"sam. 27.03.2010": {"year": 2010, "day": 27, "month": 3, "categories": {"M Elite": {"distance": 10, "rank": 101, "pace": 343000000000, "time": 3432.4}}, "weekday": "saturday", "livingplace": "Lausanne"}}, "location": "Payerne"}}, "birth": 1985}