{"name": "Chevalley Michel", "sex": "M", "races": {"Tour du Chablais #2 Rennaz": {"latitude": 46.3835529, "longitude": 6.854975199999999, "race": "Tour du Chablais #2 Rennaz", "date": {"mer. 04.05.2011": {"year": 2011, "day": 4, "month": 5, "categories": {"M-M60": {"distance": 9, "rank": 35, "pace": 335000000000, "time": 3134.1}}, "weekday": "wednesday", "livingplace": "Leysin"}}, "location": "Bouveret"}, "Tour du Chablais #6 Aigle": {"latitude": 46.3190253, "longitude": 6.970566, "race": "Tour du Chablais #6 Aigle", "date": {"mer. 01.06.2011": {"year": 2011, "day": 1, "month": 6, "categories": {"M-M60": {"distance": 10, "rank": 28, "pace": 320000000000, "time": 3268.5}}, "weekday": "wednesday", "livingplace": "Leysin"}}, "location": "Aigle"}, "20km de Lausanne": {"latitude": 46.5196535, "longitude": 6.6322734, "race": "20km de Lausanne", "date": {"sam. 30.04.2011": {"year": 2011, "day": 30, "month": 4, "categories": {"20-H60": {"distance": 20, "rank": 57, "pace": 353000000000, "time": 7068.2}}, "weekday": "saturday", "livingplace": "Leysin"}, "sam. 24.04.2010": {"year": 2010, "day": 24, "month": 4, "categories": {"20-H60": {"distance": 20, "rank": 51, "pace": 385000000000, "time": 7709.6}}, "weekday": "saturday", "livingplace": "Leysin"}, "sam. 25.04.2009": {"year": 2009, "day": 25, "month": 4, "categories": {"20-H60": {"distance": 20, "rank": 49, "pace": 360000000000, "time": 7214.9}}, "weekday": "saturday", "livingplace": "Leysin"}}, "location": "Lausanne"}, "Tour du Chablais #1 Lavey": {"latitude": 46.2957462, "longitude": 6.9916269, "race": "Tour du Chablais #1 Lavey", "date": {"mer. 27.04.2011": {"year": 2011, "day": 27, "month": 4, "categories": {"M-M60": {"distance": 9, "rank": 31, "pace": 336000000000, "time": 3029.6}}, "weekday": "wednesday", "livingplace": "Leysin"}}, "location": "Ollon VD"}, "Morat-Fribourg": {"latitude": 46.92922110000001, "longitude": 7.120184, "race": "Morat-Fribourg", "date": {"sam. 04.10.2008": {"year": 2008, "day": 4, "month": 10, "categories": {"C-M60": {"distance": 17, "rank": 181, "pace": 364000000000, "time": 6261.7}}, "weekday": "saturday", "livingplace": "Leysin"}, "sam. 06.10.2007": {"year": 2007, "day": 6, "month": 10, "categories": {"C/M55": {"distance": 17, "rank": 232, "pace": 356000000000, "time": 6129.2}}, "weekday": "saturday", "livingplace": "Leysin"}}, "location": "Murten"}}, "birth": 1948}