{"name": "Chouibani Mohamed", "sex": "M", "races": {"Tour de Presinge": {"latitude": 46.21860299999999, "longitude": 6.2535283, "race": "Tour de Presinge", "date": {"dim. 22.03.2009": {"year": 2009, "day": 22, "month": 3, "categories": {"5k/HC": {"distance": 5, "rank": 4, "pace": 219000000000, "time": 1099.9}}, "weekday": "sunday", "livingplace": "Collonge Bellerive"}, "dim. 18.03.2012": {"year": 2012, "day": 18, "month": 3, "categories": {"5-Hom": {"distance": 5, "rank": 4, "pace": 206000000000, "time": 1032.6}}, "weekday": "sunday", "livingplace": "Carouge"}, "dim. 21.03.2010": {"year": 2010, "day": 21, "month": 3, "categories": {"5k/HC": {"distance": 5, "rank": 10, "pace": 209000000000, "time": 1047.9}}, "weekday": "sunday", "livingplace": "Carouge"}}, "location": "Presinge"}, "Tour du pays de Vaud #1 \u2013 St  Prex": {"latitude": 46.7784736, "longitude": 6.641183, "race": "Tour du pays de Vaud #1 \u2013 St  Prex", "date": {"mer. 11.08.2010": {"year": 2010, "day": 11, "month": 8, "categories": {"HSen1": {"distance": 8, "rank": 6, "pace": 238000000000, "time": 2003.2}}, "weekday": "wednesday", "livingplace": "Carouge"}}, "location": "Yverdon-les-Bains"}, "Course de l'Escalade, Gen\u00e8ve": {"latitude": 46.2043907, "longitude": 6.1431577, "race": "Course de l'Escalade, Gen\u00e8ve", "date": {"sam. 03.12.2011": {"year": 2011, "day": 3, "month": 12, "categories": {"H-Elite": {"distance": 7, "rank": 89, "pace": 212000000000, "time": 1543.4}}, "weekday": "saturday", "livingplace": "Carouge"}, "sam. 05.12.2009": {"year": 2009, "day": 5, "month": 12, "categories": {"Elite H": {"distance": 7, "rank": 123, "pace": 216000000000, "time": 1566.9}}, "weekday": "saturday", "livingplace": "Carouge"}, "sam. 04.12.2010": {"year": 2010, "day": 4, "month": 12, "categories": {"H-Elite": {"distance": 7, "rank": 105, "pace": 203000000000, "time": 1477.1}}, "weekday": "saturday", "livingplace": "Carouge"}}, "location": "Gen\u00e8ve"}, "Tour du Pays de Vaud etape 1 - Le Mont sur Lausanne": {"latitude": 46.7784736, "longitude": 6.641183, "race": "Tour du Pays de Vaud etape 1 - Le Mont sur Lausanne", "date": {"mer. 12.08.2009": {"year": 2009, "day": 12, "month": 8, "categories": {"HS1": {"distance": 9, "rank": 9, "pace": 238000000000, "time": 2217.4}}, "weekday": "wednesday", "livingplace": "Geneve"}}, "location": "Yverdon-les-Bains"}, "Tour du pays de Vaud #1 - Penthaz": {"latitude": 46.5993131, "longitude": 6.539251200000001, "race": "Tour du pays de Vaud #1 - Penthaz", "date": {"mer. 14.08.2013": {"year": 2013, "day": 14, "month": 8, "categories": {"H-Sen1": {"distance": 9, "rank": 4, "pace": 209000000000, "time": 1790.7}}, "weekday": "wednesday", "livingplace": "Carouge"}}, "location": "Penthaz"}, "Tour du Pays de Vaud #2 - Mezi\u00e8res": {"latitude": 46.5955273, "longitude": 6.7702883, "race": "Tour du Pays de Vaud #2 - Mezi\u00e8res", "date": {"mer. 21.08.2013": {"year": 2013, "day": 21, "month": 8, "categories": {"H-Sen1": {"distance": 8, "rank": 8, "pace": 238000000000, "time": 1933.8}}, "weekday": "wednesday", "livingplace": "Carouge"}}, "location": "M\u00e9zi\u00e8res VD"}, "Tour du Pays de Vaud #2 - Genolier": {"latitude": 46.5955273, "longitude": 6.7702883, "race": "Tour du Pays de Vaud #2 - Genolier", "date": {"mer. 18.08.2010": {"year": 2010, "day": 18, "month": 8, "categories": {"HSen1": {"distance": 8, "rank": 8, "pace": 228000000000, "time": 1850.9}}, "weekday": "wednesday", "livingplace": "Carouge"}}, "location": "M\u00e9zi\u00e8res VD"}, "Tour du Pays de Vaud etape 2 - Genolier": {"latitude": 46.5955273, "longitude": 6.7702883, "race": "Tour du Pays de Vaud etape 2 - Genolier", "date": {"mer. 19.08.2009": {"year": 2009, "day": 19, "month": 8, "categories": {"HSen1": {"distance": 8, "rank": 8, "pace": 234000000000, "time": 1899.9}}, "weekday": "wednesday", "livingplace": "Geneve"}}, "location": "M\u00e9zi\u00e8res VD"}, "Tour du Pays de Vaud #3 - Chavornay": {"latitude": 46.7784736, "longitude": 6.641183, "race": "Tour du Pays de Vaud #3 - Chavornay", "date": {"mer. 28.08.2013": {"year": 2013, "day": 28, "month": 8, "categories": {"H-Sen1": {"distance": 9, "rank": 8, "pace": 216000000000, "time": 1927.6}}, "weekday": "wednesday", "livingplace": "Carouge"}}, "location": "Yverdon-les-Bains"}, "Run to Run de Carouge": {"latitude": 46.1829674, "longitude": 6.1378539, "race": "Run to Run de Carouge", "date": {"sam. 27.09.2014": {"year": 2014, "day": 27, "month": 9, "categories": {"5-Hom1": {"distance": 5, "rank": 7, "pace": 211000000000, "time": 1059.9}}, "weekday": "saturday", "livingplace": "Carouge"}}, "location": "Carouge GE"}, "10km Schweizer Meisterschaften Lyss": {"latitude": 47.0746504, "longitude": 7.3077022, "race": "10km Schweizer Meisterschaften Lyss", "date": {"sam. 31.03.2012": {"year": 2012, "day": 31, "month": 3, "categories": {"10-M35": {"distance": 10, "rank": 8, "pace": 209000000000, "time": 2098.6}}, "weekday": "saturday", "livingplace": "Carouge"}}, "location": "Lyss"}, "Tour du Pays de Vaud #4 - La Sarraz": {"latitude": 46.7088129, "longitude": 6.5707689, "race": "Tour du Pays de Vaud #4 - La Sarraz", "date": {"mer. 04.09.2013": {"year": 2013, "day": 4, "month": 9, "categories": {"H-Sen1": {"distance": 9, "rank": 7, "pace": 221000000000, "time": 1878.7}}, "weekday": "wednesday", "livingplace": "Carouge"}}, "location": "Chavornay"}, "Tour du Pays de Vaud #5 - La Sarraz": {"latitude": 46.5993131, "longitude": 6.539251200000001, "race": "Tour du Pays de Vaud #5 - La Sarraz", "date": {"mer. 08.09.2010": {"year": 2010, "day": 8, "month": 9, "categories": {"HSen1": {"distance": 9, "rank": 7, "pace": 228000000000, "time": 2081.6}}, "weekday": "wednesday", "livingplace": "Carouge"}}, "location": "Penthaz"}}, "birth": 1976}