{"name": "Christen Jacqueline", "sex": "F", "races": {"Lucerne Marathon, Luzern": {"latitude": 47.05016819999999, "longitude": 8.3093072, "race": "Lucerne Marathon, Luzern", "date": {"dim. 30.10.2011": {"year": 2011, "day": 30, "month": 10, "categories": {"H-F40": {"distance": 21, "rank": 610, "pace": 411000000000, "time": 8682.1}}, "weekday": "sunday", "livingplace": "Dierikon"}}, "location": "Luzern"}, "Morat-Fribourg": {"latitude": 46.92922110000001, "longitude": 7.120184, "race": "Morat-Fribourg", "date": {"sam. 06.10.2012": {"year": 2012, "day": 6, "month": 10, "categories": {"17-W45": {"distance": 17, "rank": 242, "pace": 425000000000, "time": 7421.8}}, "weekday": "saturday", "livingplace": "Dierikon"}}, "location": "Murten"}, "ASICS Bremgarter Reusslauf": {"latitude": 47.34917739999999, "longitude": 8.3397905, "race": "ASICS Bremgarter Reusslauf", "date": {"sam. 23.02.2013": {"year": 2013, "day": 23, "month": 2, "categories": {"11-F40": {"distance": 11, "rank": 199, "pace": 390000000000, "time": 4292.3}}, "weekday": "saturday", "livingplace": "Dierikon"}, "sam. 25.02.2012": {"year": 2012, "day": 25, "month": 2, "categories": {"F40": {"distance": 11, "rank": 232, "pace": 374000000000, "time": 4123.9}}, "weekday": "saturday", "livingplace": "Dierikon"}}, "location": "Bremgarten AG"}, "Schweizer Frauenlauf Bern": {"latitude": 46.9479739, "longitude": 7.4474468, "race": "Schweizer Frauenlauf Bern", "date": {"dim. 13.06.2010": {"year": 2010, "day": 13, "month": 6, "categories": {"5-W40": {"distance": 5, "rank": 458, "pace": 382000000000, "time": 1914.5}}, "weekday": "sunday", "livingplace": "Dierikon"}}, "location": "Bern"}, "SwissCityMarathon - Lucerne, Luzern": {"latitude": 47.05016819999999, "longitude": 8.3093072, "race": "SwissCityMarathon - Lucerne, Luzern", "date": {"dim. 27.10.2013": {"year": 2013, "day": 27, "month": 10, "categories": {"H-F40": {"distance": 21, "rank": 593, "pace": 440000000000, "time": 9295.1}}, "weekday": "sunday", "livingplace": "Dierikon"}}, "location": "Luzern"}, "10km Schweizer Meisterschaften Lyss": {"latitude": 47.0746504, "longitude": 7.3077022, "race": "10km Schweizer Meisterschaften Lyss", "date": {"sam. 02.04.2011": {"year": 2011, "day": 2, "month": 4, "categories": {"10-W40": {"distance": 10, "rank": 27, "pace": 399000000000, "time": 3991.6}}, "weekday": "saturday", "livingplace": "Dierikon"}}, "location": "Lyss"}, "Hellebardenlauf Sempach": {"latitude": NaN, "longitude": NaN, "race": "Hellebardenlauf Sempach", "date": {"sam. 23.06.2012": {"year": 2012, "day": 23, "month": 6, "categories": {"16-W40": {"distance": 16, "rank": 53, "pace": 408000000000, "time": 6582.5}}, "weekday": "saturday", "livingplace": "Dierikon"}}, "location": "Sempach Stadt"}}, "birth": 1967}