{"name": "Cisarovska Ladislava", "sex": "F", "races": {"Pfingstlauf Wohlen AG": {"latitude": 47.3493653, "longitude": 8.2768762, "race": "Pfingstlauf Wohlen AG", "date": {"sam. 22.05.2010": {"year": 2010, "day": 22, "month": 5, "categories": {"8-F30": {"distance": 10, "rank": 3, "pace": 236000000000, "time": 2364.5}}, "weekday": "saturday", "livingplace": "Zurich"}}, "location": "Wohlen AG"}, "Basler Stadtlauf": {"latitude": 47.5595986, "longitude": 7.5885761, "race": "Basler Stadtlauf", "date": {"sam. 26.11.2005": {"year": 2005, "day": 26, "month": 11, "categories": {"Y": {"distance": 8, "rank": 28, "pace": 222000000000, "time": 1734.5}}, "weekday": "saturday", "livingplace": "Zurich"}, "sam. 30.11.2013": {"year": 2013, "day": 30, "month": 11, "categories": {"F40": {"distance": 6, "rank": 4, "pace": 229000000000, "time": 1263.2}}, "weekday": "saturday", "livingplace": "Zurich"}}, "location": "Basel"}, "Badener Limmat-Lauf, Baden": {"latitude": 48.5699281, "longitude": 8.5303972, "race": "Badener Limmat-Lauf, Baden", "date": {"sam. 29.03.2008": {"year": 2008, "day": 29, "month": 3, "categories": {"F30": {"distance": 13, "rank": 2, "pace": 235000000000, "time": 3114.0}}, "weekday": "saturday", "livingplace": "Zurich"}}, "location": "Baden"}, "Z\u00fcrcher Silvesterlauf, Z\u00fcrich": {"latitude": 47.3768866, "longitude": 8.541694, "race": "Z\u00fcrcher Silvesterlauf, Z\u00fcrich", "date": {"dim. 15.12.2013": {"year": 2013, "day": 15, "month": 12, "categories": {"10-F40": {"distance": 10, "rank": 2, "pace": 228000000000, "time": 2289.3}}, "weekday": "sunday", "livingplace": "Zurich"}}, "location": "Z\u00fcrich"}, "Z\u00fcrich Marathon, Teamrun und Cityrun": {"latitude": 47.3768866, "longitude": 8.541694, "race": "Z\u00fcrich Marathon, Teamrun und Cityrun", "date": {"dim. 06.04.2014": {"year": 2014, "day": 6, "month": 4, "categories": {"42-W40": {"distance": 42, "rank": 2, "pace": 262000000000, "time": 11062.7}}, "weekday": "sunday", "livingplace": "Zurich"}}, "location": "Z\u00fcrich"}, "Basler Marathon-Tage": {"latitude": 47.5595986, "longitude": 7.5885761, "race": "Basler Marathon-Tage", "date": {"sam. 27.10.2007": {"year": 2007, "day": 27, "month": 10, "categories": {"HM/W30": {"distance": 21, "rank": 1, "pace": 241000000000, "time": 5095.4}}, "weekday": "saturday", "livingplace": "Zurich"}}, "location": "Basel"}, "Sihltaler Fr\u00fchlingslauf, Gattikon": {"latitude": 47.2949282, "longitude": 8.5644799, "race": "Sihltaler Fr\u00fchlingslauf, Gattikon", "date": {"ven. 01.05.2009": {"year": 2009, "day": 1, "month": 5, "categories": {"F30": {"distance": 10, "rank": 1, "pace": 237000000000, "time": 2370.5}}, "weekday": "friday", "livingplace": "Club"}}, "location": "Gattikon"}, "Int Greifenseelauf, Uster": {"latitude": 47.3482747, "longitude": 8.717873899999999, "race": "Int Greifenseelauf, Uster", "date": {"sam. 20.09.2003": {"year": 2003, "day": 20, "month": 9, "categories": {"H/W30": {"distance": 21, "rank": 9, "pace": 265000000000, "time": 5602.6}}, "weekday": "saturday", "livingplace": "Zurich"}}, "location": "Uster"}}, "birth": 1972}