{"name": "Claudet Herv\u00e9", "sex": "M", "races": {"Tour du Pays de Vaud printanier #2 Yverdon-les-Bains": {"latitude": 46.6698891, "longitude": 6.7975224, "race": "Tour du Pays de Vaud printanier #2 Yverdon-les-Bains", "date": {"mer. 11.06.2014": {"year": 2014, "day": 11, "month": 6, "categories": {"H-Sen3": {"distance": 9, "rank": 24, "pace": 311000000000, "time": 2831.1}}, "weekday": "wednesday", "livingplace": "La Riviere Drugeon"}}, "location": "Moudon"}, "Tour du pays de Vaud #6 - St  Prex": {"latitude": 46.4829113, "longitude": 6.458343500000001, "race": "Tour du pays de Vaud #6 - St  Prex", "date": {"mer. 14.09.2011": {"year": 2011, "day": 14, "month": 9, "categories": {"H-Sen3": {"distance": 9, "rank": 30, "pace": 267000000000, "time": 2301.8}}, "weekday": "wednesday", "livingplace": "La Riviere Drugeon"}}, "location": "St-Prex"}, "Tour du Pays de Vaud printanier #1 Chavornay": {"latitude": 46.3832683, "longitude": 6.2347852, "race": "Tour du Pays de Vaud printanier #1 Chavornay", "date": {"mer. 30.05.2012": {"year": 2012, "day": 30, "month": 5, "categories": {"H-Sen3": {"distance": 9, "rank": 17, "pace": 283000000000, "time": 2533.3}}, "weekday": "wednesday", "livingplace": "La Riviere Drugeon"}}, "location": "Nyon"}, "Tour du pays de Vaud #1 - Mezi\u00e8res": {"latitude": 46.7784736, "longitude": 6.641183, "race": "Tour du pays de Vaud #1 - Mezi\u00e8res", "date": {"mer. 10.08.2011": {"year": 2011, "day": 10, "month": 8, "categories": {"H-Sen3": {"distance": 9, "rank": 27, "pace": 272000000000, "time": 2316.3}}, "weekday": "wednesday", "livingplace": "La Riviere Drugeon"}}, "location": "Yverdon-les-Bains"}, "Tour du Pays de Vaud #3 - Mezi\u00e8res": {"latitude": 46.7784736, "longitude": 6.641183, "race": "Tour du Pays de Vaud #3 - Mezi\u00e8res", "date": {"mer. 22.08.2012": {"year": 2012, "day": 22, "month": 8, "categories": {"H-Sen3": {"distance": 8, "rank": 31, "pace": 301000000000, "time": 2534.5}}, "weekday": "wednesday", "livingplace": "La Riviere Drugeon"}}, "location": "Yverdon-les-Bains"}, "20km de Lausanne": {"latitude": 46.5196535, "longitude": 6.6322734, "race": "20km de Lausanne", "date": {"sam. 30.04.2011": {"year": 2011, "day": 30, "month": 4, "categories": {"20-H50": {"distance": 20, "rank": 66, "pace": 284000000000, "time": 5699.9}}, "weekday": "saturday", "livingplace": "La Riviere Drugeon"}, "sam. 24.04.2010": {"year": 2010, "day": 24, "month": 4, "categories": {"20-H50": {"distance": 20, "rank": 39, "pace": 285000000000, "time": 5710.4}}, "weekday": "saturday", "livingplace": "La Riviere Drugeon"}, "sam. 27.04.2013": {"year": 2013, "day": 27, "month": 4, "categories": {"20-H50": {"distance": 20, "rank": 83, "pace": 284000000000, "time": 5682.3}}, "weekday": "saturday", "livingplace": "La Riviere Drugeon"}, "sam. 28.04.2012": {"year": 2012, "day": 28, "month": 4, "categories": {"20-H50": {"distance": 20, "rank": 53, "pace": 288000000000, "time": 5766.6}}, "weekday": "saturday", "livingplace": "La Riviere Drugeon"}, "sam. 25.04.2015": {"year": 2015, "day": 25, "month": 4, "categories": {"20-H55": {"distance": 20, "rank": 45, "pace": 292000000000, "time": 5858.2}}, "weekday": "saturday", "livingplace": "La Riviere Drugeon"}}, "location": "Lausanne"}, "Tour du Pays de Vaud #2 - Mezi\u00e8res": {"latitude": 46.5955273, "longitude": 6.7702883, "race": "Tour du Pays de Vaud #2 - Mezi\u00e8res", "date": {"mer. 21.08.2013": {"year": 2013, "day": 21, "month": 8, "categories": {"H-Sen3": {"distance": 8, "rank": 25, "pace": 300000000000, "time": 2434.9}}, "weekday": "wednesday", "livingplace": "La Riviere Drugeon"}}, "location": "M\u00e9zi\u00e8res VD"}, "Tour du Pays de Vaud printanier #3 - Yens": {"latitude": 46.7829756, "longitude": 6.5728678, "race": "Tour du Pays de Vaud printanier #3 - Yens", "date": {"mer. 18.06.2014": {"year": 2014, "day": 18, "month": 6, "categories": {"H-Sen3": {"distance": 9, "rank": 9, "pace": 278000000000, "time": 2533.1}}, "weekday": "wednesday", "livingplace": "La Riviere Drugeon"}}, "location": "Champvent"}, "Tour du Pays de Vaud etape 2 - Genolier": {"latitude": 46.5955273, "longitude": 6.7702883, "race": "Tour du Pays de Vaud etape 2 - Genolier", "date": {"mer. 19.08.2009": {"year": 2009, "day": 19, "month": 8, "categories": {"HSen3": {"distance": 8, "rank": 26, "pace": 289000000000, "time": 2341.9}}, "weekday": "wednesday", "livingplace": "La Riviere Drugeon"}}, "location": "M\u00e9zi\u00e8res VD"}, "Tour du Pays de Vaud printanier #1 Moudon": {"latitude": 46.3832683, "longitude": 6.2347852, "race": "Tour du Pays de Vaud printanier #1 Moudon", "date": {"mer. 04.06.2014": {"year": 2014, "day": 4, "month": 6, "categories": {"H-Sen3": {"distance": 8, "rank": 9, "pace": 281000000000, "time": 2364.7}}, "weekday": "wednesday", "livingplace": "La Riviere Drugeon"}}, "location": "Nyon"}, "Lausanne Marathon": {"latitude": 46.5196535, "longitude": 6.6322734, "race": "Lausanne Marathon", "date": {"dim. 31.10.2010": {"year": 2010, "day": 31, "month": 10, "categories": {"21-H4": {"distance": 21, "rank": 47, "pace": 270000000000, "time": 5705.0}}, "weekday": "sunday", "livingplace": "La Riviere Drugeon"}, "dim. 30.10.2011": {"year": 2011, "day": 30, "month": 10, "categories": {"21-H4": {"distance": 21, "rank": 56, "pace": 274000000000, "time": 5792.3}}, "weekday": "sunday", "livingplace": "La Riviere Drugeon"}, "dim. 26.10.2014": {"year": 2014, "day": 26, "month": 10, "categories": {"21-H50": {"distance": 21, "rank": 73, "pace": 280000000000, "time": 5918.8}}, "weekday": "sunday", "livingplace": "La Riviere Drugeon"}}, "location": "Lausanne"}, "Tour du Pays de Vaud #4 - La Sarraz": {"latitude": 46.7088129, "longitude": 6.5707689, "race": "Tour du Pays de Vaud #4 - La Sarraz", "date": {"mer. 29.08.2012": {"year": 2012, "day": 29, "month": 8, "categories": {"H-Sen3": {"distance": 9, "rank": 29, "pace": 270000000000, "time": 2298.1}}, "weekday": "wednesday", "livingplace": "La Riviere Drugeon"}, "mer. 04.09.2013": {"year": 2013, "day": 4, "month": 9, "categories": {"H-Sen3": {"distance": 9, "rank": 26, "pace": 283000000000, "time": 2412.2}}, "weekday": "wednesday", "livingplace": "La Riviere Drugeon"}}, "location": "Chavornay"}, "Tour du Pays de Vaud printanier #2 Yens": {"latitude": 46.6698891, "longitude": 6.7975224, "race": "Tour du Pays de Vaud printanier #2 Yens", "date": {"mer. 06.06.2012": {"year": 2012, "day": 6, "month": 6, "categories": {"H-Sen3": {"distance": 9, "rank": 15, "pace": 277000000000, "time": 2524.9}}, "weekday": "wednesday", "livingplace": "La Riviere Drugeon"}}, "location": "Moudon"}, "Tour du pays de Vaud #1 \u2013 St  Prex": {"latitude": 46.7784736, "longitude": 6.641183, "race": "Tour du pays de Vaud #1 \u2013 St  Prex", "date": {"mer. 11.08.2010": {"year": 2010, "day": 11, "month": 8, "categories": {"HSen3": {"distance": 8, "rank": 22, "pace": 292000000000, "time": 2456.6}}, "weekday": "wednesday", "livingplace": "La Riviere Drugeon"}}, "location": "Yverdon-les-Bains"}, "Tour du pays de Vaud #1 - Penthaz": {"latitude": 46.5993131, "longitude": 6.539251200000001, "race": "Tour du pays de Vaud #1 - Penthaz", "date": {"mer. 14.08.2013": {"year": 2013, "day": 14, "month": 8, "categories": {"H-Sen3": {"distance": 9, "rank": 20, "pace": 272000000000, "time": 2321.9}}, "weekday": "wednesday", "livingplace": "La Riviere Drugeon"}}, "location": "Penthaz"}, "Tour du Pays de Vaud #4, La Sarraz": {"latitude": 46.7088129, "longitude": 6.5707689, "race": "Tour du Pays de Vaud #4, La Sarraz", "date": {"mer. 03.09.2014": {"year": 2014, "day": 3, "month": 9, "categories": {"H-Sen3": {"distance": 9, "rank": 18, "pace": 271000000000, "time": 2308.9}}, "weekday": "wednesday", "livingplace": "La Riviere Drugeon"}}, "location": "Chavornay"}, "Tour du Pays de Vaud #3, Chavornay": {"latitude": 46.7784736, "longitude": 6.641183, "race": "Tour du Pays de Vaud #3, Chavornay", "date": {"mer. 27.08.2014": {"year": 2014, "day": 27, "month": 8, "categories": {"H-Sen3": {"distance": 9, "rank": 21, "pace": 287000000000, "time": 2472.0}}, "weekday": "wednesday", "livingplace": "La Riviere Drugeon"}}, "location": "Yverdon-les-Bains"}, "Tour du Pays de Vaud #2 - Genolier": {"latitude": 46.5955273, "longitude": 6.7702883, "race": "Tour du Pays de Vaud #2 - Genolier", "date": {"mer. 17.08.2011": {"year": 2011, "day": 17, "month": 8, "categories": {"H-Sen3": {"distance": 9, "rank": 21, "pace": 276000000000, "time": 2353.4}}, "weekday": "wednesday", "livingplace": "La Riviere Drugeon"}, "mer. 18.08.2010": {"year": 2010, "day": 18, "month": 8, "categories": {"HSen3": {"distance": 8, "rank": 12, "pace": 274000000000, "time": 2219.8}}, "weekday": "wednesday", "livingplace": "La Riviere Drugeon"}}, "location": "M\u00e9zi\u00e8res VD"}, "Tour du Pays de Vaud #1, Penthaz": {"latitude": 46.5993131, "longitude": 6.539251200000001, "race": "Tour du Pays de Vaud #1, Penthaz", "date": {"mer. 13.08.2014": {"year": 2014, "day": 13, "month": 8, "categories": {"H-Sen3": {"distance": 9, "rank": 7, "pace": 262000000000, "time": 2236.3}}, "weekday": "wednesday", "livingplace": "La Riviere Drugeon"}}, "location": "Penthaz"}, "Tour du Pays de Vaud #2, Mezi\u00e8res": {"latitude": 46.5955273, "longitude": 6.7702883, "race": "Tour du Pays de Vaud #2, Mezi\u00e8res", "date": {"mer. 20.08.2014": {"year": 2014, "day": 20, "month": 8, "categories": {"H-Sen3": {"distance": 8, "rank": 21, "pace": 296000000000, "time": 2402.6}}, "weekday": "wednesday", "livingplace": "La Riviere Drugeon"}}, "location": "M\u00e9zi\u00e8res VD"}, "Tour du pays de Vaud #5 - Penthaz": {"latitude": 46.5993131, "longitude": 6.539251200000001, "race": "Tour du pays de Vaud #5 - Penthaz", "date": {"mer. 07.09.2011": {"year": 2011, "day": 7, "month": 9, "categories": {"H-Sen3": {"distance": 8, "rank": 31, "pace": 302000000000, "time": 2526.5}}, "weekday": "wednesday", "livingplace": "La Riviere Drugeon"}}, "location": "Penthaz"}, "Tour du Pays de Vaud #3 - Chavornay": {"latitude": 46.7784736, "longitude": 6.641183, "race": "Tour du Pays de Vaud #3 - Chavornay", "date": {"mer. 28.08.2013": {"year": 2013, "day": 28, "month": 8, "categories": {"H-Sen3": {"distance": 9, "rank": 31, "pace": 277000000000, "time": 2470.1}}, "weekday": "wednesday", "livingplace": "La Riviere Drugeon"}}, "location": "Yverdon-les-Bains"}, "Tour du Pays de Vaud #5 - La Sarraz": {"latitude": 46.5993131, "longitude": 6.539251200000001, "race": "Tour du Pays de Vaud #5 - La Sarraz", "date": {"mer. 08.09.2010": {"year": 2010, "day": 8, "month": 9, "categories": {"HSen3": {"distance": 9, "rank": 23, "pace": 284000000000, "time": 2585.9}}, "weekday": "wednesday", "livingplace": "La Riviere Drugeon"}}, "location": "Penthaz"}}, "birth": 1959}