{"name": "Cleto Romain", "sex": "M", "races": {"BCN Tour M\u00f4tier": {"latitude": 46.9262933, "longitude": 6.6324944, "race": "BCN Tour M\u00f4tier", "date": {"mer. 19.05.2010": {"year": 2010, "day": 19, "month": 5, "categories": {"KG2": {"distance": 2, "rank": 10, "pace": 230000000000, "time": 415.1}}, "weekday": "wednesday", "livingplace": "Savagnier"}}, "location": "Couvet"}, "BCN Tour La Br\u00e9vine": {"latitude": 46.999113, "longitude": 6.733554799999999, "race": "BCN Tour La Br\u00e9vine", "date": {"mer. 04.05.2011": {"year": 2011, "day": 4, "month": 5, "categories": {"KG3": {"distance": 4, "rank": 8, "pace": 254000000000, "time": 966.8}}, "weekday": "wednesday", "livingplace": "Savagnier"}}, "location": "Les Ponts-de-Martel"}, "D\u00e9fi Val-de-Travers, Couvet": {"latitude": 46.9262933, "longitude": 6.6324944, "race": "D\u00e9fi Val-de-Travers, Couvet", "date": {"sam. 21.06.2008": {"year": 2008, "day": 21, "month": 6, "categories": {"GC": {"distance": 1, "rank": 8, "pace": 278000000000, "time": 372.8}}, "weekday": "saturday", "livingplace": "Savagnier"}, "sam. 20.06.2009": {"year": 2009, "day": 20, "month": 6, "categories": {"GB": {"distance": 3, "rank": 8, "pace": 263000000000, "time": 672.2}}, "weekday": "saturday", "livingplace": "Savagnier"}}, "location": "Couvet"}, "BCN Tour Neuch\u00e2tel": {"latitude": 46.9899874, "longitude": 6.9292732, "race": "BCN Tour Neuch\u00e2tel", "date": {"mer. 26.05.2010": {"year": 2010, "day": 26, "month": 5, "categories": {"KG2": {"distance": 2, "rank": 7, "pace": 207000000000, "time": 310.9}}, "weekday": "wednesday", "livingplace": "Savagnier"}}, "location": "Neuch\u00e2tel"}, "BCN Tour Le Locle": {"latitude": 46.999113, "longitude": 6.733554799999999, "race": "BCN Tour Le Locle", "date": {"mer. 05.05.2010": {"year": 2010, "day": 5, "month": 5, "categories": {"KG2": {"distance": 2, "rank": 5, "pace": 248000000000, "time": 446.6}}, "weekday": "wednesday", "livingplace": "Savagnier"}}, "location": "Les Ponts-de-Martel"}, "BCN Tour Ponts-de-Martel": {"latitude": 47.0624261, "longitude": 6.9175754, "race": "BCN Tour Ponts-de-Martel", "date": {"mer. 28.04.2010": {"year": 2010, "day": 28, "month": 4, "categories": {"KG2": {"distance": 2, "rank": 4, "pace": 194000000000, "time": 426.9}}, "weekday": "wednesday", "livingplace": "Savagnier"}}, "location": "Ch\u00e9zard-St-Martin"}, "BCN Tour La Chaux-de-fonds": {"latitude": 47.1034892, "longitude": 6.832783800000001, "race": "BCN Tour La Chaux-de-fonds", "date": {"mer. 12.05.2010": {"year": 2010, "day": 12, "month": 5, "categories": {"KG2": {"distance": 1, "rank": 7, "pace": 685000000000, "time": 664.7}}, "weekday": "wednesday", "livingplace": "Savagnier"}}, "location": "La Chaux-de-Fonds"}, "BCN Tour Colombier": {"latitude": 46.9668714, "longitude": 6.8589727, "race": "BCN Tour Colombier", "date": {"mer. 21.04.2010": {"year": 2010, "day": 21, "month": 4, "categories": {"KG2": {"distance": 2, "rank": 4, "pace": 267000000000, "time": 534.3}}, "weekday": "wednesday", "livingplace": "Savagnier"}}, "location": "Colombier NE"}}, "birth": 1999}