{"name": "Cohen Alexis", "sex": "M", "races": {"BCN Tour Couvet": {"latitude": 47.0624261, "longitude": 6.9175754, "race": "BCN Tour Couvet", "date": {"mer. 02.05.2012": {"year": 2012, "day": 2, "month": 5, "categories": {"KG3": {"distance": 4, "rank": 11, "pace": 266000000000, "time": 987.8}}, "weekday": "wednesday", "livingplace": "Savagnier"}}, "location": "Ch\u00e9zard-St-Martin"}, "BCN Tour M\u00f4tier": {"latitude": 46.9262933, "longitude": 6.6324944, "race": "BCN Tour M\u00f4tier", "date": {"mer. 19.05.2010": {"year": 2010, "day": 19, "month": 5, "categories": {"KG2": {"distance": 2, "rank": 7, "pace": 229000000000, "time": 413.4}}, "weekday": "wednesday", "livingplace": "Savagnier"}}, "location": "Couvet"}, "BCN Tour Les Ponts-de-Martel": {"latitude": 46.999113, "longitude": 6.733554799999999, "race": "BCN Tour Les Ponts-de-Martel", "date": {"mer. 09.05.2012": {"year": 2012, "day": 9, "month": 5, "categories": {"KG3": {"distance": 4, "rank": 7, "pace": 248000000000, "time": 945.0}}, "weekday": "wednesday", "livingplace": "Savagnier"}}, "location": "Les Ponts-de-Martel"}, "BCN Tour Fontaine Cernier": {"latitude": 47.0624261, "longitude": 6.9175754, "race": "BCN Tour Fontaine Cernier", "date": {"mer. 27.04.2011": {"year": 2011, "day": 27, "month": 4, "categories": {"HJ": {"distance": 10, "rank": 48, "pace": 296000000000, "time": 3049.5}}, "weekday": "wednesday", "livingplace": "Savagnier"}}, "location": "Ch\u00e9zard-St-Martin"}, "BCN Tour Le Landeron": {"latitude": 46.9668714, "longitude": 6.8589727, "race": "BCN Tour Le Landeron", "date": {"mer. 22.04.2009": {"year": 2009, "day": 22, "month": 4, "categories": {"KG2": {"distance": 2, "rank": 14, "pace": 249000000000, "time": 498.4}}, "weekday": "wednesday", "livingplace": "Club"}}, "location": "Colombier NE"}, "BCN Tour Le Locle": {"latitude": 46.999113, "longitude": 6.733554799999999, "race": "BCN Tour Le Locle", "date": {"mer. 05.05.2010": {"year": 2010, "day": 5, "month": 5, "categories": {"KG2": {"distance": 2, "rank": 14, "pace": 260000000000, "time": 468.6}}, "weekday": "wednesday", "livingplace": "Savagnier"}}, "location": "Les Ponts-de-Martel"}, "BCN Tour Neuch\u00e2tel": {"latitude": 46.9899874, "longitude": 6.9292732, "race": "BCN Tour Neuch\u00e2tel", "date": {"mer. 26.05.2010": {"year": 2010, "day": 26, "month": 5, "categories": {"HJ": {"distance": 10, "rank": 49, "pace": 337000000000, "time": 3273.5}}, "weekday": "wednesday", "livingplace": "Savagnier"}, "mer. 30.05.2012": {"year": 2012, "day": 30, "month": 5, "categories": {"HJ": {"distance": 11, "rank": 38, "pace": 316000000000, "time": 3547.1}}, "weekday": "wednesday", "livingplace": "Savagnier"}, "mer. 25.05.2011": {"year": 2011, "day": 25, "month": 5, "categories": {"HJ": {"distance": 11, "rank": 59, "pace": 323000000000, "time": 3685.0}}, "weekday": "wednesday", "livingplace": "Savagnier"}}, "location": "Neuch\u00e2tel"}, "BCN Tour Auvernier": {"latitude": 46.9668714, "longitude": 6.8589727, "race": "BCN Tour Auvernier", "date": {"mer. 20.04.2011": {"year": 2011, "day": 20, "month": 4, "categories": {"KG3": {"distance": 2, "rank": 17, "pace": 234000000000, "time": 552.1}}, "weekday": "wednesday", "livingplace": "Savagnier"}}, "location": "Colombier NE"}, "BCN Tour #4 Fleurier": {"latitude": 47.1034892, "longitude": 6.832783800000001, "race": "BCN Tour #4 Fleurier", "date": {"mer. 15.05.2013": {"year": 2013, "day": 15, "month": 5, "categories": {"KG4": {"distance": 3, "rank": 11, "pace": 224000000000, "time": 560.9}}, "weekday": "wednesday", "livingplace": "Savagnier"}}, "location": "La Chaux-de-Fonds"}, "BCN Tour Cornaux": {"latitude": 46.9668714, "longitude": 6.8589727, "race": "BCN Tour Cornaux", "date": {"mer. 25.04.2012": {"year": 2012, "day": 25, "month": 4, "categories": {"KG3": {"distance": 3, "rank": 14, "pace": 254000000000, "time": 713.9}}, "weekday": "wednesday", "livingplace": "Savagnier"}}, "location": "Colombier NE"}, "BCN Tour #1 Corcelles": {"latitude": 46.9668714, "longitude": 6.8589727, "race": "BCN Tour #1 Corcelles", "date": {"mer. 24.04.2013": {"year": 2013, "day": 24, "month": 4, "categories": {"KG4": {"distance": 3, "rank": 14, "pace": 276000000000, "time": 775.0}}, "weekday": "wednesday", "livingplace": "Savagnier"}}, "location": "Colombier NE"}, "BCN Tour La Chaux-de-Fonds": {"latitude": 47.1034892, "longitude": 6.832783800000001, "race": "BCN Tour La Chaux-de-Fonds", "date": {"mer. 23.05.2012": {"year": 2012, "day": 23, "month": 5, "categories": {"KG3": {"distance": 4, "rank": 7, "pace": 260000000000, "time": 936.3}}, "weekday": "wednesday", "livingplace": "Savagnier"}, "mer. 11.05.2011": {"year": 2011, "day": 11, "month": 5, "categories": {"KG3": {"distance": 4, "rank": 7, "pace": 192000000000, "time": 750.7}}, "weekday": "wednesday", "livingplace": "Savagnier"}}, "location": "La Chaux-de-Fonds"}, "BCN Tour #6 Neuch\u00e2tel": {"latitude": 46.9899874, "longitude": 6.9292732, "race": "BCN Tour #6 Neuch\u00e2tel", "date": {"mer. 29.05.2013": {"year": 2013, "day": 29, "month": 5, "categories": {"KG4": {"distance": 2, "rank": 21, "pace": 214000000000, "time": 472.6}}, "weekday": "wednesday", "livingplace": "Savagnier"}}, "location": "Neuch\u00e2tel"}, "BCN Tour La Br\u00e9vine": {"latitude": 46.999113, "longitude": 6.733554799999999, "race": "BCN Tour La Br\u00e9vine", "date": {"mer. 04.05.2011": {"year": 2011, "day": 4, "month": 5, "categories": {"HJ": {"distance": 10, "rank": 49, "pace": 314000000000, "time": 3142.9}}, "weekday": "wednesday", "livingplace": "Savagnier"}}, "location": "Les Ponts-de-Martel"}, "BCN Tour Ponts-de-Martel": {"latitude": 47.0624261, "longitude": 6.9175754, "race": "BCN Tour Ponts-de-Martel", "date": {"mer. 28.04.2010": {"year": 2010, "day": 28, "month": 4, "categories": {"KG2": {"distance": 2, "rank": 6, "pace": 203000000000, "time": 446.6}}, "weekday": "wednesday", "livingplace": "Savagnier"}}, "location": "Ch\u00e9zard-St-Martin"}, "BCN Tour Les Ponts de Martel": {"latitude": 46.9262933, "longitude": 6.6324944, "race": "BCN Tour Les Ponts de Martel", "date": {"mer. 18.05.2011": {"year": 2011, "day": 18, "month": 5, "categories": {"KG3": {"distance": 4, "rank": 9, "pace": 239000000000, "time": 935.8}}, "weekday": "wednesday", "livingplace": "Savagnier"}}, "location": "Couvet"}, "BCN Tour #5 Colombier": {"latitude": 46.9262933, "longitude": 6.6324944, "race": "BCN Tour #5 Colombier", "date": {"mer. 22.05.2013": {"year": 2013, "day": 22, "month": 5, "categories": {"KG4": {"distance": 2, "rank": 15, "pace": 233000000000, "time": 536.0}}, "weekday": "wednesday", "livingplace": "Savagnier"}}, "location": "Couvet"}, "BCN Tour #2 La Chaux-de-Fonds": {"latitude": 47.0624261, "longitude": 6.9175754, "race": "BCN Tour #2 La Chaux-de-Fonds", "date": {"mer. 01.05.2013": {"year": 2013, "day": 1, "month": 5, "categories": {"KG4": {"distance": 2, "rank": 16, "pace": 226000000000, "time": 544.2}}, "weekday": "wednesday", "livingplace": "Savagnier"}}, "location": "Ch\u00e9zard-St-Martin"}, "BCN Tour La Chaux-de-fonds": {"latitude": 47.1034892, "longitude": 6.832783800000001, "race": "BCN Tour La Chaux-de-fonds", "date": {"mer. 12.05.2010": {"year": 2010, "day": 12, "month": 5, "categories": {"KG2": {"distance": 1, "rank": 11, "pace": 694000000000, "time": 674.1}}, "weekday": "wednesday", "livingplace": "Savagnier"}}, "location": "La Chaux-de-Fonds"}, "BCN Tour Colombier": {"latitude": 46.9668714, "longitude": 6.8589727, "race": "BCN Tour Colombier", "date": {"mer. 16.05.2012": {"year": 2012, "day": 16, "month": 5, "categories": {"KG3": {"distance": 3, "rank": 9, "pace": 249000000000, "time": 747.4}}, "weekday": "wednesday", "livingplace": "Savagnier"}, "mer. 23.04.2008": {"year": 2008, "day": 23, "month": 4, "categories": {"KG1": {"distance": 2, "rank": 6, "pace": 320000000000, "time": 641.9}}, "weekday": "wednesday", "livingplace": "Savagnier"}, "mer. 21.04.2010": {"year": 2010, "day": 21, "month": 4, "categories": {"KG2": {"distance": 2, "rank": 7, "pace": 270000000000, "time": 541.3}}, "weekday": "wednesday", "livingplace": "Savagnier"}}, "location": "Colombier NE"}, "BCN Tour #3 Dombresson": {"latitude": 46.999113, "longitude": 6.733554799999999, "race": "BCN Tour #3 Dombresson", "date": {"mer. 08.05.2013": {"year": 2013, "day": 8, "month": 5, "categories": {"KG4": {"distance": 3, "rank": 16, "pace": 246000000000, "time": 617.2}}, "weekday": "wednesday", "livingplace": "Savagnier"}}, "location": "Les Ponts-de-Martel"}}, "birth": 1999}