{"name": "Coles Malcolm", "sex": "M", "races": {"Tour du Pays de Vaud etape 5 - La Sarraz": {"latitude": 46.5993131, "longitude": 6.539251200000001, "race": "Tour du Pays de Vaud etape 5 - La Sarraz", "date": {"mer. 09.09.2009": {"year": 2009, "day": 9, "month": 9, "categories": {"HS4": {"distance": 9, "rank": 8, "pace": 286000000000, "time": 2408.6}}, "weekday": "wednesday", "livingplace": "Leeds"}}, "location": "Penthaz"}, "Tour du Pays de Vaud #2 - Genolier": {"latitude": 46.5955273, "longitude": 6.7702883, "race": "Tour du Pays de Vaud #2 - Genolier", "date": {"mer. 15.08.2012": {"year": 2012, "day": 15, "month": 8, "categories": {"H-Sen5": {"distance": 9, "rank": 8, "pace": 415000000000, "time": 3533.1}}, "weekday": "wednesday", "livingplace": "Leeds"}}, "location": "M\u00e9zi\u00e8res VD"}, "Glacier 3000 Run, Gstaad": {"latitude": 46.4717588, "longitude": 7.2865728, "race": "Glacier 3000 Run, Gstaad", "date": {"sam. 09.08.2008": {"year": 2008, "day": 9, "month": 8, "categories": {"M60": {"distance": 26, "rank": 6, "pace": 539000000000, "time": 14018.6}}, "weekday": "saturday", "livingplace": "Leeds"}}, "location": "Gstaad"}, "Bl\u00fcemlisalp-Lauf, Reichenbach": {"latitude": 46.6254387, "longitude": 7.6940529, "race": "Bl\u00fcemlisalp-Lauf, Reichenbach", "date": {"dim. 26.05.2013": {"year": 2013, "day": 26, "month": 5, "categories": {"M60": {"distance": 14, "rank": 15, "pace": 398000000000, "time": 5580.0}}, "weekday": "sunday", "livingplace": "Leeds"}}, "location": "Reichenbach im Kandertal"}, "BCN Tour Ponts-de-Martel": {"latitude": 47.0624261, "longitude": 6.9175754, "race": "BCN Tour Ponts-de-Martel", "date": {"mer. 28.04.2010": {"year": 2010, "day": 28, "month": 4, "categories": {"HV2": {"distance": 11, "rank": 14, "pace": 323000000000, "time": 3618.4}}, "weekday": "wednesday", "livingplace": "Leeds"}}, "location": "Ch\u00e9zard-St-Martin"}, "Tour du Pays de Vaud #3 - Mezi\u00e8res": {"latitude": 46.7784736, "longitude": 6.641183, "race": "Tour du Pays de Vaud #3 - Mezi\u00e8res", "date": {"mer. 22.08.2012": {"year": 2012, "day": 22, "month": 8, "categories": {"H-Sen5": {"distance": 8, "rank": 5, "pace": 409000000000, "time": 3441.1}}, "weekday": "wednesday", "livingplace": "Leeds"}}, "location": "Yverdon-les-Bains"}, "10km Schweizer Meisterschaften Lyss": {"latitude": 47.0746504, "longitude": 7.3077022, "race": "10km Schweizer Meisterschaften Lyss", "date": {"sam. 31.03.2012": {"year": 2012, "day": 31, "month": 3, "categories": {"10-M70": {"distance": 10, "rank": 5, "pace": 283000000000, "time": 2834.8}}, "weekday": "saturday", "livingplace": "Leeds"}}, "location": "Lyss"}, "BCN Tour Auvernier": {"latitude": 46.9668714, "longitude": 6.8589727, "race": "BCN Tour Auvernier", "date": {"mer. 20.04.2011": {"year": 2011, "day": 20, "month": 4, "categories": {"HV2": {"distance": 11, "rank": 16, "pace": 356000000000, "time": 3853.9}}, "weekday": "wednesday", "livingplace": "Leeds"}}, "location": "Colombier NE"}, "BCN Tour Colombier": {"latitude": 46.9668714, "longitude": 6.8589727, "race": "BCN Tour Colombier", "date": {"mer. 21.04.2010": {"year": 2010, "day": 21, "month": 4, "categories": {"HV2": {"distance": 10, "rank": 11, "pace": 327000000000, "time": 3270.7}}, "weekday": "wednesday", "livingplace": "Leeds"}}, "location": "Colombier NE"}, "GP Fricktal, Eiken": {"latitude": NaN, "longitude": NaN, "race": "GP Fricktal, Eiken", "date": {"sam. 07.04.2012": {"year": 2012, "day": 7, "month": 4, "categories": {"M70": {"distance": 16, "rank": 3, "pace": 286000000000, "time": 4611.3}}, "weekday": "saturday", "livingplace": "Schweiz"}}, "location": "Eiken"}}, "birth": 1940}