{"name": "Combe Philip", "sex": "M", "races": {"BCN Tour Couvet": {"latitude": 47.0624261, "longitude": 6.9175754, "race": "BCN Tour Couvet", "date": {"mer. 02.05.2012": {"year": 2012, "day": 2, "month": 5, "categories": {"HS2": {"distance": 11, "rank": 236, "pace": 346000000000, "time": 3859.5}}, "weekday": "wednesday", "livingplace": "Les Ponts de Martel"}}, "location": "Ch\u00e9zard-St-Martin"}, "BCN Tour M\u00f4tier": {"latitude": 46.9262933, "longitude": 6.6324944, "race": "BCN Tour M\u00f4tier", "date": {"mer. 19.05.2010": {"year": 2010, "day": 19, "month": 5, "categories": {"HS2": {"distance": 10, "rank": 147, "pace": 294000000000, "time": 2920.3}}, "weekday": "wednesday", "livingplace": "Les Ponts de Martel"}}, "location": "Couvet"}, "BCN Tour Fontaine Cernier": {"latitude": 47.0624261, "longitude": 6.9175754, "race": "BCN Tour Fontaine Cernier", "date": {"mer. 27.04.2011": {"year": 2011, "day": 27, "month": 4, "categories": {"HS2": {"distance": 10, "rank": 143, "pace": 292000000000, "time": 3016.9}}, "weekday": "wednesday", "livingplace": "Les Ponts de Martel"}}, "location": "Ch\u00e9zard-St-Martin"}, "BCN Tour Cornaux": {"latitude": 46.9668714, "longitude": 6.8589727, "race": "BCN Tour Cornaux", "date": {"mer. 25.04.2012": {"year": 2012, "day": 25, "month": 4, "categories": {"HS2": {"distance": 11, "rank": 194, "pace": 360000000000, "time": 3963.7}}, "weekday": "wednesday", "livingplace": "Les Ponts de Martel"}}, "location": "Colombier NE"}, "20km de Lausanne": {"latitude": 46.5196535, "longitude": 6.6322734, "race": "20km de Lausanne", "date": {"sam. 30.04.2011": {"year": 2011, "day": 30, "month": 4, "categories": {"10-H45": {"distance": 10, "rank": 68, "pace": 280000000000, "time": 2806.7}}, "weekday": "saturday", "livingplace": "Les Ponts de Martel"}}, "location": "Lausanne"}, "BCN Tour Ponts-de-Martel": {"latitude": 47.0624261, "longitude": 6.9175754, "race": "BCN Tour Ponts-de-Martel", "date": {"mer. 28.04.2010": {"year": 2010, "day": 28, "month": 4, "categories": {"HS2": {"distance": 11, "rank": 146, "pace": 312000000000, "time": 3496.9}}, "weekday": "wednesday", "livingplace": "Les Ponts de Martel"}}, "location": "Ch\u00e9zard-St-Martin"}, "BCN Tour Auvernier": {"latitude": 46.9668714, "longitude": 6.8589727, "race": "BCN Tour Auvernier", "date": {"mer. 20.04.2011": {"year": 2011, "day": 20, "month": 4, "categories": {"HS2": {"distance": 11, "rank": 153, "pace": 319000000000, "time": 3449.2}}, "weekday": "wednesday", "livingplace": "Les Ponts de Martel"}}, "location": "Colombier NE"}, "BCN Tour Colombier": {"latitude": 46.9668714, "longitude": 6.8589727, "race": "BCN Tour Colombier", "date": {"mer. 16.05.2012": {"year": 2012, "day": 16, "month": 5, "categories": {"HS2": {"distance": 11, "rank": 225, "pace": 322000000000, "time": 3478.0}}, "weekday": "wednesday", "livingplace": "Les Ponts de Martel"}, "mer. 21.04.2010": {"year": 2010, "day": 21, "month": 4, "categories": {"HS2": {"distance": 10, "rank": 144, "pace": 332000000000, "time": 3327.1}}, "weekday": "wednesday", "livingplace": "Les Ponts de Martel"}}, "location": "Colombier NE"}, "BCN Tour Les Ponts de Martel": {"latitude": 46.9262933, "longitude": 6.6324944, "race": "BCN Tour Les Ponts de Martel", "date": {"mer. 18.05.2011": {"year": 2011, "day": 18, "month": 5, "categories": {"HS2": {"distance": 13, "rank": 150, "pace": 314000000000, "time": 4026.1}}, "weekday": "wednesday", "livingplace": "Les Ponts de Martel"}}, "location": "Couvet"}, "BCN Tour #1 Corcelles": {"latitude": 46.9668714, "longitude": 6.8589727, "race": "BCN Tour #1 Corcelles", "date": {"mer. 24.04.2013": {"year": 2013, "day": 24, "month": 4, "categories": {"HS2": {"distance": 10, "rank": 299, "pace": 358000000000, "time": 3515.7}}, "weekday": "wednesday", "livingplace": "Les Ponts de Martel"}}, "location": "Colombier NE"}, "BCN Tour La Chaux-de-Fonds": {"latitude": 47.1034892, "longitude": 6.832783800000001, "race": "BCN Tour La Chaux-de-Fonds", "date": {"mer. 23.05.2012": {"year": 2012, "day": 23, "month": 5, "categories": {"HS2": {"distance": 11, "rank": 244, "pace": 340000000000, "time": 3679.2}}, "weekday": "wednesday", "livingplace": "Les Ponts de Martel"}, "mer. 11.05.2011": {"year": 2011, "day": 11, "month": 5, "categories": {"HS2": {"distance": 11, "rank": 329, "pace": 484000000000, "time": 5184.8}}, "weekday": "wednesday", "livingplace": "Les Ponts de Martel"}}, "location": "La Chaux-de-Fonds"}, "BCN Tour Les Ponts-de-Martel": {"latitude": 46.999113, "longitude": 6.733554799999999, "race": "BCN Tour Les Ponts-de-Martel", "date": {"mer. 09.05.2012": {"year": 2012, "day": 9, "month": 5, "categories": {"HS2": {"distance": 10, "rank": 198, "pace": 326000000000, "time": 3365.5}}, "weekday": "wednesday", "livingplace": "Les Ponts de Martel"}}, "location": "Les Ponts-de-Martel"}, "BCN Tour Neuch\u00e2tel": {"latitude": 46.9899874, "longitude": 6.9292732, "race": "BCN Tour Neuch\u00e2tel", "date": {"mer. 26.05.2010": {"year": 2010, "day": 26, "month": 5, "categories": {"HS2": {"distance": 10, "rank": 140, "pace": 351000000000, "time": 3409.6}}, "weekday": "wednesday", "livingplace": "Les Ponts de Martel"}, "mer. 30.05.2012": {"year": 2012, "day": 30, "month": 5, "categories": {"HS2": {"distance": 11, "rank": 216, "pace": 349000000000, "time": 3915.3}}, "weekday": "wednesday", "livingplace": "Les Ponts de Martel"}, "mer. 25.05.2011": {"year": 2011, "day": 25, "month": 5, "categories": {"HS2": {"distance": 11, "rank": 156, "pace": 320000000000, "time": 3657.8}}, "weekday": "wednesday", "livingplace": "Les Ponts de Martel"}}, "location": "Neuch\u00e2tel"}, "Lausanne Marathon": {"latitude": 46.5196535, "longitude": 6.6322734, "race": "Lausanne Marathon", "date": {"dim. 31.10.2010": {"year": 2010, "day": 31, "month": 10, "categories": {"21-H3": {"distance": 21, "rank": 295, "pace": 288000000000, "time": 6088.5}}, "weekday": "sunday", "livingplace": "Les Ponts de Martel"}}, "location": "Lausanne"}, "Morat-Fribourg": {"latitude": 46.92922110000001, "longitude": 7.120184, "race": "Morat-Fribourg", "date": {"sam. 02.10.2010": {"year": 2010, "day": 2, "month": 10, "categories": {"17-M45": {"distance": 17, "rank": 312, "pace": 310000000000, "time": 5326.7}}, "weekday": "saturday", "livingplace": "Les Ponts de Martel"}}, "location": "Murten"}, "BCN Tour La Chaux-de-fonds": {"latitude": 47.1034892, "longitude": 6.832783800000001, "race": "BCN Tour La Chaux-de-fonds", "date": {"mer. 12.05.2010": {"year": 2010, "day": 12, "month": 5, "categories": {"HS2": {"distance": 11, "rank": 136, "pace": 374000000000, "time": 4008.4}}, "weekday": "wednesday", "livingplace": "Les Ponts de Martel"}}, "location": "La Chaux-de-Fonds"}, "BCN Tour Le Locle": {"latitude": 46.999113, "longitude": 6.733554799999999, "race": "BCN Tour Le Locle", "date": {"mer. 05.05.2010": {"year": 2010, "day": 5, "month": 5, "categories": {"HS2": {"distance": 11, "rank": 130, "pace": 302000000000, "time": 3296.0}}, "weekday": "wednesday", "livingplace": "Les Ponts de Martel"}}, "location": "Les Ponts-de-Martel"}}, "birth": 1965}