{"name": "Concepito Oreste", "sex": "M", "races": {"Z\u00fcrcher Silvesterlauf, Z\u00fcrich": {"latitude": 47.3768866, "longitude": 8.541694, "race": "Z\u00fcrcher Silvesterlauf, Z\u00fcrich", "date": {"dim. 14.12.2014": {"year": 2014, "day": 14, "month": 12, "categories": {"10-M40": {"distance": 10, "rank": 15, "pace": 218000000000, "time": 2181.4}}, "weekday": "sunday", "livingplace": "Bergdietikon"}}, "location": "Z\u00fcrich"}, "Thuner Stadtlauf, Thun": {"latitude": 46.7579868, "longitude": 7.6279881, "race": "Thuner Stadtlauf, Thun", "date": {"dim. 26.08.2007": {"year": 2007, "day": 26, "month": 8, "categories": {"10/M30": {"distance": 10, "rank": 14, "pace": 220000000000, "time": 2205.1}}, "weekday": "sunday", "livingplace": "Urdorf"}}, "location": "Thun"}, "Dietiker Neujahrslauf, Dietikon": {"latitude": 47.4053885, "longitude": 8.39977, "race": "Dietiker Neujahrslauf, Dietikon", "date": {"sam. 10.01.2015": {"year": 2015, "day": 10, "month": 1, "categories": {"C": {"distance": 12, "rank": 17, "pace": 224000000000, "time": 2714.3}}, "weekday": "saturday", "livingplace": "Bergdietikon"}}, "location": "Dietikon"}, "Schlosslauf Rapperswil-Jona": {"latitude": 47.2266239, "longitude": 8.818437399999999, "race": "Schlosslauf Rapperswil-Jona", "date": {"dim. 19.10.2014": {"year": 2014, "day": 19, "month": 10, "categories": {"10-M3": {"distance": 10, "rank": 4, "pace": 229000000000, "time": 2297.5}}, "weekday": "sunday", "livingplace": "Bergdietikon"}}, "location": "Rapperswil SG"}, "Basel City Marathon": {"latitude": 47.5595986, "longitude": 7.5885761, "race": "Basel City Marathon", "date": {"dim. 03.09.2006": {"year": 2006, "day": 3, "month": 9, "categories": {"H-M30": {"distance": 21, "rank": 59, "pace": 282000000000, "time": 5961.7}}, "weekday": "sunday", "livingplace": "Urdorf"}}, "location": "Basel"}, "Augusta Raurica Lauf, Augst BL": {"latitude": NaN, "longitude": NaN, "race": "Augusta Raurica Lauf, Augst BL", "date": {"dim. 09.11.2014": {"year": 2014, "day": 9, "month": 11, "categories": {"12-M40": {"distance": 12, "rank": 8, "pace": 229000000000, "time": 2755.3}}, "weekday": "sunday", "livingplace": "Bergdietikon"}}, "location": "Augst BL"}, "Winterthur Marathon": {"latitude": 39.8088766, "longitude": -75.6037351, "race": "Winterthur Marathon", "date": {"dim. 20.05.2007": {"year": 2007, "day": 20, "month": 5, "categories": {"HM35": {"distance": 21, "rank": 27, "pace": 255000000000, "time": 5369.1}}, "weekday": "sunday", "livingplace": "Urdorf"}}, "location": "Winterthur"}, "Int Greifenseelauf, Uster": {"latitude": 47.3482747, "longitude": 8.717873899999999, "race": "Int Greifenseelauf, Uster", "date": {"sam. 22.09.2007": {"year": 2007, "day": 22, "month": 9, "categories": {"H/M35": {"distance": 21, "rank": 26, "pace": 238000000000, "time": 5028.3}}, "weekday": "saturday", "livingplace": "Urdorf"}, "sam. 16.09.2006": {"year": 2006, "day": 16, "month": 9, "categories": {"H/M30": {"distance": 21, "rank": 40, "pace": 247000000000, "time": 5213.2}}, "weekday": "saturday", "livingplace": "Urdorf"}}, "location": "Uster"}}, "birth": 1972}