{"name": "Conforto Galli Martino", "sex": "M", "races": {"Stralugano, Lugano": {"latitude": 46.0036778, "longitude": 8.951051999999999, "race": "Stralugano, Lugano", "date": {"dim. 28.09.2014": {"year": 2014, "day": 28, "month": 9, "categories": {"K-M14": {"distance": 2, "rank": 3, "pace": 220000000000, "time": 463.0}}, "weekday": "sunday", "livingplace": "Viganello"}, "dim. 30.09.2012": {"year": 2012, "day": 30, "month": 9, "categories": {"K-M12": {"distance": 1, "rank": 3, "pace": 232000000000, "time": 326.1}}, "weekday": "sunday", "livingplace": "Chatel St Denis"}}, "location": "Lugano"}, "Course de l'Avent, Yverdon": {"latitude": 46.8064773, "longitude": 7.161971899999999, "race": "Course de l'Avent, Yverdon", "date": {"dim. 28.11.2010": {"year": 2010, "day": 28, "month": 11, "categories": {"O-Garc2": {"distance": 1, "rank": 4, "pace": 263000000000, "time": 381.7}}, "weekday": "sunday", "livingplace": "Chatel St Denis"}, "dim. 27.11.2011": {"year": 2011, "day": 27, "month": 11, "categories": {"B-Garc1": {"distance": 3, "rank": 3, "pace": 264000000000, "time": 800.0}}, "weekday": "sunday", "livingplace": "Chatel St Denis"}}, "location": "Fribourg"}, "Corrida Bulloise, Bulle": {"latitude": 46.6154512, "longitude": 7.057726799999999, "race": "Corrida Bulloise, Bulle", "date": {"sam. 19.11.2011": {"year": 2011, "day": 19, "month": 11, "categories": {"GB": {"distance": 2, "rank": 39, "pace": 267000000000, "time": 467.6}}, "weekday": "saturday", "livingplace": "Chatel St Denis"}}, "location": "Bulle"}, "10km, Payerne": {"latitude": 46.8220266, "longitude": 6.9405663, "race": "10km, Payerne", "date": {"sam. 10.03.2012": {"year": 2012, "day": 10, "month": 3, "categories": {"M U12": {"distance": 1, "rank": 6, "pace": 254000000000, "time": 228.6}}, "weekday": "saturday", "livingplace": "Chatel St Denis"}}, "location": "Payerne"}, "Les Traine-Savates, Cheseaux-sur-Lausanne": {"latitude": 46.585452, "longitude": 6.6047712, "race": "Les Traine-Savates, Cheseaux-sur-Lausanne", "date": {"sam. 14.04.2012": {"year": 2012, "day": 14, "month": 4, "categories": {"U12M": {"distance": 3, "rank": 5, "pace": 258000000000, "time": 879.8}}, "weekday": "saturday", "livingplace": "Chatel St Denis"}}, "location": "Cheseaux-sur-Lausanne"}, "Course de l'Avent, Fribourg": {"latitude": 46.8064773, "longitude": 7.161971899999999, "race": "Course de l'Avent, Fribourg", "date": {"dim. 25.11.2012": {"year": 2012, "day": 25, "month": 11, "categories": {"Ados-M1": {"distance": 2, "rank": 4, "pace": 241000000000, "time": 579.7}}, "weekday": "sunday", "livingplace": "Chatel St Denis"}}, "location": "Fribourg"}}, "birth": 2001}