{"name": "Conrad Fran\u00e7ois", "sex": "M", "races": {"BCN Tour #1 Corcelles": {"latitude": 46.9668714, "longitude": 6.8589727, "race": "BCN Tour #1 Corcelles", "date": {"mer. 24.04.2013": {"year": 2013, "day": 24, "month": 4, "categories": {"HS1": {"distance": 10, "rank": 233, "pace": 332000000000, "time": 3253.8}}, "weekday": "wednesday", "livingplace": "La Neuveville"}}, "location": "Colombier NE"}, "Morat-Fribourg": {"latitude": 46.92922110000001, "longitude": 7.120184, "race": "Morat-Fribourg", "date": {"sam. 05.10.2013": {"year": 2013, "day": 5, "month": 10, "categories": {"17-M20": {"distance": 17, "rank": 2188, "pace": 370000000000, "time": 6457.9}}, "weekday": "saturday", "livingplace": "La Neuveville"}, "sam. 03.10.2009": {"year": 2009, "day": 3, "month": 10, "categories": {"C-M20": {"distance": 17, "rank": 1972, "pace": 404000000000, "time": 6948.9}}, "weekday": "saturday", "livingplace": "La Neuveville"}, "sam. 01.10.2011": {"year": 2011, "day": 1, "month": 10, "categories": {"17-M20": {"distance": 17, "rank": 1647, "pace": 353000000000, "time": 6070.1}}, "weekday": "saturday", "livingplace": "La Neuveville"}, "sam. 06.10.2012": {"year": 2012, "day": 6, "month": 10, "categories": {"17-M20": {"distance": 17, "rank": 1616, "pace": 341000000000, "time": 5955.2}}, "weekday": "saturday", "livingplace": "La Neuveville"}, "sam. 02.10.2010": {"year": 2010, "day": 2, "month": 10, "categories": {"17-M20": {"distance": 17, "rank": 1883, "pace": 395000000000, "time": 6792.7}}, "weekday": "saturday", "livingplace": "La Neuveville"}}, "location": "Murten"}, "BCN Tour Fontaine Cernier": {"latitude": 47.0624261, "longitude": 6.9175754, "race": "BCN Tour Fontaine Cernier", "date": {"mer. 27.04.2011": {"year": 2011, "day": 27, "month": 4, "categories": {"HS1": {"distance": 10, "rank": 240, "pace": 344000000000, "time": 3550.9}}, "weekday": "wednesday", "livingplace": "La Neuveville"}}, "location": "Ch\u00e9zard-St-Martin"}, "BCN Tour Le Landeron": {"latitude": 46.9668714, "longitude": 6.8589727, "race": "BCN Tour Le Landeron", "date": {"mer. 22.04.2009": {"year": 2009, "day": 22, "month": 4, "categories": {"HS1": {"distance": 11, "rank": 190, "pace": 346000000000, "time": 3850.8}}, "weekday": "wednesday", "livingplace": "La Neuveville"}}, "location": "Colombier NE"}, "BCN Tour #5 Colombier": {"latitude": 46.9262933, "longitude": 6.6324944, "race": "BCN Tour #5 Colombier", "date": {"mer. 22.05.2013": {"year": 2013, "day": 22, "month": 5, "categories": {"HS1": {"distance": 11, "rank": 236, "pace": 306000000000, "time": 3219.5}}, "weekday": "wednesday", "livingplace": "La Neuveville"}}, "location": "Couvet"}, "BCN Tour Le Locle": {"latitude": 46.999113, "longitude": 6.733554799999999, "race": "BCN Tour Le Locle", "date": {"mer. 05.05.2010": {"year": 2010, "day": 5, "month": 5, "categories": {"HS1": {"distance": 11, "rank": 159, "pace": 320000000000, "time": 3497.4}}, "weekday": "wednesday", "livingplace": "La Neuveville"}}, "location": "Les Ponts-de-Martel"}, "BCN Tour Neuch\u00e2tel": {"latitude": 46.9899874, "longitude": 6.9292732, "race": "BCN Tour Neuch\u00e2tel", "date": {"mer. 26.05.2010": {"year": 2010, "day": 26, "month": 5, "categories": {"HS1": {"distance": 10, "rank": 223, "pace": 424000000000, "time": 4119.1}}, "weekday": "wednesday", "livingplace": "La Neuveville"}}, "location": "Neuch\u00e2tel"}, "BCN Tour Auvernier": {"latitude": 46.9668714, "longitude": 6.8589727, "race": "BCN Tour Auvernier", "date": {"mer. 20.04.2011": {"year": 2011, "day": 20, "month": 4, "categories": {"HS1": {"distance": 11, "rank": 270, "pace": 409000000000, "time": 4424.0}}, "weekday": "wednesday", "livingplace": "La Neuveville"}}, "location": "Colombier NE"}, "BCN Tour Colombier": {"latitude": 46.9668714, "longitude": 6.8589727, "race": "BCN Tour Colombier", "date": {"mer. 23.04.2008": {"year": 2008, "day": 23, "month": 4, "categories": {"HS1": {"distance": 10, "rank": 192, "pace": 431000000000, "time": 4402.5}}, "weekday": "wednesday", "livingplace": "Cressier"}, "mer. 21.04.2010": {"year": 2010, "day": 21, "month": 4, "categories": {"HS1": {"distance": 10, "rank": 173, "pace": 362000000000, "time": 3621.8}}, "weekday": "wednesday", "livingplace": "La Neuveville"}}, "location": "Colombier NE"}, "D\u00e9fi Val-de-Travers, Couvet": {"latitude": 46.9262933, "longitude": 6.6324944, "race": "D\u00e9fi Val-de-Travers, Couvet", "date": {"sam. 21.06.2008": {"year": 2008, "day": 21, "month": 6, "categories": {"SH": {"distance": 20, "rank": 28, "pace": 429000000000, "time": 8467.7}}, "weekday": "saturday", "livingplace": "La Neuveville"}, "sam. 20.06.2009": {"year": 2009, "day": 20, "month": 6, "categories": {"SH": {"distance": 20, "rank": 30, "pace": 361000000000, "time": 7125.0}}, "weekday": "saturday", "livingplace": "La Neuveville"}, "sam. 19.06.2010": {"year": 2010, "day": 19, "month": 6, "categories": {"42-HSen1": {"distance": 41, "rank": 13, "pace": 477000000000, "time": 19678.1}}, "weekday": "saturday", "livingplace": "La Neuveville"}}, "location": "Couvet"}, "BCN Tour Ponts-de-Martel": {"latitude": 47.0624261, "longitude": 6.9175754, "race": "BCN Tour Ponts-de-Martel", "date": {"mer. 28.04.2010": {"year": 2010, "day": 28, "month": 4, "categories": {"HS1": {"distance": 11, "rank": 156, "pace": 331000000000, "time": 3708.3}}, "weekday": "wednesday", "livingplace": "La Neuveville"}}, "location": "Ch\u00e9zard-St-Martin"}, "BCN Tour M\u00f4tier": {"latitude": 46.9262933, "longitude": 6.6324944, "race": "BCN Tour M\u00f4tier", "date": {"mer. 19.05.2010": {"year": 2010, "day": 19, "month": 5, "categories": {"HS1": {"distance": 10, "rank": 171, "pace": 313000000000, "time": 3105.8}}, "weekday": "wednesday", "livingplace": "La Neuveville"}}, "location": "Couvet"}, "BCN Tour La Chaux-de-fonds": {"latitude": 47.1034892, "longitude": 6.832783800000001, "race": "BCN Tour La Chaux-de-fonds", "date": {"mer. 12.05.2010": {"year": 2010, "day": 12, "month": 5, "categories": {"HS1": {"distance": 11, "rank": 175, "pace": 403000000000, "time": 4319.7}}, "weekday": "wednesday", "livingplace": "La Neuveville"}}, "location": "La Chaux-de-Fonds"}, "Kerzerslauf": {"latitude": 46.97488999999999, "longitude": 7.1954365, "race": "Kerzerslauf", "date": {"sam. 20.03.2010": {"year": 2010, "day": 20, "month": 3, "categories": {"15-M20": {"distance": 15, "rank": 426, "pace": 313000000000, "time": 4702.3}}, "weekday": "saturday", "livingplace": "La Neuveville"}}, "location": "Kerzers"}}, "birth": 1978}