{"name": "Conti Philippe", "sex": "M", "races": {"Tour du Pays de Vaud #2 - Genolier": {"latitude": 46.5955273, "longitude": 6.7702883, "race": "Tour du Pays de Vaud #2 - Genolier", "date": {"mer. 17.08.2011": {"year": 2011, "day": 17, "month": 8, "categories": {"H-Sen2": {"distance": 9, "rank": 144, "pace": 348000000000, "time": 2958.2}}, "weekday": "wednesday", "livingplace": "Lausanne"}, "mer. 18.08.2010": {"year": 2010, "day": 18, "month": 8, "categories": {"HSen2": {"distance": 8, "rank": 123, "pace": 320000000000, "time": 2596.8}}, "weekday": "wednesday", "livingplace": "Lausanne"}}, "location": "M\u00e9zi\u00e8res VD"}, "Tour du pays de Vaud #1 \u2013 St  Prex": {"latitude": 46.7784736, "longitude": 6.641183, "race": "Tour du pays de Vaud #1 \u2013 St  Prex", "date": {"mer. 11.08.2010": {"year": 2010, "day": 11, "month": 8, "categories": {"HSen2": {"distance": 8, "rank": 155, "pace": 352000000000, "time": 2958.3}}, "weekday": "wednesday", "livingplace": "Lausanne"}}, "location": "Yverdon-les-Bains"}, "Tour du pays de Vaud #6 - St  Prex": {"latitude": 46.4829113, "longitude": 6.458343500000001, "race": "Tour du pays de Vaud #6 - St  Prex", "date": {"mer. 14.09.2011": {"year": 2011, "day": 14, "month": 9, "categories": {"H-Sen2": {"distance": 9, "rank": 166, "pace": 318000000000, "time": 2735.1}}, "weekday": "wednesday", "livingplace": "Lausanne"}}, "location": "St-Prex"}, "Tour du pays de Vaud #1 - Mezi\u00e8res": {"latitude": 46.7784736, "longitude": 6.641183, "race": "Tour du pays de Vaud #1 - Mezi\u00e8res", "date": {"mer. 10.08.2011": {"year": 2011, "day": 10, "month": 8, "categories": {"H-Sen2": {"distance": 9, "rank": 159, "pace": 323000000000, "time": 2752.1}}, "weekday": "wednesday", "livingplace": "Lausanne"}}, "location": "Yverdon-les-Bains"}, "Tour du pays de Vaud #5 - Penthaz": {"latitude": 46.5993131, "longitude": 6.539251200000001, "race": "Tour du pays de Vaud #5 - Penthaz", "date": {"mer. 07.09.2011": {"year": 2011, "day": 7, "month": 9, "categories": {"H-Sen2": {"distance": 8, "rank": 148, "pace": 379000000000, "time": 3166.3}}, "weekday": "wednesday", "livingplace": "Lausanne"}}, "location": "Penthaz"}, "Tour du Pays de Vaud printanier #3 - Yens": {"latitude": 46.7829756, "longitude": 6.5728678, "race": "Tour du Pays de Vaud printanier #3 - Yens", "date": {"mer. 18.06.2014": {"year": 2014, "day": 18, "month": 6, "categories": {"H-Sen2": {"distance": 9, "rank": 67, "pace": 333000000000, "time": 3036.7}}, "weekday": "wednesday", "livingplace": "Lausanne"}}, "location": "Champvent"}, "Tour du Pays de Vaud #5 - La Sarraz": {"latitude": 46.5993131, "longitude": 6.539251200000001, "race": "Tour du Pays de Vaud #5 - La Sarraz", "date": {"mer. 08.09.2010": {"year": 2010, "day": 8, "month": 9, "categories": {"HSen2": {"distance": 9, "rank": 114, "pace": 321000000000, "time": 2921.9}}, "weekday": "wednesday", "livingplace": "Lausanne"}}, "location": "Penthaz"}, "Tour du Pays de Vaud printanier #1 Moudon": {"latitude": 46.3832683, "longitude": 6.2347852, "race": "Tour du Pays de Vaud printanier #1 Moudon", "date": {"mer. 04.06.2014": {"year": 2014, "day": 4, "month": 6, "categories": {"H-Sen2": {"distance": 8, "rank": 48, "pace": 338000000000, "time": 2844.5}}, "weekday": "wednesday", "livingplace": "Lausanne"}}, "location": "Nyon"}, "Tour du Pays de Vaud printanier #2 Yverdon-les-Bains": {"latitude": 46.6698891, "longitude": 6.7975224, "race": "Tour du Pays de Vaud printanier #2 Yverdon-les-Bains", "date": {"mer. 11.06.2014": {"year": 2014, "day": 11, "month": 6, "categories": {"H-Sen2": {"distance": 9, "rank": 57, "pace": 368000000000, "time": 3352.9}}, "weekday": "wednesday", "livingplace": "Lausanne"}}, "location": "Moudon"}}, "birth": 1965}