{"name": "Copt Christiane", "sex": "F", "races": {"Tour du Pays de Vaud etape 5 - La Sarraz": {"latitude": 46.5993131, "longitude": 6.539251200000001, "race": "Tour du Pays de Vaud etape 5 - La Sarraz", "date": {"mer. 10.09.2008": {"year": 2008, "day": 10, "month": 9, "categories": {"DamSen2": {"distance": 9, "rank": 10, "pace": 293000000000, "time": 2525.7}}, "weekday": "wednesday", "livingplace": "Chardonne"}}, "location": "Penthaz"}, "Tour du Chablais #1 Roche": {"latitude": 46.2957462, "longitude": 6.9916269, "race": "Tour du Chablais #1 Roche", "date": {"mer. 07.04.2010": {"year": 2010, "day": 7, "month": 4, "categories": {"F-F40": {"distance": 9, "rank": 13, "pace": 287000000000, "time": 2573.3}}, "weekday": "wednesday", "livingplace": "Nax"}, "mer. 03.04.2013": {"year": 2013, "day": 3, "month": 4, "categories": {"F-F40": {"distance": 9, "rank": 23, "pace": 296000000000, "time": 2626.1}}, "weekday": "wednesday", "livingplace": "Nax"}}, "location": "Ollon VD"}, "Tour du Chablais #4 Yvorne": {"latitude": NaN, "longitude": NaN, "race": "Tour du Chablais #4 Yvorne", "date": {"mer. 28.04.2010": {"year": 2010, "day": 28, "month": 4, "categories": {"F-F40": {"distance": 8, "rank": 15, "pace": 313000000000, "time": 2597.6}}, "weekday": "wednesday", "livingplace": "Nax"}}, "location": "Les Mosses"}, "Morat-Fribourg": {"latitude": 46.92922110000001, "longitude": 7.120184, "race": "Morat-Fribourg", "date": {"sam. 06.10.2007": {"year": 2007, "day": 6, "month": 10, "categories": {"C/W40": {"distance": 17, "rank": 87, "pace": 327000000000, "time": 5629.3}}, "weekday": "saturday", "livingplace": "Chardonne"}}, "location": "Murten"}, "Corrida Bulloise, Bulle": {"latitude": 46.6154512, "longitude": 7.057726799999999, "race": "Corrida Bulloise, Bulle", "date": {"sam. 20.11.2010": {"year": 2010, "day": 20, "month": 11, "categories": {"F40": {"distance": 6, "rank": 42, "pace": 293000000000, "time": 1804.7}}, "weekday": "saturday", "livingplace": "Nax"}}, "location": "Bulle"}, "Tour du Chablais #6 Monthey": {"latitude": 46.3190253, "longitude": 6.970566, "race": "Tour du Chablais #6 Monthey", "date": {"mer. 08.05.2013": {"year": 2013, "day": 8, "month": 5, "categories": {"F-F40": {"distance": 9, "rank": 21, "pace": 293000000000, "time": 2737.9}}, "weekday": "wednesday", "livingplace": "Nax"}}, "location": "Aigle"}, "Tour du Pays de Vaud etape 1 - Le Mont sur Lausanne": {"latitude": 46.7784736, "longitude": 6.641183, "race": "Tour du Pays de Vaud etape 1 - Le Mont sur Lausanne", "date": {"mer. 13.08.2008": {"year": 2008, "day": 13, "month": 8, "categories": {"DamSen2": {"distance": 8, "rank": 12, "pace": 293000000000, "time": 2468.9}}, "weekday": "wednesday", "livingplace": "Chardonne"}}, "location": "Yverdon-les-Bains"}, "Tour du Chablais #4 St  Maurice": {"latitude": NaN, "longitude": NaN, "race": "Tour du Chablais #4 St  Maurice", "date": {"mer. 24.04.2013": {"year": 2013, "day": 24, "month": 4, "categories": {"F-F40": {"distance": 10, "rank": 20, "pace": 302000000000, "time": 3021.1}}, "weekday": "wednesday", "livingplace": "Nax"}}, "location": "Les Mosses"}, "Tour du Chablais #2 Rennaz": {"latitude": 46.3835529, "longitude": 6.854975199999999, "race": "Tour du Chablais #2 Rennaz", "date": {"mer. 04.05.2011": {"year": 2011, "day": 4, "month": 5, "categories": {"F-F40": {"distance": 9, "rank": 31, "pace": 312000000000, "time": 2921.8}}, "weekday": "wednesday", "livingplace": "Nax"}}, "location": "Bouveret"}, "Tour du Chablais #6 Mouthey": {"latitude": 46.3190253, "longitude": 6.970566, "race": "Tour du Chablais #6 Mouthey", "date": {"mer. 12.05.2010": {"year": 2010, "day": 12, "month": 5, "categories": {"F-F40": {"distance": 9, "rank": 16, "pace": 284000000000, "time": 2619.8}}, "weekday": "wednesday", "livingplace": "Nax"}}, "location": "Aigle"}, "Tour du Pays de Vaud etape 2 - Genolier": {"latitude": 46.5955273, "longitude": 6.7702883, "race": "Tour du Pays de Vaud etape 2 - Genolier", "date": {"mer. 20.08.2008": {"year": 2008, "day": 20, "month": 8, "categories": {"DamSen2": {"distance": 8, "rank": 10, "pace": 297000000000, "time": 2467.8}}, "weekday": "wednesday", "livingplace": "Chardonne"}}, "location": "M\u00e9zi\u00e8res VD"}, "Tour du Chablais #6 Aigle": {"latitude": 46.3190253, "longitude": 6.970566, "race": "Tour du Chablais #6 Aigle", "date": {"mer. 01.06.2011": {"year": 2011, "day": 1, "month": 6, "categories": {"F-F40": {"distance": 10, "rank": 23, "pace": 293000000000, "time": 2991.3}}, "weekday": "wednesday", "livingplace": "Nax"}}, "location": "Aigle"}, "Tour du Chablais #3 Bex": {"latitude": 46.1782231, "longitude": 7.0223787, "race": "Tour du Chablais #3 Bex", "date": {"mer. 21.04.2010": {"year": 2010, "day": 21, "month": 4, "categories": {"F-F40": {"distance": 10, "rank": 15, "pace": 299000000000, "time": 2990.8}}, "weekday": "wednesday", "livingplace": "Nax"}}, "location": "Evionnaz"}}, "birth": 1967}