{"name": "Corboz Galasso Noelle", "sex": "F", "races": {"Kerzerslauf": {"latitude": 46.97488999999999, "longitude": 7.1954365, "race": "Kerzerslauf", "date": {"sam. 21.03.2015": {"year": 2015, "day": 21, "month": 3, "categories": {"15-F40": {"distance": 15, "rank": 154, "pace": 336000000000, "time": 5054.6}}, "weekday": "saturday", "livingplace": "Chatelaine"}}, "location": "Kerzers"}, "20km de Lausanne": {"latitude": 46.5196535, "longitude": 6.6322734, "race": "20km de Lausanne", "date": {"sam. 27.04.2013": {"year": 2013, "day": 27, "month": 4, "categories": {"10-F40": {"distance": 10, "rank": 75, "pace": 325000000000, "time": 3255.2}}, "weekday": "saturday", "livingplace": "Chatelaine"}}, "location": "Lausanne"}, "Morat-Fribourg": {"latitude": 46.92922110000001, "longitude": 7.120184, "race": "Morat-Fribourg", "date": {"sam. 04.10.2014": {"year": 2014, "day": 4, "month": 10, "categories": {"17-W40": {"distance": 17, "rank": 137, "pace": 346000000000, "time": 5957.1}}, "weekday": "saturday", "livingplace": "Chatelaine"}}, "location": "Murten"}, "Semi-Marathon de la C\u00f4te, Allaman-Nyon": {"latitude": 46.3832683, "longitude": 6.2347852, "race": "Semi-Marathon de la C\u00f4te, Allaman-Nyon", "date": {"dim. 14.09.2014": {"year": 2014, "day": 14, "month": 9, "categories": {"21-F40": {"distance": 21, "rank": 29, "pace": 330000000000, "time": 6967.5}}, "weekday": "sunday", "livingplace": "Chatelaine"}}, "location": "Nyon"}, "Schweizer Frauenlauf Bern": {"latitude": 46.9479739, "longitude": 7.4474468, "race": "Schweizer Frauenlauf Bern", "date": {"dim. 09.06.2013": {"year": 2013, "day": 9, "month": 6, "categories": {"10-W40": {"distance": 10, "rank": 451, "pace": 368000000000, "time": 3686.6}}, "weekday": "sunday", "livingplace": "Chatelaine"}}, "location": "Bern"}}, "birth": 1972}