{"name": "Cornu Margaux", "sex": "F", "races": {"Tour du Pays de Vaud #2 - Genolier": {"latitude": 46.5955273, "longitude": 6.7702883, "race": "Tour du Pays de Vaud #2 - Genolier", "date": {"mer. 15.08.2012": {"year": 2012, "day": 15, "month": 8, "categories": {"D-Dam": {"distance": 9, "rank": 7, "pace": 278000000000, "time": 2368.1}}, "weekday": "wednesday", "livingplace": "Villars le Terroir"}}, "location": "M\u00e9zi\u00e8res VD"}, "Tour du pays de Vaud #1 - Penthaz": {"latitude": 46.5993131, "longitude": 6.539251200000001, "race": "Tour du pays de Vaud #1 - Penthaz", "date": {"mer. 14.08.2013": {"year": 2013, "day": 14, "month": 8, "categories": {"D-Dam": {"distance": 9, "rank": 13, "pace": 298000000000, "time": 2543.6}}, "weekday": "wednesday", "livingplace": "Villars le Terroir"}, "mer. 08.08.2012": {"year": 2012, "day": 8, "month": 8, "categories": {"D-Dam": {"distance": 9, "rank": 9, "pace": 276000000000, "time": 2354.6}}, "weekday": "wednesday", "livingplace": "Villars le Terroir"}}, "location": "Penthaz"}, "Morat-Fribourg": {"latitude": 46.92922110000001, "longitude": 7.120184, "race": "Morat-Fribourg", "date": {"sam. 06.10.2012": {"year": 2012, "day": 6, "month": 10, "categories": {"17-W20": {"distance": 17, "rank": 98, "pace": 304000000000, "time": 5313.0}}, "weekday": "saturday", "livingplace": "Villars le Terroir"}}, "location": "Murten"}, "Tour du Pays de Vaud #2 - Mezi\u00e8res": {"latitude": 46.5955273, "longitude": 6.7702883, "race": "Tour du Pays de Vaud #2 - Mezi\u00e8res", "date": {"mer. 21.08.2013": {"year": 2013, "day": 21, "month": 8, "categories": {"D-Dam": {"distance": 8, "rank": 10, "pace": 324000000000, "time": 2631.7}}, "weekday": "wednesday", "livingplace": "Villars le Terroir"}}, "location": "M\u00e9zi\u00e8res VD"}, "Tour du Pays de Vaud printanier #1 Chavornay": {"latitude": 46.3832683, "longitude": 6.2347852, "race": "Tour du Pays de Vaud printanier #1 Chavornay", "date": {"mer. 30.05.2012": {"year": 2012, "day": 30, "month": 5, "categories": {"D-Dam": {"distance": 9, "rank": 8, "pace": 293000000000, "time": 2626.3}}, "weekday": "wednesday", "livingplace": "Villars le Terroir"}}, "location": "Nyon"}, "Tour du Pays de Vaud #3 - Chavornay": {"latitude": 46.7784736, "longitude": 6.641183, "race": "Tour du Pays de Vaud #3 - Chavornay", "date": {"mer. 28.08.2013": {"year": 2013, "day": 28, "month": 8, "categories": {"D-Dam": {"distance": 9, "rank": 10, "pace": 291000000000, "time": 2598.7}}, "weekday": "wednesday", "livingplace": "Villars le Terroir"}}, "location": "Yverdon-les-Bains"}, "Tour du Pays de Vaud #3 - Mezi\u00e8res": {"latitude": 46.7784736, "longitude": 6.641183, "race": "Tour du Pays de Vaud #3 - Mezi\u00e8res", "date": {"mer. 22.08.2012": {"year": 2012, "day": 22, "month": 8, "categories": {"D-Dam": {"distance": 8, "rank": 17, "pace": 311000000000, "time": 2615.7}}, "weekday": "wednesday", "livingplace": "Villars le Terroir"}}, "location": "Yverdon-les-Bains"}, "20km de Lausanne": {"latitude": 46.5196535, "longitude": 6.6322734, "race": "20km de Lausanne", "date": {"sam. 28.04.2007": {"year": 2007, "day": 28, "month": 4, "categories": {"20F20": {"distance": 20, "rank": 76, "pace": 393000000000, "time": 7877.4}}, "weekday": "saturday", "livingplace": "Bercher"}, "sam. 28.04.2012": {"year": 2012, "day": 28, "month": 4, "categories": {"20-F20": {"distance": 20, "rank": 18, "pace": 293000000000, "time": 5879.3}}, "weekday": "saturday", "livingplace": "Villars le Terroir"}, "sam. 26.04.2014": {"year": 2014, "day": 26, "month": 4, "categories": {"10-F20": {"distance": 10, "rank": 63, "pace": 298000000000, "time": 2985.0}}, "weekday": "saturday", "livingplace": "Echallens"}}, "location": "Lausanne"}, "Tour du Pays de Vaud #4 - La Sarraz": {"latitude": 46.7088129, "longitude": 6.5707689, "race": "Tour du Pays de Vaud #4 - La Sarraz", "date": {"mer. 29.08.2012": {"year": 2012, "day": 29, "month": 8, "categories": {"D-Dam": {"distance": 9, "rank": 10, "pace": 273000000000, "time": 2325.0}}, "weekday": "wednesday", "livingplace": "Villars le Terroir"}, "mer. 04.09.2013": {"year": 2013, "day": 4, "month": 9, "categories": {"D-Dam": {"distance": 9, "rank": 13, "pace": 300000000000, "time": 2550.9}}, "weekday": "wednesday", "livingplace": "Villars le Terroir"}}, "location": "Chavornay"}, "Les Traine-Savates, Cheseaux-sur-Lausanne": {"latitude": 46.585452, "longitude": 6.6047712, "race": "Les Traine-Savates, Cheseaux-sur-Lausanne", "date": {"sam. 04.04.2009": {"year": 2009, "day": 4, "month": 4, "categories": {"DamSen": {"distance": 10, "rank": 52, "pace": 323000000000, "time": 3364.6}}, "weekday": "saturday", "livingplace": "Poliez le Grand"}}, "location": "Cheseaux-sur-Lausanne"}, "Tour du Pays de Vaud printanier #2 Yens": {"latitude": 46.6698891, "longitude": 6.7975224, "race": "Tour du Pays de Vaud printanier #2 Yens", "date": {"mer. 06.06.2012": {"year": 2012, "day": 6, "month": 6, "categories": {"D-Dam": {"distance": 9, "rank": 4, "pace": 285000000000, "time": 2598.0}}, "weekday": "wednesday", "livingplace": "Villars le Terroir"}}, "location": "Moudon"}}, "birth": 1987}