{"name": "Cosandier Thomas", "sex": "M", "races": {"BCN Tour Couvet": {"latitude": 47.0624261, "longitude": 6.9175754, "race": "BCN Tour Couvet", "date": {"mer. 02.05.2012": {"year": 2012, "day": 2, "month": 5, "categories": {"HJ": {"distance": 11, "rank": 12, "pace": 266000000000, "time": 2969.4}}, "weekday": "wednesday", "livingplace": "Dombresson"}}, "location": "Ch\u00e9zard-St-Martin"}, "BCN Tour M\u00f4tier": {"latitude": 46.9262933, "longitude": 6.6324944, "race": "BCN Tour M\u00f4tier", "date": {"mer. 19.05.2010": {"year": 2010, "day": 19, "month": 5, "categories": {"KG4": {"distance": 4, "rank": 7, "pace": 241000000000, "time": 918.5}}, "weekday": "wednesday", "livingplace": "Dombresson"}}, "location": "Couvet"}, "BCN Tour Les Ponts-de-Martel": {"latitude": 46.999113, "longitude": 6.733554799999999, "race": "BCN Tour Les Ponts-de-Martel", "date": {"mer. 09.05.2012": {"year": 2012, "day": 9, "month": 5, "categories": {"HJ": {"distance": 10, "rank": 8, "pace": 255000000000, "time": 2629.1}}, "weekday": "wednesday", "livingplace": "Dombresson"}}, "location": "Les Ponts-de-Martel"}, "BCN Tour Fontaine Cernier": {"latitude": 47.0624261, "longitude": 6.9175754, "race": "BCN Tour Fontaine Cernier", "date": {"mer. 27.04.2011": {"year": 2011, "day": 27, "month": 4, "categories": {"HJ": {"distance": 10, "rank": 22, "pace": 263000000000, "time": 2717.2}}, "weekday": "wednesday", "livingplace": "Dombresson"}}, "location": "Ch\u00e9zard-St-Martin"}, "BCN Tour Le Landeron": {"latitude": 46.9668714, "longitude": 6.8589727, "race": "BCN Tour Le Landeron", "date": {"mer. 22.04.2009": {"year": 2009, "day": 22, "month": 4, "categories": {"KG3": {"distance": 4, "rank": 3, "pace": 229000000000, "time": 918.9}}, "weekday": "wednesday", "livingplace": "Dombresson"}}, "location": "Colombier NE"}, "BCN Tour Le Locle": {"latitude": 46.999113, "longitude": 6.733554799999999, "race": "BCN Tour Le Locle", "date": {"mer. 05.05.2010": {"year": 2010, "day": 5, "month": 5, "categories": {"KG4": {"distance": 4, "rank": 6, "pace": 219000000000, "time": 811.2}}, "weekday": "wednesday", "livingplace": "Dombresson"}}, "location": "Les Ponts-de-Martel"}, "BCN Tour Neuch\u00e2tel": {"latitude": 46.9899874, "longitude": 6.9292732, "race": "BCN Tour Neuch\u00e2tel", "date": {"mer. 26.05.2010": {"year": 2010, "day": 26, "month": 5, "categories": {"KG4": {"distance": 3, "rank": 6, "pace": 185000000000, "time": 630.2}}, "weekday": "wednesday", "livingplace": "Dombresson"}, "mer. 30.05.2012": {"year": 2012, "day": 30, "month": 5, "categories": {"HJ": {"distance": 11, "rank": 13, "pace": 275000000000, "time": 3082.1}}, "weekday": "wednesday", "livingplace": "Dombresson"}, "mer. 25.05.2011": {"year": 2011, "day": 25, "month": 5, "categories": {"HJ": {"distance": 11, "rank": 16, "pace": 268000000000, "time": 3063.0}}, "weekday": "wednesday", "livingplace": "Dombresson"}}, "location": "Neuch\u00e2tel"}, "BCN Tour Auvernier": {"latitude": 46.9668714, "longitude": 6.8589727, "race": "BCN Tour Auvernier", "date": {"mer. 20.04.2011": {"year": 2011, "day": 20, "month": 4, "categories": {"HJ": {"distance": 11, "rank": 19, "pace": 290000000000, "time": 3136.0}}, "weekday": "wednesday", "livingplace": "Dombresson"}}, "location": "Colombier NE"}, "BCN Tour #4 Fleurier": {"latitude": 47.1034892, "longitude": 6.832783800000001, "race": "BCN Tour #4 Fleurier", "date": {"mer. 15.05.2013": {"year": 2013, "day": 15, "month": 5, "categories": {"HJ": {"distance": 9, "rank": 11, "pace": 251000000000, "time": 2179.2}}, "weekday": "wednesday", "livingplace": "Dombresson"}}, "location": "La Chaux-de-Fonds"}, "BCN Tour Cornaux": {"latitude": 46.9668714, "longitude": 6.8589727, "race": "BCN Tour Cornaux", "date": {"mer. 25.04.2012": {"year": 2012, "day": 25, "month": 4, "categories": {"HJ": {"distance": 11, "rank": 17, "pace": 322000000000, "time": 3541.1}}, "weekday": "wednesday", "livingplace": "Dombresson"}}, "location": "Colombier NE"}, "BCN Tour #1 Corcelles": {"latitude": 46.9668714, "longitude": 6.8589727, "race": "BCN Tour #1 Corcelles", "date": {"mer. 24.04.2013": {"year": 2013, "day": 24, "month": 4, "categories": {"HJ": {"distance": 10, "rank": 22, "pace": 278000000000, "time": 2725.8}}, "weekday": "wednesday", "livingplace": "Dombresson"}}, "location": "Colombier NE"}, "BCN Tour La Chaux-de-Fonds": {"latitude": 47.1034892, "longitude": 6.832783800000001, "race": "BCN Tour La Chaux-de-Fonds", "date": {"mer. 23.05.2012": {"year": 2012, "day": 23, "month": 5, "categories": {"HJ": {"distance": 11, "rank": 9, "pace": 250000000000, "time": 2700.9}}, "weekday": "wednesday", "livingplace": "Dombresson"}, "mer. 11.05.2011": {"year": 2011, "day": 11, "month": 5, "categories": {"HJ": {"distance": 11, "rank": 18, "pace": 310000000000, "time": 3327.3}}, "weekday": "wednesday", "livingplace": "Dombresson"}}, "location": "La Chaux-de-Fonds"}, "BCN Tour #6 Neuch\u00e2tel": {"latitude": 46.9899874, "longitude": 6.9292732, "race": "BCN Tour #6 Neuch\u00e2tel", "date": {"mer. 29.05.2013": {"year": 2013, "day": 29, "month": 5, "categories": {"HJ": {"distance": 11, "rank": 12, "pace": 264000000000, "time": 2907.5}}, "weekday": "wednesday", "livingplace": "Dombresson"}}, "location": "Neuch\u00e2tel"}, "BCN Tour La Br\u00e9vine": {"latitude": 46.999113, "longitude": 6.733554799999999, "race": "BCN Tour La Br\u00e9vine", "date": {"mer. 04.05.2011": {"year": 2011, "day": 4, "month": 5, "categories": {"KG4": {"distance": 4, "rank": 6, "pace": 230000000000, "time": 875.5}}, "weekday": "wednesday", "livingplace": "Dombresson"}}, "location": "Les Ponts-de-Martel"}, "BCN Tour Ponts-de-Martel": {"latitude": 47.0624261, "longitude": 6.9175754, "race": "BCN Tour Ponts-de-Martel", "date": {"mer. 28.04.2010": {"year": 2010, "day": 28, "month": 4, "categories": {"KG4": {"distance": 4, "rank": 13, "pace": 214000000000, "time": 902.3}}, "weekday": "wednesday", "livingplace": "Dombresson"}}, "location": "Ch\u00e9zard-St-Martin"}, "BCN Tour Les Ponts de Martel": {"latitude": 46.9262933, "longitude": 6.6324944, "race": "BCN Tour Les Ponts de Martel", "date": {"mer. 18.05.2011": {"year": 2011, "day": 18, "month": 5, "categories": {"HJ": {"distance": 13, "rank": 31, "pace": 297000000000, "time": 3801.9}}, "weekday": "wednesday", "livingplace": "Dombresson"}}, "location": "Couvet"}, "BCN Tour #5 Colombier": {"latitude": 46.9262933, "longitude": 6.6324944, "race": "BCN Tour #5 Colombier", "date": {"mer. 22.05.2013": {"year": 2013, "day": 22, "month": 5, "categories": {"HJ": {"distance": 11, "rank": 8, "pace": 231000000000, "time": 2426.4}}, "weekday": "wednesday", "livingplace": "Dombresson"}}, "location": "Couvet"}, "BCN Tour #2 La Chaux-de-Fonds": {"latitude": 47.0624261, "longitude": 6.9175754, "race": "BCN Tour #2 La Chaux-de-Fonds", "date": {"mer. 01.05.2013": {"year": 2013, "day": 1, "month": 5, "categories": {"HJ": {"distance": 11, "rank": 18, "pace": 256000000000, "time": 2749.2}}, "weekday": "wednesday", "livingplace": "Dombresson"}}, "location": "Ch\u00e9zard-St-Martin"}, "BCN Tour La Chaux-de-fonds": {"latitude": 47.1034892, "longitude": 6.832783800000001, "race": "BCN Tour La Chaux-de-fonds", "date": {"mer. 12.05.2010": {"year": 2010, "day": 12, "month": 5, "categories": {"KG4": {"distance": 4, "rank": 6, "pace": 224000000000, "time": 873.7}}, "weekday": "wednesday", "livingplace": "Dombresson"}}, "location": "La Chaux-de-Fonds"}, "BCN Tour Colombier": {"latitude": 46.9668714, "longitude": 6.8589727, "race": "BCN Tour Colombier", "date": {"mer. 16.05.2012": {"year": 2012, "day": 16, "month": 5, "categories": {"HJ": {"distance": 11, "rank": 8, "pace": 248000000000, "time": 2681.1}}, "weekday": "wednesday", "livingplace": "Dombresson"}, "mer. 23.04.2008": {"year": 2008, "day": 23, "month": 4, "categories": {"KG3": {"distance": 4, "rank": 6, "pace": 254000000000, "time": 1018.6}}, "weekday": "wednesday", "livingplace": "Dombresson"}, "mer. 21.04.2010": {"year": 2010, "day": 21, "month": 4, "categories": {"KG4": {"distance": 4, "rank": 9, "pace": 239000000000, "time": 957.6}}, "weekday": "wednesday", "livingplace": "Dombresson"}}, "location": "Colombier NE"}, "BCN Tour #3 Dombresson": {"latitude": 46.999113, "longitude": 6.733554799999999, "race": "BCN Tour #3 Dombresson", "date": {"mer. 08.05.2013": {"year": 2013, "day": 8, "month": 5, "categories": {"HJ": {"distance": 10, "rank": 12, "pace": 251000000000, "time": 2487.5}}, "weekday": "wednesday", "livingplace": "Dombresson"}}, "location": "Les Ponts-de-Martel"}}, "birth": 1996}