{"name": "Cosnier Romain", "sex": "M", "races": {"Tour du Chablais #1 Roche": {"latitude": 46.2957462, "longitude": 6.9916269, "race": "Tour du Chablais #1 Roche", "date": {"mer. 03.04.2013": {"year": 2013, "day": 3, "month": 4, "categories": {"M-M20": {"distance": 9, "rank": 120, "pace": 275000000000, "time": 2442.4}}, "weekday": "wednesday", "livingplace": "Clarens"}}, "location": "Ollon VD"}, "Tour du Chablais #6 Monthey": {"latitude": 46.3190253, "longitude": 6.970566, "race": "Tour du Chablais #6 Monthey", "date": {"mer. 08.05.2013": {"year": 2013, "day": 8, "month": 5, "categories": {"M-M20": {"distance": 9, "rank": 121, "pace": 275000000000, "time": 2571.0}}, "weekday": "wednesday", "livingplace": "Clarens"}}, "location": "Aigle"}, "Tour du Chablais #1 Martigny": {"latitude": 46.2957462, "longitude": 6.9916269, "race": "Tour du Chablais #1 Martigny", "date": {"mer. 23.04.2014": {"year": 2014, "day": 23, "month": 4, "categories": {"M-M20": {"distance": 9, "rank": 205, "pace": 304000000000, "time": 2588.0}}, "weekday": "wednesday", "livingplace": "Clarens"}}, "location": "Ollon VD"}, "Montreux - Les Rochers de Naye": {"latitude": 46.4312213, "longitude": 6.9106799, "race": "Montreux - Les Rochers de Naye", "date": {"dim. 07.07.2013": {"year": 2013, "day": 7, "month": 7, "categories": {"M-HElite": {"distance": 19, "rank": 172, "pace": 552000000000, "time": 10378.1}}, "weekday": "sunday", "livingplace": "Clarens"}}, "location": "Montreux"}, "Tour du Chablais #4 St  Maurice": {"latitude": NaN, "longitude": NaN, "race": "Tour du Chablais #4 St  Maurice", "date": {"mer. 24.04.2013": {"year": 2013, "day": 24, "month": 4, "categories": {"M-M20": {"distance": 10, "rank": 118, "pace": 276000000000, "time": 2764.0}}, "weekday": "wednesday", "livingplace": "Clarens"}}, "location": "Les Mosses"}, "Tour du Chablais #2 Yvorne": {"latitude": 46.3835529, "longitude": 6.854975199999999, "race": "Tour du Chablais #2 Yvorne", "date": {"mer. 10.04.2013": {"year": 2013, "day": 10, "month": 4, "categories": {"M-M20": {"distance": 8, "rank": 160, "pace": 315000000000, "time": 2524.7}}, "weekday": "wednesday", "livingplace": "Clarens"}}, "location": "Bouveret"}, "Tour du Chablais #3 Bouveret": {"latitude": 46.1782231, "longitude": 7.0223787, "race": "Tour du Chablais #3 Bouveret", "date": {"mer. 17.04.2013": {"year": 2013, "day": 17, "month": 4, "categories": {"M-M20": {"distance": 10, "rank": 136, "pace": 284000000000, "time": 2845.7}}, "weekday": "wednesday", "livingplace": "Clarens"}}, "location": "Evionnaz"}, "Tour du Chablais #5 Morgins": {"latitude": 46.3603257, "longitude": 6.931504599999999, "race": "Tour du Chablais #5 Morgins", "date": {"mer. 01.05.2013": {"year": 2013, "day": 1, "month": 5, "categories": {"M-M20": {"distance": 8, "rank": 130, "pace": 299000000000, "time": 2273.0}}, "weekday": "wednesday", "livingplace": "Clarens"}}, "location": "Roche VD"}}, "birth": 1978}