{"name": "Cottier C\u00e9dric", "sex": "M", "races": {"BCN Tour La Chaux-de-Fonds": {"latitude": 46.9262933, "longitude": 6.6324944, "race": "BCN Tour La Chaux-de-Fonds", "date": {"mer. 23.05.2012": {"year": 2012, "day": 23, "month": 5, "categories": {"HE": {"distance": 11, "rank": 204, "pace": 341000000000, "time": 3685.4}}, "weekday": "wednesday", "livingplace": "Echallens"}}, "location": "Couvet"}, "BCN Tour Les Ponts-de-Martel": {"latitude": 46.999113, "longitude": 6.733554799999999, "race": "BCN Tour Les Ponts-de-Martel", "date": {"mer. 09.05.2012": {"year": 2012, "day": 9, "month": 5, "categories": {"HE": {"distance": 10, "rank": 228, "pace": 349000000000, "time": 3595.2}}, "weekday": "wednesday", "livingplace": "Echallens"}}, "location": "Les Ponts-de-Martel"}, "BCN Tour Neuch\u00e2tel": {"latitude": 46.9899874, "longitude": 6.9292732, "race": "BCN Tour Neuch\u00e2tel", "date": {"mer. 30.05.2012": {"year": 2012, "day": 30, "month": 5, "categories": {"HE": {"distance": 11, "rank": 231, "pace": 362000000000, "time": 4064.6}}, "weekday": "wednesday", "livingplace": "Echallens"}}, "location": "Neuch\u00e2tel"}, "Lausanne Marathon": {"latitude": 46.5196535, "longitude": 6.6322734, "race": "Lausanne Marathon", "date": {"dim. 26.10.2014": {"year": 2014, "day": 26, "month": 10, "categories": {"10-H20": {"distance": 10, "rank": 411, "pace": 310000000000, "time": 3107.5}}, "weekday": "sunday", "livingplace": "Villars le Terroir"}}, "location": "Lausanne"}, "BCN Tour Couvet": {"latitude": 47.0624261, "longitude": 6.9175754, "race": "BCN Tour Couvet", "date": {"mer. 02.05.2012": {"year": 2012, "day": 2, "month": 5, "categories": {"HE": {"distance": 11, "rank": 186, "pace": 346000000000, "time": 3865.1}}, "weekday": "wednesday", "livingplace": "Echallens"}}, "location": "Ch\u00e9zard-St-Martin"}, "BCN Tour Colombier": {"latitude": 47.1034892, "longitude": 6.832783800000001, "race": "BCN Tour Colombier", "date": {"mer. 16.05.2012": {"year": 2012, "day": 16, "month": 5, "categories": {"HE": {"distance": 11, "rank": 204, "pace": 327000000000, "time": 3532.1}}, "weekday": "wednesday", "livingplace": "Echallens"}}, "location": "La Chaux-de-Fonds"}, "BCN Tour Cornaux": {"latitude": 46.9668714, "longitude": 6.8589727, "race": "BCN Tour Cornaux", "date": {"mer. 25.04.2012": {"year": 2012, "day": 25, "month": 4, "categories": {"HE": {"distance": 11, "rank": 213, "pace": 405000000000, "time": 4454.0}}, "weekday": "wednesday", "livingplace": "Echallens"}}, "location": "Colombier NE"}}, "birth": 1986}