{"name": "Cottier Rapha\u00ebl", "sex": "M", "races": {"Tour du Chablais #1 Roche": {"latitude": 46.2957462, "longitude": 6.9916269, "race": "Tour du Chablais #1 Roche", "date": {"mer. 07.04.2010": {"year": 2010, "day": 7, "month": 4, "categories": {"M-M20": {"distance": 9, "rank": 191, "pace": 315000000000, "time": 2821.6}}, "weekday": "wednesday", "livingplace": "Choex"}}, "location": "Ollon VD"}, "Tour du Chablais #2 Rennaz": {"latitude": 46.3835529, "longitude": 6.854975199999999, "race": "Tour du Chablais #2 Rennaz", "date": {"mer. 04.05.2011": {"year": 2011, "day": 4, "month": 5, "categories": {"M-M20": {"distance": 9, "rank": 141, "pace": 278000000000, "time": 2602.5}}, "weekday": "wednesday", "livingplace": "Choex"}}, "location": "Bouveret"}, "Tour du Chablais #6 Mouthey": {"latitude": 46.3190253, "longitude": 6.970566, "race": "Tour du Chablais #6 Mouthey", "date": {"mer. 12.05.2010": {"year": 2010, "day": 12, "month": 5, "categories": {"M-M20": {"distance": 9, "rank": 140, "pace": 278000000000, "time": 2561.8}}, "weekday": "wednesday", "livingplace": "Choex"}}, "location": "Aigle"}, "Tour du Chablais #4 Yvorne": {"latitude": NaN, "longitude": NaN, "race": "Tour du Chablais #4 Yvorne", "date": {"mer. 28.04.2010": {"year": 2010, "day": 28, "month": 4, "categories": {"M-M20": {"distance": 8, "rank": 122, "pace": 298000000000, "time": 2471.0}}, "weekday": "wednesday", "livingplace": "Choex"}}, "location": "Les Mosses"}, "Tour du Chablais #1 Lavey": {"latitude": 46.2957462, "longitude": 6.9916269, "race": "Tour du Chablais #1 Lavey", "date": {"mer. 27.04.2011": {"year": 2011, "day": 27, "month": 4, "categories": {"M-M20": {"distance": 9, "rank": 134, "pace": 282000000000, "time": 2542.1}}, "weekday": "wednesday", "livingplace": "Choex"}}, "location": "Ollon VD"}, "Tour du Chablais #5 Les Mosses": {"latitude": 46.3603257, "longitude": 6.931504599999999, "race": "Tour du Chablais #5 Les Mosses", "date": {"mer. 25.05.2011": {"year": 2011, "day": 25, "month": 5, "categories": {"M-M20": {"distance": 8, "rank": 140, "pace": 305000000000, "time": 2441.8}}, "weekday": "wednesday", "livingplace": "Choex"}}, "location": "Roche VD"}, "Tour du Chablais #4 Morgins": {"latitude": NaN, "longitude": NaN, "race": "Tour du Chablais #4 Morgins", "date": {"mer. 18.05.2011": {"year": 2011, "day": 18, "month": 5, "categories": {"M-M20": {"distance": 8, "rank": 118, "pace": 289000000000, "time": 2417.9}}, "weekday": "wednesday", "livingplace": "Choex"}}, "location": "Les Mosses"}, "Tour du Chablais #3 Le Bouveret": {"latitude": 46.1782231, "longitude": 7.0223787, "race": "Tour du Chablais #3 Le Bouveret", "date": {"mer. 11.05.2011": {"year": 2011, "day": 11, "month": 5, "categories": {"M-M20": {"distance": 10, "rank": 174, "pace": 288000000000, "time": 2884.9}}, "weekday": "wednesday", "livingplace": "Choex"}}, "location": "Evionnaz"}, "Tour du Chablais #6 Aigle": {"latitude": 46.3190253, "longitude": 6.970566, "race": "Tour du Chablais #6 Aigle", "date": {"mer. 01.06.2011": {"year": 2011, "day": 1, "month": 6, "categories": {"M-M20": {"distance": 10, "rank": 132, "pace": 271000000000, "time": 2771.5}}, "weekday": "wednesday", "livingplace": "Choex"}}, "location": "Aigle"}, "Tour du Chablais #3 Bex": {"latitude": 46.1782231, "longitude": 7.0223787, "race": "Tour du Chablais #3 Bex", "date": {"mer. 21.04.2010": {"year": 2010, "day": 21, "month": 4, "categories": {"M-M20": {"distance": 10, "rank": 169, "pace": 313000000000, "time": 3139.9}}, "weekday": "wednesday", "livingplace": "Choex"}}, "location": "Evionnaz"}, "Tour du Chablais #2 St-Gingolph": {"latitude": 46.3835529, "longitude": 6.854975199999999, "race": "Tour du Chablais #2 St-Gingolph", "date": {"mer. 14.04.2010": {"year": 2010, "day": 14, "month": 4, "categories": {"M-M20": {"distance": 8, "rank": 127, "pace": 318000000000, "time": 2663.4}}, "weekday": "wednesday", "livingplace": "Choex"}}, "location": "Bouveret"}}, "birth": 1975}