{"name": "Coutaz Martial", "sex": "M", "races": {"Tour du Chablais #1 Roche": {"latitude": 46.2957462, "longitude": 6.9916269, "race": "Tour du Chablais #1 Roche", "date": {"mer. 07.04.2010": {"year": 2010, "day": 7, "month": 4, "categories": {"M-M50": {"distance": 9, "rank": 73, "pace": 328000000000, "time": 2939.6}}, "weekday": "wednesday", "livingplace": "St Maurice"}, "mer. 03.04.2013": {"year": 2013, "day": 3, "month": 4, "categories": {"M-M50": {"distance": 9, "rank": 89, "pace": 331000000000, "time": 2937.3}}, "weekday": "wednesday", "livingplace": "St Maurice"}}, "location": "Ollon VD"}, "Tour du Chablais #2 Rennaz": {"latitude": 46.3835529, "longitude": 6.854975199999999, "race": "Tour du Chablais #2 Rennaz", "date": {"mer. 04.05.2011": {"year": 2011, "day": 4, "month": 5, "categories": {"M-M50": {"distance": 9, "rank": 89, "pace": 324000000000, "time": 3029.5}}, "weekday": "wednesday", "livingplace": "St Maurice"}}, "location": "Bouveret"}, "Tour du Chablais #4 Morgins": {"latitude": NaN, "longitude": NaN, "race": "Tour du Chablais #4 Morgins", "date": {"mer. 18.05.2011": {"year": 2011, "day": 18, "month": 5, "categories": {"M-M50": {"distance": 8, "rank": 75, "pace": 358000000000, "time": 2992.2}}, "weekday": "wednesday", "livingplace": "St Maurice"}}, "location": "Les Mosses"}, "Tour du Chablais #6 Monthey": {"latitude": 46.3190253, "longitude": 6.970566, "race": "Tour du Chablais #6 Monthey", "date": {"mer. 08.05.2013": {"year": 2013, "day": 8, "month": 5, "categories": {"M-M50": {"distance": 9, "rank": 78, "pace": 327000000000, "time": 3050.1}}, "weekday": "wednesday", "livingplace": "St Maurice"}}, "location": "Aigle"}, "20km de Lausanne": {"latitude": 46.5196535, "longitude": 6.6322734, "race": "20km de Lausanne", "date": {"sam. 30.04.2011": {"year": 2011, "day": 30, "month": 4, "categories": {"10-H50": {"distance": 10, "rank": 180, "pace": 337000000000, "time": 3378.2}}, "weekday": "saturday", "livingplace": "St Maurice"}, "sam. 24.04.2010": {"year": 2010, "day": 24, "month": 4, "categories": {"10-H50": {"distance": 10, "rank": 192, "pace": 356000000000, "time": 3561.6}}, "weekday": "saturday", "livingplace": "St Maurice"}}, "location": "Lausanne"}, "Tour du Chablais #1 Lavey": {"latitude": 46.2957462, "longitude": 6.9916269, "race": "Tour du Chablais #1 Lavey", "date": {"mer. 27.04.2011": {"year": 2011, "day": 27, "month": 4, "categories": {"M-M50": {"distance": 9, "rank": 88, "pace": 332000000000, "time": 2993.6}}, "weekday": "wednesday", "livingplace": "St Maurice"}}, "location": "Ollon VD"}, "Tour du Chablais #2 Yvorne": {"latitude": 46.3835529, "longitude": 6.854975199999999, "race": "Tour du Chablais #2 Yvorne", "date": {"mer. 10.04.2013": {"year": 2013, "day": 10, "month": 4, "categories": {"M-M50": {"distance": 8, "rank": 74, "pace": 370000000000, "time": 2966.3}}, "weekday": "wednesday", "livingplace": "St Maurice"}}, "location": "Bouveret"}, "Tour du Chablais #2 St-Gingolph": {"latitude": 46.3835529, "longitude": 6.854975199999999, "race": "Tour du Chablais #2 St-Gingolph", "date": {"mer. 14.04.2010": {"year": 2010, "day": 14, "month": 4, "categories": {"M-M50": {"distance": 8, "rank": 70, "pace": 355000000000, "time": 2968.5}}, "weekday": "wednesday", "livingplace": "St Maurice"}}, "location": "Bouveret"}, "Tour du Chablais #5 Bex": {"latitude": 46.3603257, "longitude": 6.931504599999999, "race": "Tour du Chablais #5 Bex", "date": {"mer. 09.05.2012": {"year": 2012, "day": 9, "month": 5, "categories": {"M-M50": {"distance": 9, "rank": 57, "pace": 311000000000, "time": 2758.0}}, "weekday": "wednesday", "livingplace": "St Maurice"}}, "location": "Roche VD"}, "Tour du Chablais #4 Champ\u00e9ry": {"latitude": NaN, "longitude": NaN, "race": "Tour du Chablais #4 Champ\u00e9ry", "date": {"mer. 02.05.2012": {"year": 2012, "day": 2, "month": 5, "categories": {"M-M50": {"distance": 8, "rank": 65, "pace": 319000000000, "time": 2648.4}}, "weekday": "wednesday", "livingplace": "St Maurice"}}, "location": "Les Mosses"}, "Tour du Chablais #5 Morgins": {"latitude": 46.3603257, "longitude": 6.931504599999999, "race": "Tour du Chablais #5 Morgins", "date": {"mer. 01.05.2013": {"year": 2013, "day": 1, "month": 5, "categories": {"M-M50": {"distance": 8, "rank": 60, "pace": 348000000000, "time": 2650.0}}, "weekday": "wednesday", "livingplace": "St Maurice"}}, "location": "Roche VD"}, "Tour du Chablais #5 Les Mosses": {"latitude": 46.3603257, "longitude": 6.931504599999999, "race": "Tour du Chablais #5 Les Mosses", "date": {"mer. 25.05.2011": {"year": 2011, "day": 25, "month": 5, "categories": {"M-M50": {"distance": 8, "rank": 68, "pace": 364000000000, "time": 2918.1}}, "weekday": "wednesday", "livingplace": "St Maurice"}}, "location": "Roche VD"}, "Tour du Chablais #6 Aigle": {"latitude": 46.3190253, "longitude": 6.970566, "race": "Tour du Chablais #6 Aigle", "date": {"mer. 01.06.2011": {"year": 2011, "day": 1, "month": 6, "categories": {"M-M50": {"distance": 10, "rank": 77, "pace": 320000000000, "time": 3265.5}}, "weekday": "wednesday", "livingplace": "St Maurice"}}, "location": "Aigle"}, "Tour du Chablais #3 Bex": {"latitude": 46.1782231, "longitude": 7.0223787, "race": "Tour du Chablais #3 Bex", "date": {"mer. 21.04.2010": {"year": 2010, "day": 21, "month": 4, "categories": {"M-M50": {"distance": 10, "rank": 74, "pace": 337000000000, "time": 3375.2}}, "weekday": "wednesday", "livingplace": "St Maurice"}}, "location": "Evionnaz"}, "Tour du Chablais #3 Collombey-Muraz": {"latitude": 46.1782231, "longitude": 7.0223787, "race": "Tour du Chablais #3 Collombey-Muraz", "date": {"mer. 25.04.2012": {"year": 2012, "day": 25, "month": 4, "categories": {"M-M50": {"distance": 9, "rank": 72, "pace": 318000000000, "time": 2863.9}}, "weekday": "wednesday", "livingplace": "St Maurice"}}, "location": "Evionnaz"}, "Tour du Chablais #1 Martigny": {"latitude": 46.2957462, "longitude": 6.9916269, "race": "Tour du Chablais #1 Martigny", "date": {"mer. 23.04.2014": {"year": 2014, "day": 23, "month": 4, "categories": {"M-M50": {"distance": 9, "rank": 97, "pace": 333000000000, "time": 2831.1}}, "weekday": "wednesday", "livingplace": "St Maurice"}}, "location": "Ollon VD"}, "Tour du Chablais #4 St  Maurice": {"latitude": NaN, "longitude": NaN, "race": "Tour du Chablais #4 St  Maurice", "date": {"mer. 24.04.2013": {"year": 2013, "day": 24, "month": 4, "categories": {"M-M50": {"distance": 10, "rank": 72, "pace": 337000000000, "time": 3371.3}}, "weekday": "wednesday", "livingplace": "St Maurice"}}, "location": "Les Mosses"}, "Course de l'Escalade, Gen\u00e8ve": {"latitude": 46.2043907, "longitude": 6.1431577, "race": "Course de l'Escalade, Gen\u00e8ve", "date": {"sam. 05.12.2015": {"year": 2015, "day": 5, "month": 12, "categories": {"Esc-Hom4": {"distance": 7, "rank": 876, "pace": 338000000000, "time": 2477.1}}, "weekday": "saturday", "livingplace": "St Maurice"}}, "location": "Gen\u00e8ve"}, "Tour du Chablais #6 Mouthey": {"latitude": 46.3190253, "longitude": 6.970566, "race": "Tour du Chablais #6 Mouthey", "date": {"mer. 12.05.2010": {"year": 2010, "day": 12, "month": 5, "categories": {"M-M50": {"distance": 9, "rank": 64, "pace": 311000000000, "time": 2866.2}}, "weekday": "wednesday", "livingplace": "St Maurice"}}, "location": "Aigle"}, "Tour du Chablais #1 Montreux": {"latitude": 46.2957462, "longitude": 6.9916269, "race": "Tour du Chablais #1 Montreux", "date": {"mer. 11.04.2012": {"year": 2012, "day": 11, "month": 4, "categories": {"M-M50": {"distance": 8, "rank": 82, "pace": 346000000000, "time": 2631.4}}, "weekday": "wednesday", "livingplace": "St Maurice"}}, "location": "Ollon VD"}, "Tour du Chablais #6 Montreux": {"latitude": 46.3190253, "longitude": 6.970566, "race": "Tour du Chablais #6 Montreux", "date": {"mer. 16.05.2012": {"year": 2012, "day": 16, "month": 5, "categories": {"M-M50": {"distance": 9, "rank": 72, "pace": 302000000000, "time": 2795.5}}, "weekday": "wednesday", "livingplace": "St Maurice"}}, "location": "Aigle"}, "Tour du Chablais #4 Yvorne": {"latitude": NaN, "longitude": NaN, "race": "Tour du Chablais #4 Yvorne", "date": {"mer. 28.04.2010": {"year": 2010, "day": 28, "month": 4, "categories": {"M-M50": {"distance": 8, "rank": 67, "pace": 359000000000, "time": 2973.1}}, "weekday": "wednesday", "livingplace": "St Maurice"}}, "location": "Les Mosses"}, "Tour du Chablais #2 Bex": {"latitude": 46.3835529, "longitude": 6.854975199999999, "race": "Tour du Chablais #2 Bex", "date": {"mer. 18.04.2012": {"year": 2012, "day": 18, "month": 4, "categories": {"M-M50": {"distance": 8, "rank": 72, "pace": 327000000000, "time": 2623.6}}, "weekday": "wednesday", "livingplace": "St Maurice"}}, "location": "Bouveret"}, "Tour du Chablais #3 Bouveret": {"latitude": 46.1782231, "longitude": 7.0223787, "race": "Tour du Chablais #3 Bouveret", "date": {"mer. 17.04.2013": {"year": 2013, "day": 17, "month": 4, "categories": {"M-M50": {"distance": 10, "rank": 73, "pace": 339000000000, "time": 3394.9}}, "weekday": "wednesday", "livingplace": "St Maurice"}}, "location": "Evionnaz"}}, "birth": 1958}