{"name": "Crettenand Dominik", "sex": "M", "races": {"Tour du Pays de Vaud etape 5 - La Sarraz": {"latitude": 46.5993131, "longitude": 6.539251200000001, "race": "Tour du Pays de Vaud etape 5 - La Sarraz", "date": {"mer. 10.09.2008": {"year": 2008, "day": 10, "month": 9, "categories": {"HomSen2": {"distance": 9, "rank": 1, "pace": 198000000000, "time": 1710.6}}, "weekday": "wednesday", "livingplace": "Riddes"}}, "location": "Penthaz"}, "Tour du Pays de Vaud #2 - Genolier": {"latitude": 46.5955273, "longitude": 6.7702883, "race": "Tour du Pays de Vaud #2 - Genolier", "date": {"mer. 18.08.2010": {"year": 2010, "day": 18, "month": 8, "categories": {"HSen2": {"distance": 8, "rank": 3, "pace": 219000000000, "time": 1779.5}}, "weekday": "wednesday", "livingplace": "Riddes"}}, "location": "M\u00e9zi\u00e8res VD"}, "Tour du Chablais #6 Mouthey": {"latitude": 46.3190253, "longitude": 6.970566, "race": "Tour du Chablais #6 Mouthey", "date": {"mer. 12.05.2010": {"year": 2010, "day": 12, "month": 5, "categories": {"M-M40": {"distance": 9, "rank": 9, "pace": 216000000000, "time": 1989.6}}, "weekday": "wednesday", "livingplace": "Riddes"}}, "location": "Aigle"}, "Thuner Stadtlauf, Thun": {"latitude": 46.7579868, "longitude": 7.6279881, "race": "Thuner Stadtlauf, Thun", "date": {"dim. 26.08.2007": {"year": 2007, "day": 26, "month": 8, "categories": {"10/M40": {"distance": 10, "rank": 1, "pace": 195000000000, "time": 1954.6}}, "weekday": "sunday", "livingplace": "Riddes"}, "dim. 22.08.2010": {"year": 2010, "day": 22, "month": 8, "categories": {"10-M40": {"distance": 10, "rank": 6, "pace": 217000000000, "time": 2175.1}}, "weekday": "sunday", "livingplace": "bike evasion sports"}, "dim. 26.08.2001": {"year": 2001, "day": 26, "month": 8, "categories": {"M30": {"distance": 10, "rank": 5, "pace": 201000000000, "time": 2011.4}}, "weekday": "sunday", "livingplace": "Riddes"}, "dim. 27.08.2006": {"year": 2006, "day": 27, "month": 8, "categories": {"M40": {"distance": 10, "rank": 1, "pace": 193000000000, "time": 1930.0}}, "weekday": "sunday", "livingplace": "riddes"}, "dim. 24.08.2008": {"year": 2008, "day": 24, "month": 8, "categories": {"10-M40": {"distance": 10, "rank": 1, "pace": 199000000000, "time": 1999.3}}, "weekday": "sunday", "livingplace": "Riddes"}, "dim. 01.09.2002": {"year": 2002, "day": 1, "month": 9, "categories": {"M30": {"distance": 10, "rank": 4, "pace": 189000000000, "time": 1890.8}}, "weekday": "sunday", "livingplace": "Riddes"}}, "location": "Thun"}, "ASICS Bremgarter Reusslauf": {"latitude": 47.34917739999999, "longitude": 8.3397905, "race": "ASICS Bremgarter Reusslauf", "date": {"sam. 25.02.2006": {"year": 2006, "day": 25, "month": 2, "categories": {"M40": {"distance": 11, "rank": 1, "pace": 193000000000, "time": 2036.6}}, "weekday": "saturday", "livingplace": "Riddes"}, "sam. 23.02.2008": {"year": 2008, "day": 23, "month": 2, "categories": {"M40": {"distance": 11, "rank": 1, "pace": 195000000000, "time": 2155.3}}, "weekday": "saturday", "livingplace": "Martigny"}}, "location": "Bremgarten AG"}, "Tour du Pays de Vaud etape 2 - Genolier": {"latitude": 46.5955273, "longitude": 6.7702883, "race": "Tour du Pays de Vaud etape 2 - Genolier", "date": {"mer. 20.08.2008": {"year": 2008, "day": 20, "month": 8, "categories": {"HomSen2": {"distance": 8, "rank": 1, "pace": 206000000000, "time": 1717.9}}, "weekday": "wednesday", "livingplace": "Riddes"}}, "location": "M\u00e9zi\u00e8res VD"}, "Tour du Pays de Vaud etape 3 - Aubonne": {"latitude": 46.7829756, "longitude": 6.5728678, "race": "Tour du Pays de Vaud etape 3 - Aubonne", "date": {"mer. 27.08.2008": {"year": 2008, "day": 27, "month": 8, "categories": {"HomSen2": {"distance": 8, "rank": 1, "pace": 219000000000, "time": 1710.7}}, "weekday": "wednesday", "livingplace": "Riddes"}, "mer. 29.08.2007": {"year": 2007, "day": 29, "month": 8, "categories": {"HS2": {"distance": 8, "rank": 1, "pace": 206000000000, "time": 1673.0}}, "weekday": "wednesday", "livingplace": "Riddes"}}, "location": "Champvent"}, "Lausanne Marathon": {"latitude": 46.5196535, "longitude": 6.6322734, "race": "Lausanne Marathon", "date": {"dim. 31.10.2010": {"year": 2010, "day": 31, "month": 10, "categories": {"10-H3": {"distance": 10, "rank": 4, "pace": 209000000000, "time": 2093.1}}, "weekday": "sunday", "livingplace": "Riddes"}}, "location": "Lausanne"}, "Tour du Pays de Vaud etape 1 - Le Mont sur Lausanne": {"latitude": 46.7784736, "longitude": 6.641183, "race": "Tour du Pays de Vaud etape 1 - Le Mont sur Lausanne", "date": {"mer. 15.08.2007": {"year": 2007, "day": 15, "month": 8, "categories": {"HS2": {"distance": 8, "rank": 1, "pace": 203000000000, "time": 1685.4}}, "weekday": "wednesday", "livingplace": "Riddes"}}, "location": "Yverdon-les-Bains"}, "Corrida Bulloise, Bulle": {"latitude": 46.6154512, "longitude": 7.057726799999999, "race": "Corrida Bulloise, Bulle", "date": {"sam. 15.11.2008": {"year": 2008, "day": 15, "month": 11, "categories": {"M40": {"distance": 8, "rank": 4, "pace": 205000000000, "time": 1643.5}}, "weekday": "saturday", "livingplace": "Riddes"}}, "location": "Bulle"}, "Tour du pays de Vaud #1 \u2013 St  Prex": {"latitude": 46.7784736, "longitude": 6.641183, "race": "Tour du pays de Vaud #1 \u2013 St  Prex", "date": {"mer. 11.08.2010": {"year": 2010, "day": 11, "month": 8, "categories": {"HSen2": {"distance": 8, "rank": 1, "pace": 225000000000, "time": 1894.3}}, "weekday": "wednesday", "livingplace": "Riddes"}}, "location": "Yverdon-les-Bains"}}, "birth": 1966}