{"name": "Cristiano Fabio", "sex": "M", "races": {"Tour du Pays de Vaud printanier #2 Yverdon-les-Bains": {"latitude": 46.6698891, "longitude": 6.7975224, "race": "Tour du Pays de Vaud printanier #2 Yverdon-les-Bains", "date": {"mer. 11.06.2014": {"year": 2014, "day": 11, "month": 6, "categories": {"H-Sen1": {"distance": 9, "rank": 55, "pace": 312000000000, "time": 2846.5}}, "weekday": "wednesday", "livingplace": "Etoy"}}, "location": "Moudon"}, "Tour du Pays de Vaud printanier #1 Moudon": {"latitude": 46.3832683, "longitude": 6.2347852, "race": "Tour du Pays de Vaud printanier #1 Moudon", "date": {"mer. 04.06.2014": {"year": 2014, "day": 4, "month": 6, "categories": {"H-Sen1": {"distance": 8, "rank": 63, "pace": 293000000000, "time": 2463.7}}, "weekday": "wednesday", "livingplace": "Etoy"}}, "location": "Nyon"}, "Course de l'Escalade, Gen\u00e8ve": {"latitude": 46.2043907, "longitude": 6.1431577, "race": "Course de l'Escalade, Gen\u00e8ve", "date": {"sam. 03.12.2011": {"year": 2011, "day": 3, "month": 12, "categories": {"H-H2": {"distance": 7, "rank": 1127, "pace": 309000000000, "time": 2244.7}}, "weekday": "saturday", "livingplace": "Gland"}}, "location": "Gen\u00e8ve"}, "Semi-Marathon de la C\u00f4te, Allaman-Nyon": {"latitude": 46.3832683, "longitude": 6.2347852, "race": "Semi-Marathon de la C\u00f4te, Allaman-Nyon", "date": {"dim. 14.09.2014": {"year": 2014, "day": 14, "month": 9, "categories": {"21-H30": {"distance": 21, "rank": 118, "pace": 297000000000, "time": 6267.2}}, "weekday": "sunday", "livingplace": "Etoy"}}, "location": "Nyon"}, "Tour du Pays de Vaud printanier #1 Chavornay": {"latitude": 46.3832683, "longitude": 6.2347852, "race": "Tour du Pays de Vaud printanier #1 Chavornay", "date": {"mer. 30.05.2012": {"year": 2012, "day": 30, "month": 5, "categories": {"H-Sen1": {"distance": 9, "rank": 38, "pace": 294000000000, "time": 2634.7}}, "weekday": "wednesday", "livingplace": "Gland"}}, "location": "Nyon"}, "Tour du pays de Vaud #1 - Mezi\u00e8res": {"latitude": 46.7784736, "longitude": 6.641183, "race": "Tour du pays de Vaud #1 - Mezi\u00e8res", "date": {"mer. 10.08.2011": {"year": 2011, "day": 10, "month": 8, "categories": {"H-Sen1": {"distance": 9, "rank": 119, "pace": 309000000000, "time": 2632.1}}, "weekday": "wednesday", "livingplace": "Gland"}}, "location": "Yverdon-les-Bains"}, "Tour du Pays de Vaud #3 - Mezi\u00e8res": {"latitude": 46.7784736, "longitude": 6.641183, "race": "Tour du Pays de Vaud #3 - Mezi\u00e8res", "date": {"mer. 22.08.2012": {"year": 2012, "day": 22, "month": 8, "categories": {"H-Sen1": {"distance": 8, "rank": 111, "pace": 324000000000, "time": 2726.4}}, "weekday": "wednesday", "livingplace": "Gland"}}, "location": "Yverdon-les-Bains"}, "Tour du pays de Vaud #1 - Penthaz": {"latitude": 46.5993131, "longitude": 6.539251200000001, "race": "Tour du pays de Vaud #1 - Penthaz", "date": {"mer. 08.08.2012": {"year": 2012, "day": 8, "month": 8, "categories": {"H-Sen1": {"distance": 9, "rank": 83, "pace": 288000000000, "time": 2457.8}}, "weekday": "wednesday", "livingplace": "Gland"}}, "location": "Penthaz"}, "Tour du Pays de Vaud #3 - Chavornay": {"latitude": 46.7784736, "longitude": 6.641183, "race": "Tour du Pays de Vaud #3 - Chavornay", "date": {"mer. 28.08.2013": {"year": 2013, "day": 28, "month": 8, "categories": {"H-Sen1": {"distance": 9, "rank": 65, "pace": 270000000000, "time": 2409.6}}, "weekday": "wednesday", "livingplace": "Etoy"}}, "location": "Yverdon-les-Bains"}, "Tour du Pays de Vaud #4, La Sarraz": {"latitude": 46.7088129, "longitude": 6.5707689, "race": "Tour du Pays de Vaud #4, La Sarraz", "date": {"mer. 03.09.2014": {"year": 2014, "day": 3, "month": 9, "categories": {"H-Sen1": {"distance": 9, "rank": 84, "pace": 288000000000, "time": 2455.3}}, "weekday": "wednesday", "livingplace": "Etoy"}}, "location": "Chavornay"}, "Tour du Pays de Vaud #3, Chavornay": {"latitude": 46.7784736, "longitude": 6.641183, "race": "Tour du Pays de Vaud #3, Chavornay", "date": {"mer. 27.08.2014": {"year": 2014, "day": 27, "month": 8, "categories": {"H-Sen1": {"distance": 9, "rank": 91, "pace": 304000000000, "time": 2621.1}}, "weekday": "wednesday", "livingplace": "Etoy"}}, "location": "Yverdon-les-Bains"}, "Tour du Pays de Vaud #1, Penthaz": {"latitude": 46.5993131, "longitude": 6.539251200000001, "race": "Tour du Pays de Vaud #1, Penthaz", "date": {"mer. 13.08.2014": {"year": 2014, "day": 13, "month": 8, "categories": {"H-Sen1": {"distance": 9, "rank": 66, "pace": 276000000000, "time": 2358.3}}, "weekday": "wednesday", "livingplace": "Etoy"}}, "location": "Penthaz"}, "Tour du Pays de Vaud #2 - Mezi\u00e8res": {"latitude": 46.5955273, "longitude": 6.7702883, "race": "Tour du Pays de Vaud #2 - Mezi\u00e8res", "date": {"mer. 21.08.2013": {"year": 2013, "day": 21, "month": 8, "categories": {"H-Sen1": {"distance": 8, "rank": 52, "pace": 289000000000, "time": 2345.7}}, "weekday": "wednesday", "livingplace": "Etoy"}}, "location": "M\u00e9zi\u00e8res VD"}, "Les Traine-Savates, Cheseaux-sur-Lausanne": {"latitude": 46.585452, "longitude": 6.6047712, "race": "Les Traine-Savates, Cheseaux-sur-Lausanne", "date": {"sam. 13.04.2013": {"year": 2013, "day": 13, "month": 4, "categories": {"10-M20": {"distance": 10, "rank": 97, "pace": 267000000000, "time": 2752.5}}, "weekday": "saturday", "livingplace": "Etoy"}, "sam. 14.04.2012": {"year": 2012, "day": 14, "month": 4, "categories": {"10-M20": {"distance": 10, "rank": 147, "pace": 285000000000, "time": 2964.7}}, "weekday": "saturday", "livingplace": "Gland"}}, "location": "Cheseaux-sur-Lausanne"}, "Lausanne Marathon": {"latitude": 46.5196535, "longitude": 6.6322734, "race": "Lausanne Marathon", "date": {"dim. 30.10.2011": {"year": 2011, "day": 30, "month": 10, "categories": {"21-H2": {"distance": 21, "rank": 499, "pace": 308000000000, "time": 6499.3}}, "weekday": "sunday", "livingplace": "Gland"}, "dim. 26.10.2014": {"year": 2014, "day": 26, "month": 10, "categories": {"21-H30": {"distance": 21, "rank": 758, "pace": 340000000000, "time": 7176.6}}, "weekday": "sunday", "livingplace": "Etoy"}, "dim. 28.10.2012": {"year": 2012, "day": 28, "month": 10, "categories": {"21-H2": {"distance": 21, "rank": 366, "pace": 295000000000, "time": 6226.0}}, "weekday": "sunday", "livingplace": "Gland"}}, "location": "Lausanne"}, "Tour du pays de Vaud #6 - St  Prex": {"latitude": 46.4829113, "longitude": 6.458343500000001, "race": "Tour du pays de Vaud #6 - St  Prex", "date": {"mer. 14.09.2011": {"year": 2011, "day": 14, "month": 9, "categories": {"H-Sen1": {"distance": 9, "rank": 105, "pace": 288000000000, "time": 2477.0}}, "weekday": "wednesday", "livingplace": "Gland"}}, "location": "St-Prex"}, "Tour du Pays de Vaud printanier #3 - Yens": {"latitude": 46.7829756, "longitude": 6.5728678, "race": "Tour du Pays de Vaud printanier #3 - Yens", "date": {"mer. 18.06.2014": {"year": 2014, "day": 18, "month": 6, "categories": {"H-Sen1": {"distance": 9, "rank": 63, "pace": 286000000000, "time": 2606.5}}, "weekday": "wednesday", "livingplace": "Etoy"}}, "location": "Champvent"}, "Tour du Pays de Vaud #4 - La Sarraz": {"latitude": 46.7088129, "longitude": 6.5707689, "race": "Tour du Pays de Vaud #4 - La Sarraz", "date": {"mer. 29.08.2012": {"year": 2012, "day": 29, "month": 8, "categories": {"H-Sen1": {"distance": 9, "rank": 93, "pace": 282000000000, "time": 2397.3}}, "weekday": "wednesday", "livingplace": "Gland"}, "mer. 04.09.2013": {"year": 2013, "day": 4, "month": 9, "categories": {"H-Sen1": {"distance": 9, "rank": 52, "pace": 276000000000, "time": 2350.3}}, "weekday": "wednesday", "livingplace": "Etoy"}}, "location": "Chavornay"}, "20km de Lausanne": {"latitude": 46.5196535, "longitude": 6.6322734, "race": "20km de Lausanne", "date": {"sam. 30.04.2011": {"year": 2011, "day": 30, "month": 4, "categories": {"10-H30": {"distance": 10, "rank": 353, "pace": 298000000000, "time": 2986.0}}, "weekday": "saturday", "livingplace": "Le Brassus"}, "sam. 24.04.2010": {"year": 2010, "day": 24, "month": 4, "categories": {"10-H20": {"distance": 10, "rank": 302, "pace": 310000000000, "time": 3108.3}}, "weekday": "saturday", "livingplace": "Le Sentier"}, "sam. 28.04.2007": {"year": 2007, "day": 28, "month": 4, "categories": {"10H20": {"distance": 10, "rank": 382, "pace": 338000000000, "time": 3381.5}}, "weekday": "saturday", "livingplace": "Le Sentier"}, "sam. 28.04.2012": {"year": 2012, "day": 28, "month": 4, "categories": {"10-H30": {"distance": 10, "rank": 190, "pace": 278000000000, "time": 2788.0}}, "weekday": "saturday", "livingplace": "Gland"}, "sam. 27.04.2013": {"year": 2013, "day": 27, "month": 4, "categories": {"10-H30": {"distance": 10, "rank": 114, "pace": 255000000000, "time": 2556.1}}, "weekday": "saturday", "livingplace": "Etoy"}, "sam. 25.04.2009": {"year": 2009, "day": 25, "month": 4, "categories": {"10-H20": {"distance": 10, "rank": 415, "pace": 321000000000, "time": 3215.9}}, "weekday": "saturday", "livingplace": "Sport Attitude Scuderi 10"}, "sam. 26.04.2014": {"year": 2014, "day": 26, "month": 4, "categories": {"10-H30": {"distance": 10, "rank": 585, "pace": 315000000000, "time": 3159.1}}, "weekday": "saturday", "livingplace": "Sport Attitude   Scuderi"}}, "location": "Lausanne"}, "Tour du Pays de Vaud printanier #2 Yens": {"latitude": 46.6698891, "longitude": 6.7975224, "race": "Tour du Pays de Vaud printanier #2 Yens", "date": {"mer. 06.06.2012": {"year": 2012, "day": 6, "month": 6, "categories": {"H-Sen1": {"distance": 9, "rank": 38, "pace": 293000000000, "time": 2666.5}}, "weekday": "wednesday", "livingplace": "Gland"}}, "location": "Moudon"}}, "birth": 1981}