{"name": "Crivellaro Damiano", "sex": "M", "races": {"Grand Prix Craft, Neuch\u00e2tel": {"latitude": 46.9899874, "longitude": 6.9292732, "race": "Grand Prix Craft, Neuch\u00e2tel", "date": {"dim. 16.12.2007": {"year": 2007, "day": 16, "month": 12, "categories": {"HS1": {"distance": 7, "rank": 45, "pace": 268000000000, "time": 1879.3}}, "weekday": "sunday", "livingplace": "Colombier"}, "dim. 17.12.2006": {"year": 2006, "day": 17, "month": 12, "categories": {"HS1": {"distance": 7, "rank": 57, "pace": 263000000000, "time": 1841.0}}, "weekday": "sunday", "livingplace": "Colombier"}}, "location": "Neuch\u00e2tel"}, "Morat-Fribourg": {"latitude": 46.92922110000001, "longitude": 7.120184, "race": "Morat-Fribourg", "date": {"sam. 03.10.2009": {"year": 2009, "day": 3, "month": 10, "categories": {"C-M20": {"distance": 17, "rank": 1242, "pace": 316000000000, "time": 5430.3}}, "weekday": "saturday", "livingplace": "Groupe E 2"}}, "location": "Murten"}, "BCN Tour Neuch\u00e2tel": {"latitude": 46.9899874, "longitude": 6.9292732, "race": "BCN Tour Neuch\u00e2tel", "date": {"mer. 26.05.2010": {"year": 2010, "day": 26, "month": 5, "categories": {"HS2": {"distance": 10, "rank": 212, "pace": 394000000000, "time": 3825.7}}, "weekday": "wednesday", "livingplace": "Colombier"}}, "location": "Neuch\u00e2tel"}, "Lausanne Marathon": {"latitude": 46.5196535, "longitude": 6.6322734, "race": "Lausanne Marathon", "date": {"sam. 24.10.2015": {"year": 2015, "day": 24, "month": 10, "categories": {"21-H40": {"distance": 21, "rank": 424, "pace": 314000000000, "time": 6638.3}}, "weekday": "saturday", "livingplace": "Colombier"}}, "location": "Lausanne"}, "Course de l'Escalade, Gen\u00e8ve": {"latitude": 46.2043907, "longitude": 6.1431577, "race": "Course de l'Escalade, Gen\u00e8ve", "date": {"sam. 05.12.2009": {"year": 2009, "day": 5, "month": 12, "categories": {"Hommes2": {"distance": 7, "rank": 1031, "pace": 300000000000, "time": 2181.0}}, "weekday": "saturday", "livingplace": "Colombier"}}, "location": "Gen\u00e8ve"}, "20km de Lausanne": {"latitude": 46.5196535, "longitude": 6.6322734, "race": "20km de Lausanne", "date": {"sam. 25.04.2015": {"year": 2015, "day": 25, "month": 4, "categories": {"10-H45": {"distance": 10, "rank": 501, "pace": 418000000000, "time": 4181.7}}, "weekday": "saturday", "livingplace": "Travers"}}, "location": "Lausanne"}, "Kerzerslauf": {"latitude": 46.97488999999999, "longitude": 7.1954365, "race": "Kerzerslauf", "date": {"sam. 21.03.2009": {"year": 2009, "day": 21, "month": 3, "categories": {"15-M35": {"distance": 15, "rank": 283, "pace": 295000000000, "time": 4436.2}}, "weekday": "saturday", "livingplace": "Colombier"}, "sam. 18.03.2006": {"year": 2006, "day": 18, "month": 3, "categories": {"M35": {"distance": 15, "rank": 258, "pace": 293000000000, "time": 4398.0}}, "weekday": "saturday", "livingplace": "Colombier"}, "sam. 19.03.2005": {"year": 2005, "day": 19, "month": 3, "categories": {"M35": {"distance": 15, "rank": 284, "pace": 310000000000, "time": 4659.9}}, "weekday": "saturday", "livingplace": "Colombier"}, "sam. 17.03.2007": {"year": 2007, "day": 17, "month": 3, "categories": {"M35": {"distance": 15, "rank": 283, "pace": 290000000000, "time": 4353.7}}, "weekday": "saturday", "livingplace": "Colombier"}}, "location": "Kerzers"}, "Bieler Lauftage, Biel Bienne": {"latitude": 47.1367785, "longitude": 7.2467909, "race": "Bieler Lauftage, Biel Bienne", "date": {"ven. 09.06.2006": {"year": 2006, "day": 9, "month": 6, "categories": {"H/M35": {"distance": 21, "rank": 7, "pace": 310000000000, "time": 6548.6}}, "weekday": "friday", "livingplace": "Colombier"}}, "location": "Biel/Bienne"}}, "birth": 1970}