{"name": "Croisier Ariane", "sex": "F", "races": {"Tour du Chablais #2 Rennaz": {"latitude": 46.3835529, "longitude": 6.854975199999999, "race": "Tour du Chablais #2 Rennaz", "date": {"mer. 04.05.2011": {"year": 2011, "day": 4, "month": 5, "categories": {"F-F40": {"distance": 9, "rank": 75, "pace": 357000000000, "time": 3342.1}}, "weekday": "wednesday", "livingplace": "Bex"}}, "location": "Bouveret"}, "Tour du Chablais #1 Roche": {"latitude": 46.2957462, "longitude": 6.9916269, "race": "Tour du Chablais #1 Roche", "date": {"mer. 03.04.2013": {"year": 2013, "day": 3, "month": 4, "categories": {"F-F40": {"distance": 9, "rank": 71, "pace": 358000000000, "time": 3178.7}}, "weekday": "wednesday", "livingplace": "Bex"}}, "location": "Ollon VD"}, "Morat-Fribourg": {"latitude": 46.92922110000001, "longitude": 7.120184, "race": "Morat-Fribourg", "date": {"sam. 01.10.2011": {"year": 2011, "day": 1, "month": 10, "categories": {"17-W45": {"distance": 17, "rank": 117, "pace": 357000000000, "time": 6137.7}}, "weekday": "saturday", "livingplace": "Bex"}, "sam. 04.10.2008": {"year": 2008, "day": 4, "month": 10, "categories": {"C-W40": {"distance": 17, "rank": 231, "pace": 382000000000, "time": 6563.4}}, "weekday": "saturday", "livingplace": "Bex"}, "sam. 06.10.2007": {"year": 2007, "day": 6, "month": 10, "categories": {"C/W40": {"distance": 17, "rank": 150, "pace": 353000000000, "time": 6071.9}}, "weekday": "saturday", "livingplace": "Bex"}}, "location": "Murten"}, "Corrida Bulloise, Bulle": {"latitude": 46.6154512, "longitude": 7.057726799999999, "race": "Corrida Bulloise, Bulle", "date": {"sam. 17.11.2007": {"year": 2007, "day": 17, "month": 11, "categories": {"F40": {"distance": 6, "rank": 54, "pace": 318000000000, "time": 1913.3}}, "weekday": "saturday", "livingplace": "Bex"}}, "location": "Bulle"}, "Tour du Chablais #6 Monthey": {"latitude": 46.3190253, "longitude": 6.970566, "race": "Tour du Chablais #6 Monthey", "date": {"mer. 08.05.2013": {"year": 2013, "day": 8, "month": 5, "categories": {"F-F40": {"distance": 9, "rank": 50, "pace": 329000000000, "time": 3070.0}}, "weekday": "wednesday", "livingplace": "Bex"}}, "location": "Aigle"}, "Tour du Chablais #4 Morgins": {"latitude": NaN, "longitude": NaN, "race": "Tour du Chablais #4 Morgins", "date": {"mer. 18.05.2011": {"year": 2011, "day": 18, "month": 5, "categories": {"F-F40": {"distance": 8, "rank": 60, "pace": 363000000000, "time": 3032.4}}, "weekday": "wednesday", "livingplace": "Bex"}}, "location": "Les Mosses"}, "20km de Lausanne": {"latitude": 46.5196535, "longitude": 6.6322734, "race": "20km de Lausanne", "date": {"sam. 30.04.2011": {"year": 2011, "day": 30, "month": 4, "categories": {"10-F45": {"distance": 10, "rank": 153, "pace": 362000000000, "time": 3629.4}}, "weekday": "saturday", "livingplace": "Bex"}, "sam. 28.04.2007": {"year": 2007, "day": 28, "month": 4, "categories": {"20F40": {"distance": 20, "rank": 53, "pace": 350000000000, "time": 7008.4}}, "weekday": "saturday", "livingplace": "Bex"}, "sam. 25.04.2015": {"year": 2015, "day": 25, "month": 4, "categories": {"20-F50": {"distance": 20, "rank": 46, "pace": 344000000000, "time": 6884.9}}, "weekday": "saturday", "livingplace": "CAReisen"}, "sam. 22.04.2006": {"year": 2006, "day": 22, "month": 4, "categories": {"20/F40": {"distance": 20, "rank": 69, "pace": 359000000000, "time": 7184.0}}, "weekday": "saturday", "livingplace": "Bex"}}, "location": "Lausanne"}, "Tour du Chablais #1 Lavey": {"latitude": 46.2957462, "longitude": 6.9916269, "race": "Tour du Chablais #1 Lavey", "date": {"mer. 27.04.2011": {"year": 2011, "day": 27, "month": 4, "categories": {"F-F40": {"distance": 9, "rank": 66, "pace": 363000000000, "time": 3269.1}}, "weekday": "wednesday", "livingplace": "Bex"}}, "location": "Ollon VD"}, "Tour du Chablais #2 Yvorne": {"latitude": 46.3835529, "longitude": 6.854975199999999, "race": "Tour du Chablais #2 Yvorne", "date": {"mer. 10.04.2013": {"year": 2013, "day": 10, "month": 4, "categories": {"F-F40": {"distance": 8, "rank": 55, "pace": 387000000000, "time": 3098.2}}, "weekday": "wednesday", "livingplace": "Bex"}}, "location": "Bouveret"}, "Tour du Chablais #5 Bex": {"latitude": 46.3603257, "longitude": 6.931504599999999, "race": "Tour du Chablais #5 Bex", "date": {"mer. 09.05.2012": {"year": 2012, "day": 9, "month": 5, "categories": {"F-F40": {"distance": 9, "rank": 55, "pace": 364000000000, "time": 3229.1}}, "weekday": "wednesday", "livingplace": "Bex"}}, "location": "Roche VD"}, "Tour du Chablais #4 Champ\u00e9ry": {"latitude": NaN, "longitude": NaN, "race": "Tour du Chablais #4 Champ\u00e9ry", "date": {"mer. 02.05.2012": {"year": 2012, "day": 2, "month": 5, "categories": {"F-F40": {"distance": 8, "rank": 66, "pace": 363000000000, "time": 3016.9}}, "weekday": "wednesday", "livingplace": "Bex"}}, "location": "Les Mosses"}, "Tour du Chablais #5 Les Mosses": {"latitude": 46.3603257, "longitude": 6.931504599999999, "race": "Tour du Chablais #5 Les Mosses", "date": {"mer. 25.05.2011": {"year": 2011, "day": 25, "month": 5, "categories": {"F-F40": {"distance": 8, "rank": 45, "pace": 366000000000, "time": 2931.8}}, "weekday": "wednesday", "livingplace": "Bex"}}, "location": "Roche VD"}, "Tour du Chablais #6 Aigle": {"latitude": 46.3190253, "longitude": 6.970566, "race": "Tour du Chablais #6 Aigle", "date": {"mer. 01.06.2011": {"year": 2011, "day": 1, "month": 6, "categories": {"F-F40": {"distance": 10, "rank": 43, "pace": 327000000000, "time": 3341.3}}, "weekday": "wednesday", "livingplace": "Bex"}}, "location": "Aigle"}, "Tour du Chablais #4 St  Maurice": {"latitude": NaN, "longitude": NaN, "race": "Tour du Chablais #4 St  Maurice", "date": {"mer. 24.04.2013": {"year": 2013, "day": 24, "month": 4, "categories": {"F-F40": {"distance": 10, "rank": 51, "pace": 347000000000, "time": 3473.4}}, "weekday": "wednesday", "livingplace": "Bex"}}, "location": "Les Mosses"}, "Kerzerslauf": {"latitude": 46.97488999999999, "longitude": 7.1954365, "race": "Kerzerslauf", "date": {"sam. 15.03.2008": {"year": 2008, "day": 15, "month": 3, "categories": {"15/F40": {"distance": 15, "rank": 215, "pace": 356000000000, "time": 5347.1}}, "weekday": "saturday", "livingplace": "Bex"}, "sam. 17.03.2007": {"year": 2007, "day": 17, "month": 3, "categories": {"F40": {"distance": 15, "rank": 180, "pace": 342000000000, "time": 5141.5}}, "weekday": "saturday", "livingplace": "Bex"}}, "location": "Kerzers"}, "Tour du Chablais #3 Collombey-Muraz": {"latitude": 46.1782231, "longitude": 7.0223787, "race": "Tour du Chablais #3 Collombey-Muraz", "date": {"mer. 25.04.2012": {"year": 2012, "day": 25, "month": 4, "categories": {"F-F40": {"distance": 9, "rank": 59, "pace": 356000000000, "time": 3202.7}}, "weekday": "wednesday", "livingplace": "Bex"}}, "location": "Evionnaz"}, "Tour du Chablais #1 Martigny": {"latitude": 46.2957462, "longitude": 6.9916269, "race": "Tour du Chablais #1 Martigny", "date": {"mer. 23.04.2014": {"year": 2014, "day": 23, "month": 4, "categories": {"F-F50": {"distance": 9, "rank": 23, "pace": 340000000000, "time": 2894.9}}, "weekday": "wednesday", "livingplace": "Bex"}}, "location": "Ollon VD"}, "SwissCityMarathon - Lucerne, Luzern": {"latitude": 47.05016819999999, "longitude": 8.3093072, "race": "SwissCityMarathon - Lucerne, Luzern", "date": {"dim. 27.10.2013": {"year": 2013, "day": 27, "month": 10, "categories": {"M-F40": {"distance": 42, "rank": 83, "pace": 452000000000, "time": 19107.8}}, "weekday": "sunday", "livingplace": "Bex"}}, "location": "Luzern"}, "Tour du Chablais #3 Le Bouveret": {"latitude": 46.1782231, "longitude": 7.0223787, "race": "Tour du Chablais #3 Le Bouveret", "date": {"mer. 11.05.2011": {"year": 2011, "day": 11, "month": 5, "categories": {"F-F40": {"distance": 10, "rank": 65, "pace": 350000000000, "time": 3509.7}}, "weekday": "wednesday", "livingplace": "Bex"}}, "location": "Evionnaz"}, "Schweizer Frauenlauf Bern": {"latitude": 46.9479739, "longitude": 7.4474468, "race": "Schweizer Frauenlauf Bern", "date": {"dim. 01.06.2008": {"year": 2008, "day": 1, "month": 6, "categories": {"W40-10": {"distance": 10, "rank": 202, "pace": 319000000000, "time": 3198.5}}, "weekday": "sunday", "livingplace": "Bex"}, "dim. 11.06.2006": {"year": 2006, "day": 11, "month": 6, "categories": {"10-W40": {"distance": 10, "rank": 222, "pace": 331000000000, "time": 3318.3}}, "weekday": "sunday", "livingplace": "Bex"}}, "location": "Bern"}, "Tour du Chablais #1 Montreux": {"latitude": 46.2957462, "longitude": 6.9916269, "race": "Tour du Chablais #1 Montreux", "date": {"mer. 11.04.2012": {"year": 2012, "day": 11, "month": 4, "categories": {"F-F40": {"distance": 8, "rank": 54, "pace": 374000000000, "time": 2847.6}}, "weekday": "wednesday", "livingplace": "Bex"}}, "location": "Ollon VD"}, "Tour du Chablais #6 Montreux": {"latitude": 46.3190253, "longitude": 6.970566, "race": "Tour du Chablais #6 Montreux", "date": {"mer. 16.05.2012": {"year": 2012, "day": 16, "month": 5, "categories": {"F-F40": {"distance": 9, "rank": 72, "pace": 355000000000, "time": 3289.9}}, "weekday": "wednesday", "livingplace": "Bex"}}, "location": "Aigle"}, "Tour du Chablais #3 Bouveret": {"latitude": 46.1782231, "longitude": 7.0223787, "race": "Tour du Chablais #3 Bouveret", "date": {"mer. 17.04.2013": {"year": 2013, "day": 17, "month": 4, "categories": {"F-F40": {"distance": 10, "rank": 58, "pace": 349000000000, "time": 3499.7}}, "weekday": "wednesday", "livingplace": "Bex"}}, "location": "Evionnaz"}}, "birth": 1964}