{"name": "Croset Laure", "sex": "F", "races": {"Tour du Pays de Vaud #4, La Sarraz": {"latitude": 46.7088129, "longitude": 6.5707689, "race": "Tour du Pays de Vaud #4, La Sarraz", "date": {"mer. 03.09.2014": {"year": 2014, "day": 3, "month": 9, "categories": {"D-Sen1": {"distance": 9, "rank": 24, "pace": 303000000000, "time": 2575.9}}, "weekday": "wednesday", "livingplace": "Morges"}}, "location": "Chavornay"}, "Morat-Fribourg": {"latitude": 46.92922110000001, "longitude": 7.120184, "race": "Morat-Fribourg", "date": {"sam. 04.10.2014": {"year": 2014, "day": 4, "month": 10, "categories": {"17-W35": {"distance": 17, "rank": 71, "pace": 326000000000, "time": 5602.1}}, "weekday": "saturday", "livingplace": "Morges"}}, "location": "Murten"}, "Schweizer Frauenlauf Bern": {"latitude": 46.9479739, "longitude": 7.4474468, "race": "Schweizer Frauenlauf Bern", "date": {"dim. 15.06.2014": {"year": 2014, "day": 15, "month": 6, "categories": {"10-W35": {"distance": 10, "rank": 119, "pace": 313000000000, "time": 3137.4}}, "weekday": "sunday", "livingplace": "Morges"}, "dim. 14.06.2015": {"year": 2015, "day": 14, "month": 6, "categories": {"10-W35": {"distance": 10, "rank": 147, "pace": 324000000000, "time": 3240.4}}, "weekday": "sunday", "livingplace": "Morges"}}, "location": "Bern"}, "20km de Lausanne": {"latitude": 46.5196535, "longitude": 6.6322734, "race": "20km de Lausanne", "date": {"sam. 28.04.2012": {"year": 2012, "day": 28, "month": 4, "categories": {"10-F30": {"distance": 10, "rank": 238, "pace": 343000000000, "time": 3435.2}}, "weekday": "saturday", "livingplace": "Morges"}, "sam. 22.04.2006": {"year": 2006, "day": 22, "month": 4, "categories": {"10/F20": {"distance": 10, "rank": 44, "pace": 306000000000, "time": 3069.1}}, "weekday": "saturday", "livingplace": "Pully"}}, "location": "Lausanne"}, "Kerzerslauf": {"latitude": 46.97488999999999, "longitude": 7.1954365, "race": "Kerzerslauf", "date": {"sam. 21.03.2015": {"year": 2015, "day": 21, "month": 3, "categories": {"15-F35": {"distance": 15, "rank": 75, "pace": 309000000000, "time": 4648.6}}, "weekday": "saturday", "livingplace": "Morges"}}, "location": "Kerzers"}, "Tour du Pays de Vaud #3, Chavornay": {"latitude": 46.7784736, "longitude": 6.641183, "race": "Tour du Pays de Vaud #3, Chavornay", "date": {"mer. 27.08.2014": {"year": 2014, "day": 27, "month": 8, "categories": {"D-Sen1": {"distance": 9, "rank": 18, "pace": 323000000000, "time": 2779.9}}, "weekday": "wednesday", "livingplace": "Morges"}}, "location": "Yverdon-les-Bains"}}, "birth": 1979}