{"name": "Cuche Alain", "sex": "M", "races": {"BCN Tour #1 Corcelles": {"latitude": 46.9668714, "longitude": 6.8589727, "race": "BCN Tour #1 Corcelles", "date": {"mer. 24.04.2013": {"year": 2013, "day": 24, "month": 4, "categories": {"HS2": {"distance": 10, "rank": 161, "pace": 304000000000, "time": 2979.4}}, "weekday": "wednesday", "livingplace": "La Chaux de Fonds"}}, "location": "Colombier NE"}, "La Trotteuse-Tissot, La Chaux-de-Fonds": {"latitude": 47.1034892, "longitude": 6.832783800000001, "race": "La Trotteuse-Tissot, La Chaux-de-Fonds", "date": {"sam. 18.12.2010": {"year": 2010, "day": 18, "month": 12, "categories": {"GC-H40": {"distance": 8, "rank": 68, "pace": 312000000000, "time": 2500.2}}, "weekday": "saturday", "livingplace": "Bcn"}, "sam. 13.12.2014": {"year": 2014, "day": 13, "month": 12, "categories": {"GC-H40": {"distance": 8, "rank": 142, "pace": 303000000000, "time": 2426.4}}, "weekday": "saturday", "livingplace": "La Chaux de Fonds"}, "sam. 08.12.2012": {"year": 2012, "day": 8, "month": 12, "categories": {"GC-H40": {"distance": 8, "rank": 87, "pace": 319000000000, "time": 2557.2}}, "weekday": "saturday", "livingplace": "La Chaux de Fonds"}, "sam. 12.12.2015": {"year": 2015, "day": 12, "month": 12, "categories": {"GC-H40": {"distance": 8, "rank": 141, "pace": 291000000000, "time": 2333.3}}, "weekday": "saturday", "livingplace": "Bcn"}}, "location": "La Chaux-de-Fonds"}, "BCN Tour Le Landeron": {"latitude": 46.9668714, "longitude": 6.8589727, "race": "BCN Tour Le Landeron", "date": {"mer. 22.04.2009": {"year": 2009, "day": 22, "month": 4, "categories": {"HS2": {"distance": 11, "rank": 211, "pace": 342000000000, "time": 3803.8}}, "weekday": "wednesday", "livingplace": "La Chaux de Fonds"}}, "location": "Colombier NE"}, "BCN Tour Ponts-de-Martel": {"latitude": 47.0624261, "longitude": 6.9175754, "race": "BCN Tour Ponts-de-Martel", "date": {"mer. 28.04.2010": {"year": 2010, "day": 28, "month": 4, "categories": {"HS2": {"distance": 11, "rank": 166, "pace": 320000000000, "time": 3589.5}}, "weekday": "wednesday", "livingplace": "La Chaux de Fonds"}}, "location": "Ch\u00e9zard-St-Martin"}, "BCN Tour Auvernier": {"latitude": 46.9668714, "longitude": 6.8589727, "race": "BCN Tour Auvernier", "date": {"mer. 20.04.2011": {"year": 2011, "day": 20, "month": 4, "categories": {"HS2": {"distance": 11, "rank": 153, "pace": 319000000000, "time": 3449.2}}, "weekday": "wednesday", "livingplace": "La Chaux de Fonds"}}, "location": "Colombier NE"}, "BCN Tour #4 Fleurier": {"latitude": 47.1034892, "longitude": 6.832783800000001, "race": "BCN Tour #4 Fleurier", "date": {"mer. 15.05.2013": {"year": 2013, "day": 15, "month": 5, "categories": {"HS2": {"distance": 9, "rank": 147, "pace": 304000000000, "time": 2630.7}}, "weekday": "wednesday", "livingplace": "La Chaux de Fonds"}}, "location": "La Chaux-de-Fonds"}, "BCN Tour #2 La Chaux-de-Fonds": {"latitude": 47.0624261, "longitude": 6.9175754, "race": "BCN Tour #2 La Chaux-de-Fonds", "date": {"mer. 01.05.2013": {"year": 2013, "day": 1, "month": 5, "categories": {"HS2": {"distance": 11, "rank": 199, "pace": 302000000000, "time": 3241.7}}, "weekday": "wednesday", "livingplace": "La Chaux de Fonds"}}, "location": "Ch\u00e9zard-St-Martin"}, "BCN Tour La Chaux-de-Fonds": {"latitude": 47.1034892, "longitude": 6.832783800000001, "race": "BCN Tour La Chaux-de-Fonds", "date": {"mer. 23.05.2012": {"year": 2012, "day": 23, "month": 5, "categories": {"HS2": {"distance": 11, "rank": 172, "pace": 315000000000, "time": 3411.5}}, "weekday": "wednesday", "livingplace": "La Chaux de Fonds"}, "mer. 11.05.2011": {"year": 2011, "day": 11, "month": 5, "categories": {"HS2": {"distance": 11, "rank": 184, "pace": 363000000000, "time": 3893.6}}, "weekday": "wednesday", "livingplace": "La Chaux de Fonds"}}, "location": "La Chaux-de-Fonds"}, "BCN Tour Les Ponts-de-Martel": {"latitude": 46.999113, "longitude": 6.733554799999999, "race": "BCN Tour Les Ponts-de-Martel", "date": {"mer. 09.05.2012": {"year": 2012, "day": 9, "month": 5, "categories": {"HS2": {"distance": 10, "rank": 133, "pace": 306000000000, "time": 3155.7}}, "weekday": "wednesday", "livingplace": "La Chaux de Fonds"}}, "location": "Les Ponts-de-Martel"}, "BCN Tour Neuch\u00e2tel": {"latitude": 46.9899874, "longitude": 6.9292732, "race": "BCN Tour Neuch\u00e2tel", "date": {"mer. 26.05.2010": {"year": 2010, "day": 26, "month": 5, "categories": {"HS2": {"distance": 10, "rank": 128, "pace": 342000000000, "time": 3322.2}}, "weekday": "wednesday", "livingplace": "La Chaux de Fonds"}, "mer. 30.05.2012": {"year": 2012, "day": 30, "month": 5, "categories": {"HS2": {"distance": 11, "rank": 155, "pace": 325000000000, "time": 3647.1}}, "weekday": "wednesday", "livingplace": "La Chaux de Fonds"}, "mer. 25.05.2011": {"year": 2011, "day": 25, "month": 5, "categories": {"HS2": {"distance": 11, "rank": 197, "pace": 333000000000, "time": 3800.5}}, "weekday": "wednesday", "livingplace": "La Chaux de Fonds"}}, "location": "Neuch\u00e2tel"}, "BCN Tour #5 Colombier": {"latitude": 46.9262933, "longitude": 6.6324944, "race": "BCN Tour #5 Colombier", "date": {"mer. 22.05.2013": {"year": 2013, "day": 22, "month": 5, "categories": {"HS2": {"distance": 11, "rank": 185, "pace": 285000000000, "time": 3000.6}}, "weekday": "wednesday", "livingplace": "La Chaux de Fonds"}}, "location": "Couvet"}, "BCN Tour Cornaux": {"latitude": 46.9668714, "longitude": 6.8589727, "race": "BCN Tour Cornaux", "date": {"mer. 25.04.2012": {"year": 2012, "day": 25, "month": 4, "categories": {"HS2": {"distance": 11, "rank": 138, "pace": 337000000000, "time": 3715.0}}, "weekday": "wednesday", "livingplace": "La Chaux de Fonds"}}, "location": "Colombier NE"}, "BCN Tour #3 Dombresson": {"latitude": 46.999113, "longitude": 6.733554799999999, "race": "BCN Tour #3 Dombresson", "date": {"mer. 08.05.2013": {"year": 2013, "day": 8, "month": 5, "categories": {"HS2": {"distance": 10, "rank": 188, "pace": 298000000000, "time": 2955.3}}, "weekday": "wednesday", "livingplace": "La Chaux de Fonds"}}, "location": "Les Ponts-de-Martel"}, "BCN Tour M\u00f4tier": {"latitude": 46.9262933, "longitude": 6.6324944, "race": "BCN Tour M\u00f4tier", "date": {"mer. 19.05.2010": {"year": 2010, "day": 19, "month": 5, "categories": {"HS2": {"distance": 10, "rank": 154, "pace": 299000000000, "time": 2964.9}}, "weekday": "wednesday", "livingplace": "La Chaux de Fonds"}}, "location": "Couvet"}, "BCN Tour Fontaine Cernier": {"latitude": 47.0624261, "longitude": 6.9175754, "race": "BCN Tour Fontaine Cernier", "date": {"mer. 27.04.2011": {"year": 2011, "day": 27, "month": 4, "categories": {"HS2": {"distance": 10, "rank": 163, "pace": 296000000000, "time": 3057.9}}, "weekday": "wednesday", "livingplace": "La Chaux de Fonds"}}, "location": "Ch\u00e9zard-St-Martin"}, "BCN Tour Le Locle": {"latitude": 46.999113, "longitude": 6.733554799999999, "race": "BCN Tour Le Locle", "date": {"mer. 05.05.2010": {"year": 2010, "day": 5, "month": 5, "categories": {"HS2": {"distance": 11, "rank": 139, "pace": 307000000000, "time": 3353.9}}, "weekday": "wednesday", "livingplace": "La Chaux de Fonds"}}, "location": "Les Ponts-de-Martel"}, "BCN Tour Couvet": {"latitude": 47.0624261, "longitude": 6.9175754, "race": "BCN Tour Couvet", "date": {"mer. 02.05.2012": {"year": 2012, "day": 2, "month": 5, "categories": {"HS2": {"distance": 11, "rank": 167, "pace": 319000000000, "time": 3562.6}}, "weekday": "wednesday", "livingplace": "La Chaux de Fonds"}}, "location": "Ch\u00e9zard-St-Martin"}, "Kerzerslauf": {"latitude": 46.97488999999999, "longitude": 7.1954365, "race": "Kerzerslauf", "date": {"sam. 21.03.2015": {"year": 2015, "day": 21, "month": 3, "categories": {"15-M45": {"distance": 15, "rank": 385, "pace": 312000000000, "time": 4693.4}}, "weekday": "saturday", "livingplace": "La Chaux de Fonds"}, "sam. 15.03.2014": {"year": 2014, "day": 15, "month": 3, "categories": {"15-M45": {"distance": 15, "rank": 376, "pace": 304000000000, "time": 4564.1}}, "weekday": "saturday", "livingplace": "La Chaux de Fonds"}}, "location": "Kerzers"}, "BCN Tour #6 Neuch\u00e2tel": {"latitude": 46.9899874, "longitude": 6.9292732, "race": "BCN Tour #6 Neuch\u00e2tel", "date": {"mer. 29.05.2013": {"year": 2013, "day": 29, "month": 5, "categories": {"HS2": {"distance": 11, "rank": 192, "pace": 325000000000, "time": 3580.9}}, "weekday": "wednesday", "livingplace": "La Chaux de Fonds"}}, "location": "Neuch\u00e2tel"}, "BCN Tour La Br\u00e9vine": {"latitude": 46.999113, "longitude": 6.733554799999999, "race": "BCN Tour La Br\u00e9vine", "date": {"mer. 04.05.2011": {"year": 2011, "day": 4, "month": 5, "categories": {"HS2": {"distance": 10, "rank": 182, "pace": 319000000000, "time": 3197.4}}, "weekday": "wednesday", "livingplace": "La Chaux de Fonds"}}, "location": "Les Ponts-de-Martel"}, "BCN Tour Les Ponts de Martel": {"latitude": 46.9262933, "longitude": 6.6324944, "race": "BCN Tour Les Ponts de Martel", "date": {"mer. 18.05.2011": {"year": 2011, "day": 18, "month": 5, "categories": {"HS2": {"distance": 13, "rank": 154, "pace": 316000000000, "time": 4054.1}}, "weekday": "wednesday", "livingplace": "La Chaux de Fonds"}}, "location": "Couvet"}, "BCN Tour La Chaux-de-fonds": {"latitude": 47.1034892, "longitude": 6.832783800000001, "race": "BCN Tour La Chaux-de-fonds", "date": {"mer. 12.05.2010": {"year": 2010, "day": 12, "month": 5, "categories": {"HS2": {"distance": 11, "rank": 161, "pace": 388000000000, "time": 4157.5}}, "weekday": "wednesday", "livingplace": "La Chaux de Fonds"}}, "location": "La Chaux-de-Fonds"}, "BCN Tour Colombier": {"latitude": 46.9668714, "longitude": 6.8589727, "race": "BCN Tour Colombier", "date": {"mer. 16.05.2012": {"year": 2012, "day": 16, "month": 5, "categories": {"HS2": {"distance": 11, "rank": 177, "pace": 307000000000, "time": 3317.8}}, "weekday": "wednesday", "livingplace": "La Chaux de Fonds"}, "mer. 21.04.2010": {"year": 2010, "day": 21, "month": 4, "categories": {"HS2": {"distance": 10, "rank": 165, "pace": 341000000000, "time": 3416.1}}, "weekday": "wednesday", "livingplace": "La Chaux de Fonds"}}, "location": "Colombier NE"}}, "birth": 1968}