{"name": "Cuenat Gilles", "sex": "M", "races": {"Morat-Fribourg": {"latitude": 46.92922110000001, "longitude": 7.120184, "race": "Morat-Fribourg", "date": {"sam. 06.10.2012": {"year": 2012, "day": 6, "month": 10, "categories": {"17-M50": {"distance": 17, "rank": 28, "pace": 260000000000, "time": 4552.3}}, "weekday": "saturday", "livingplace": "La Chaux de Fonds"}, "sam. 04.10.2014": {"year": 2014, "day": 4, "month": 10, "categories": {"17-M55": {"distance": 17, "rank": 14, "pace": 263000000000, "time": 4527.8}}, "weekday": "saturday", "livingplace": "La Chaux de Fonds"}}, "location": "Murten"}, "La Trotteuse-Tissot, La Chaux-de-Fonds": {"latitude": 47.1034892, "longitude": 6.832783800000001, "race": "La Trotteuse-Tissot, La Chaux-de-Fonds", "date": {"sam. 14.12.2013": {"year": 2013, "day": 14, "month": 12, "categories": {"GC-H50": {"distance": 8, "rank": 7, "pace": 244000000000, "time": 1958.7}}, "weekday": "saturday", "livingplace": "La Chaux de Fonds"}, "sam. 17.12.2011": {"year": 2011, "day": 17, "month": 12, "categories": {"GC-H50": {"distance": 8, "rank": 15, "pace": 264000000000, "time": 2113.8}}, "weekday": "saturday", "livingplace": "La Chaux de Fonds"}, "sam. 08.12.2012": {"year": 2012, "day": 8, "month": 12, "categories": {"GC-H50": {"distance": 8, "rank": 4, "pace": 256000000000, "time": 2050.6}}, "weekday": "saturday", "livingplace": "La Chaux de Fonds"}, "sam. 13.12.2014": {"year": 2014, "day": 13, "month": 12, "categories": {"GC-H50": {"distance": 8, "rank": 16, "pace": 247000000000, "time": 1981.5}}, "weekday": "saturday", "livingplace": "La Chaux de Fonds"}}, "location": "La Chaux-de-Fonds"}, "Int  Bieler Cross, Biel-Bienne": {"latitude": 47.1367785, "longitude": 7.2467909, "race": "Int  Bieler Cross, Biel-Bienne", "date": {"dim. 10.11.2013": {"year": 2013, "day": 10, "month": 11, "categories": {"M50": {"distance": 6, "rank": 3, "pace": 234000000000, "time": 1503.8}}, "weekday": "sunday", "livingplace": "La Chaux de Fonds"}}, "location": "Biel/Bienne"}, "Sierre-Zinal, Sierre": {"latitude": 46.29413110000001, "longitude": 7.533536199999999, "race": "Sierre-Zinal, Sierre", "date": {"dim. 11.08.2013": {"year": 2013, "day": 11, "month": 8, "categories": {"V\u00e9t_II": {"distance": 31, "rank": 19, "pace": 448000000000, "time": 13906.2}}, "weekday": "sunday", "livingplace": "La Chaux de Fonds"}}, "location": "Sierre"}, "Gurtenclassic, Wabern": {"latitude": 46.92901639999999, "longitude": 7.448973199999999, "race": "Gurtenclassic, Wabern", "date": {"dim. 03.11.2013": {"year": 2013, "day": 3, "month": 11, "categories": {"M50": {"distance": 15, "rank": 6, "pace": 273000000000, "time": 4109.4}}, "weekday": "sunday", "livingplace": "La Chaux de Fonds"}}, "location": "Wabern"}, "Kerzerslauf": {"latitude": 46.97488999999999, "longitude": 7.1954365, "race": "Kerzerslauf", "date": {"sam. 17.03.2012": {"year": 2012, "day": 17, "month": 3, "categories": {"15-M50": {"distance": 15, "rank": 68, "pace": 261000000000, "time": 3924.5}}, "weekday": "saturday", "livingplace": "La Chaux de Fonds"}}, "location": "Kerzers"}, "Course de l'Escalade, Gen\u00e8ve": {"latitude": 46.2043907, "longitude": 6.1431577, "race": "Course de l'Escalade, Gen\u00e8ve", "date": {"sam. 06.12.2014": {"year": 2014, "day": 6, "month": 12, "categories": {"Esc-Hom4": {"distance": 7, "rank": 39, "pace": 243000000000, "time": 1782.2}}, "weekday": "saturday", "livingplace": "La Chaux de Fonds"}}, "location": "Gen\u00e8ve"}}, "birth": 1959}