{"name": "Cuinet Denis", "sex": "M", "races": {"Tour du Pays de Vaud etape 5 - La Sarraz": {"latitude": 46.5993131, "longitude": 6.539251200000001, "race": "Tour du Pays de Vaud etape 5 - La Sarraz", "date": {"mer. 10.09.2008": {"year": 2008, "day": 10, "month": 9, "categories": {"HomSen3": {"distance": 9, "rank": 8, "pace": 243000000000, "time": 2096.3}}, "weekday": "wednesday", "livingplace": "La Riviere Drugeon"}}, "location": "Penthaz"}, "Tour du pays de Vaud #6 - St  Prex": {"latitude": 46.4829113, "longitude": 6.458343500000001, "race": "Tour du pays de Vaud #6 - St  Prex", "date": {"mer. 14.09.2011": {"year": 2011, "day": 14, "month": 9, "categories": {"H-Sen3": {"distance": 9, "rank": 8, "pace": 249000000000, "time": 2142.7}}, "weekday": "wednesday", "livingplace": "La Riviere Drugeon"}}, "location": "St-Prex"}, "Tour du Pays de Vaud #2, Mezi\u00e8res": {"latitude": 46.5955273, "longitude": 6.7702883, "race": "Tour du Pays de Vaud #2, Mezi\u00e8res", "date": {"mer. 20.08.2014": {"year": 2014, "day": 20, "month": 8, "categories": {"H-Sen4": {"distance": 8, "rank": 4, "pace": 294000000000, "time": 2381.4}}, "weekday": "wednesday", "livingplace": "La Riviere Drugeon"}}, "location": "M\u00e9zi\u00e8res VD"}, "Tour du pays de Vaud #1 - Mezi\u00e8res": {"latitude": 46.7784736, "longitude": 6.641183, "race": "Tour du pays de Vaud #1 - Mezi\u00e8res", "date": {"mer. 10.08.2011": {"year": 2011, "day": 10, "month": 8, "categories": {"H-Sen3": {"distance": 9, "rank": 11, "pace": 254000000000, "time": 2160.1}}, "weekday": "wednesday", "livingplace": "La Riviere Drugeon"}}, "location": "Yverdon-les-Bains"}, "Tour du Pays de Vaud etape 1 - Le Mont sur Lausanne": {"latitude": 46.7784736, "longitude": 6.641183, "race": "Tour du Pays de Vaud etape 1 - Le Mont sur Lausanne", "date": {"mer. 13.08.2008": {"year": 2008, "day": 13, "month": 8, "categories": {"HomSen3": {"distance": 8, "rank": 4, "pace": 243000000000, "time": 2043.8}}, "weekday": "wednesday", "livingplace": "La Riviere Drugeon"}}, "location": "Yverdon-les-Bains"}, "20km de Lausanne": {"latitude": 46.5196535, "longitude": 6.6322734, "race": "20km de Lausanne", "date": {"sam. 26.04.2014": {"year": 2014, "day": 26, "month": 4, "categories": {"20-H60": {"distance": 20, "rank": 13, "pace": 292000000000, "time": 5845.3}}, "weekday": "saturday", "livingplace": "La Riviere Drugeon"}, "sam. 22.04.2006": {"year": 2006, "day": 22, "month": 4, "categories": {"20/H50": {"distance": 20, "rank": 18, "pace": 269000000000, "time": 5395.6}}, "weekday": "saturday", "livingplace": "La Riviere Drugeon"}, "sam. 26.04.2003": {"year": 2003, "day": 26, "month": 4, "categories": {"13": {"distance": 20, "rank": 46, "pace": 251000000000, "time": 5038.8}}, "weekday": "saturday", "livingplace": "La Riviere Drugeon"}}, "location": "Lausanne"}, "Tour du Pays de Vaud #4, La Sarraz": {"latitude": 46.7088129, "longitude": 6.5707689, "race": "Tour du Pays de Vaud #4, La Sarraz", "date": {"mer. 03.09.2014": {"year": 2014, "day": 3, "month": 9, "categories": {"H-Sen4": {"distance": 9, "rank": 3, "pace": 263000000000, "time": 2236.4}}, "weekday": "wednesday", "livingplace": "La Riviere Drugeon"}}, "location": "Chavornay"}, "Tour du Pays de Vaud #3, Chavornay": {"latitude": 46.7784736, "longitude": 6.641183, "race": "Tour du Pays de Vaud #3, Chavornay", "date": {"mer. 27.08.2014": {"year": 2014, "day": 27, "month": 8, "categories": {"H-Sen4": {"distance": 9, "rank": 4, "pace": 276000000000, "time": 2373.6}}, "weekday": "wednesday", "livingplace": "La Riviere Drugeon"}}, "location": "Yverdon-les-Bains"}, "Tour du Pays de Vaud #2 - Genolier": {"latitude": 46.5955273, "longitude": 6.7702883, "race": "Tour du Pays de Vaud #2 - Genolier", "date": {"mer. 15.08.2012": {"year": 2012, "day": 15, "month": 8, "categories": {"H-Sen3": {"distance": 9, "rank": 24, "pace": 263000000000, "time": 2239.4}}, "weekday": "wednesday", "livingplace": "La Riviere Drugeon"}, "mer. 17.08.2011": {"year": 2011, "day": 17, "month": 8, "categories": {"H-Sen3": {"distance": 9, "rank": 9, "pace": 256000000000, "time": 2181.7}}, "weekday": "wednesday", "livingplace": "La Riviere Drugeon"}}, "location": "M\u00e9zi\u00e8res VD"}, "Tour du Pays de Vaud #1, Penthaz": {"latitude": 46.5993131, "longitude": 6.539251200000001, "race": "Tour du Pays de Vaud #1, Penthaz", "date": {"mer. 13.08.2014": {"year": 2014, "day": 13, "month": 8, "categories": {"H-Sen4": {"distance": 9, "rank": 5, "pace": 259000000000, "time": 2211.2}}, "weekday": "wednesday", "livingplace": "La Riviere Drugeon"}}, "location": "Penthaz"}, "Tour du Pays de Vaud etape 2 - Genolier": {"latitude": 46.5955273, "longitude": 6.7702883, "race": "Tour du Pays de Vaud etape 2 - Genolier", "date": {"mer. 20.08.2008": {"year": 2008, "day": 20, "month": 8, "categories": {"HomSen3": {"distance": 8, "rank": 8, "pace": 247000000000, "time": 2055.7}}, "weekday": "wednesday", "livingplace": "La Riviere Drugeon"}, "mer. 19.08.2009": {"year": 2009, "day": 19, "month": 8, "categories": {"HSen3": {"distance": 8, "rank": 4, "pace": 247000000000, "time": 2004.3}}, "weekday": "wednesday", "livingplace": "La Riviere Drugeon"}}, "location": "M\u00e9zi\u00e8res VD"}, "Tour du Pays de Vaud etape 3 - Aubonne": {"latitude": 46.7829756, "longitude": 6.5728678, "race": "Tour du Pays de Vaud etape 3 - Aubonne", "date": {"mer. 27.08.2008": {"year": 2008, "day": 27, "month": 8, "categories": {"HomSen3": {"distance": 8, "rank": 9, "pace": 265000000000, "time": 2072.6}}, "weekday": "wednesday", "livingplace": "La Riviere Drugeon"}}, "location": "Champvent"}, "Tour du Pays de Vaud #4 - La Sarraz": {"latitude": 46.7088129, "longitude": 6.5707689, "race": "Tour du Pays de Vaud #4 - La Sarraz", "date": {"mer. 29.08.2012": {"year": 2012, "day": 29, "month": 8, "categories": {"H-Sen3": {"distance": 9, "rank": 16, "pace": 252000000000, "time": 2147.9}}, "weekday": "wednesday", "livingplace": "La Riviere Drugeon"}}, "location": "Chavornay"}, "Tour du pays de Vaud #1 - Penthaz": {"latitude": 46.5993131, "longitude": 6.539251200000001, "race": "Tour du pays de Vaud #1 - Penthaz", "date": {"mer. 08.08.2012": {"year": 2012, "day": 8, "month": 8, "categories": {"H-Sen3": {"distance": 9, "rank": 15, "pace": 260000000000, "time": 2222.5}}, "weekday": "wednesday", "livingplace": "La Riviere Drugeon"}}, "location": "Penthaz"}}, "birth": 1954}