{"name": "Currit Corentin", "sex": "M", "races": {"BCN Tour M\u00f4tier": {"latitude": 46.9262933, "longitude": 6.6324944, "race": "BCN Tour M\u00f4tier", "date": {"mer. 19.05.2010": {"year": 2010, "day": 19, "month": 5, "categories": {"KG2": {"distance": 2, "rank": 44, "pace": 266000000000, "time": 479.6}}, "weekday": "wednesday", "livingplace": "Couvet"}}, "location": "Couvet"}, "D\u00e9fi Val-de-Travers, Couvet": {"latitude": 46.9262933, "longitude": 6.6324944, "race": "D\u00e9fi Val-de-Travers, Couvet", "date": {"sam. 19.06.2010": {"year": 2010, "day": 19, "month": 6, "categories": {"GB": {"distance": 3, "rank": 12, "pace": 279000000000, "time": 711.7}}, "weekday": "saturday", "livingplace": "Couvet"}}, "location": "Couvet"}, "BCN Tour Neuch\u00e2tel": {"latitude": 46.9899874, "longitude": 6.9292732, "race": "BCN Tour Neuch\u00e2tel", "date": {"mer. 26.05.2010": {"year": 2010, "day": 26, "month": 5, "categories": {"KG2": {"distance": 2, "rank": 61, "pace": 250000000000, "time": 375.4}}, "weekday": "wednesday", "livingplace": "Couvet"}}, "location": "Neuch\u00e2tel"}, "BCN Tour Le Locle": {"latitude": 46.999113, "longitude": 6.733554799999999, "race": "BCN Tour Le Locle", "date": {"mer. 05.05.2010": {"year": 2010, "day": 5, "month": 5, "categories": {"KG2": {"distance": 2, "rank": 46, "pace": 291000000000, "time": 525.2}}, "weekday": "wednesday", "livingplace": "Couvet"}}, "location": "Les Ponts-de-Martel"}, "BCN Tour Ponts-de-Martel": {"latitude": 47.0624261, "longitude": 6.9175754, "race": "BCN Tour Ponts-de-Martel", "date": {"mer. 28.04.2010": {"year": 2010, "day": 28, "month": 4, "categories": {"KG2": {"distance": 2, "rank": 61, "pace": 235000000000, "time": 517.9}}, "weekday": "wednesday", "livingplace": "Couvet"}}, "location": "Ch\u00e9zard-St-Martin"}, "BCN Tour La Chaux-de-fonds": {"latitude": 47.1034892, "longitude": 6.832783800000001, "race": "BCN Tour La Chaux-de-fonds", "date": {"mer. 12.05.2010": {"year": 2010, "day": 12, "month": 5, "categories": {"KG2": {"distance": 1, "rank": 53, "pace": 809000000000, "time": 785.1}}, "weekday": "wednesday", "livingplace": "Couvet"}}, "location": "La Chaux-de-Fonds"}, "BCN Tour Colombier": {"latitude": 46.9668714, "longitude": 6.8589727, "race": "BCN Tour Colombier", "date": {"mer. 21.04.2010": {"year": 2010, "day": 21, "month": 4, "categories": {"KG2": {"distance": 2, "rank": 49, "pace": 321000000000, "time": 643.1}}, "weekday": "wednesday", "livingplace": "Couvet"}}, "location": "Colombier NE"}}, "birth": 1999}