{"name": "Da Costa Diego", "sex": "M", "races": {"BCN Tour Couvet": {"latitude": 47.0624261, "longitude": 6.9175754, "race": "BCN Tour Couvet", "date": {"mer. 02.05.2012": {"year": 2012, "day": 2, "month": 5, "categories": {"KG1": {"distance": 2, "rank": 45, "pace": 309000000000, "time": 557.5}}, "weekday": "wednesday", "livingplace": "Valangin"}}, "location": "Ch\u00e9zard-St-Martin"}, "BCN Tour #1 Corcelles": {"latitude": 46.9668714, "longitude": 6.8589727, "race": "BCN Tour #1 Corcelles", "date": {"mer. 24.04.2013": {"year": 2013, "day": 24, "month": 4, "categories": {"KG1": {"distance": 2, "rank": 14, "pace": 326000000000, "time": 489.6}}, "weekday": "wednesday", "livingplace": "Valangin"}}, "location": "Colombier NE"}, "BCN Tour #4 Fleurier": {"latitude": 47.1034892, "longitude": 6.832783800000001, "race": "BCN Tour #4 Fleurier", "date": {"mer. 15.05.2013": {"year": 2013, "day": 15, "month": 5, "categories": {"KG1": {"distance": 2, "rank": 17, "pace": 180000000000, "time": 271.3}}, "weekday": "wednesday", "livingplace": "Valangin"}}, "location": "La Chaux-de-Fonds"}, "BCN Tour Cornaux": {"latitude": 46.9668714, "longitude": 6.8589727, "race": "BCN Tour Cornaux", "date": {"mer. 25.04.2012": {"year": 2012, "day": 25, "month": 4, "categories": {"KG1": {"distance": 2, "rank": 37, "pace": 302000000000, "time": 454.0}}, "weekday": "wednesday", "livingplace": "Valangin"}}, "location": "Colombier NE"}, "BCN Tour #6 Neuch\u00e2tel": {"latitude": 46.9899874, "longitude": 6.9292732, "race": "BCN Tour #6 Neuch\u00e2tel", "date": {"mer. 29.05.2013": {"year": 2013, "day": 29, "month": 5, "categories": {"KG1": {"distance": 1, "rank": 25, "pace": 250000000000, "time": 325.5}}, "weekday": "wednesday", "livingplace": "Valangin"}}, "location": "Neuch\u00e2tel"}, "BCN Tour Les Ponts-de-Martel": {"latitude": 46.999113, "longitude": 6.733554799999999, "race": "BCN Tour Les Ponts-de-Martel", "date": {"mer. 09.05.2012": {"year": 2012, "day": 9, "month": 5, "categories": {"KG1": {"distance": 2, "rank": 46, "pace": 303000000000, "time": 576.6}}, "weekday": "wednesday", "livingplace": "Valangin"}}, "location": "Les Ponts-de-Martel"}, "BCN Tour Neuch\u00e2tel": {"latitude": 46.9899874, "longitude": 6.9292732, "race": "BCN Tour Neuch\u00e2tel", "date": {"mer. 25.05.2011": {"year": 2011, "day": 25, "month": 5, "categories": {"KG1": {"distance": 2, "rank": 88, "pace": 316000000000, "time": 633.0}}, "weekday": "wednesday", "livingplace": "Valangin"}}, "location": "Neuch\u00e2tel"}, "BCN Tour Les Ponts de Martel": {"latitude": 46.9262933, "longitude": 6.6324944, "race": "BCN Tour Les Ponts de Martel", "date": {"mer. 18.05.2011": {"year": 2011, "day": 18, "month": 5, "categories": {"KG1": {"distance": 2, "rank": 78, "pace": 312000000000, "time": 615.0}}, "weekday": "wednesday", "livingplace": "Valangin"}}, "location": "Couvet"}, "BCN Tour #5 Colombier": {"latitude": 46.9262933, "longitude": 6.6324944, "race": "BCN Tour #5 Colombier", "date": {"mer. 22.05.2013": {"year": 2013, "day": 22, "month": 5, "categories": {"KG1": {"distance": 1, "rank": 22, "pace": 261000000000, "time": 314.0}}, "weekday": "wednesday", "livingplace": "Valangin"}}, "location": "Couvet"}, "BCN Tour #2 La Chaux-de-Fonds": {"latitude": 47.0624261, "longitude": 6.9175754, "race": "BCN Tour #2 La Chaux-de-Fonds", "date": {"mer. 01.05.2013": {"year": 2013, "day": 1, "month": 5, "categories": {"KG1": {"distance": 1, "rank": 21, "pace": 266000000000, "time": 346.3}}, "weekday": "wednesday", "livingplace": "Valangin"}}, "location": "Ch\u00e9zard-St-Martin"}, "BCN Tour Colombier": {"latitude": 47.1034892, "longitude": 6.832783800000001, "race": "BCN Tour Colombier", "date": {"mer. 16.05.2012": {"year": 2012, "day": 16, "month": 5, "categories": {"KG1": {"distance": 2, "rank": 51, "pace": 360000000000, "time": 540.7}}, "weekday": "wednesday", "livingplace": "Valangin"}}, "location": "La Chaux-de-Fonds"}, "BCN Tour #3 Dombresson": {"latitude": 46.999113, "longitude": 6.733554799999999, "race": "BCN Tour #3 Dombresson", "date": {"mer. 08.05.2013": {"year": 2013, "day": 8, "month": 5, "categories": {"KG1": {"distance": 1, "rank": 13, "pace": 267000000000, "time": 348.2}}, "weekday": "wednesday", "livingplace": "Valangin"}}, "location": "Les Ponts-de-Martel"}}, "birth": 2005}