{"name": "Daetwyler Sascha", "sex": "M", "races": {"D\u00e9fi Val-de-Travers, Couvet": {"latitude": 46.9262933, "longitude": 6.6324944, "race": "D\u00e9fi Val-de-Travers, Couvet", "date": {"sam. 21.06.2008": {"year": 2008, "day": 21, "month": 6, "categories": {"MHS1": {"distance": 41, "rank": 6, "pace": 333000000000, "time": 13748.3}}, "weekday": "saturday", "livingplace": "Dottikon"}}, "location": "Couvet"}, "Winterthur Marathon": {"latitude": 39.8088766, "longitude": -75.6037351, "race": "Winterthur Marathon", "date": {"dim. 25.05.2003": {"year": 2003, "day": 25, "month": 5, "categories": {"MM23": {"distance": 42, "rank": 16, "pace": 234000000000, "time": 9874.7}}, "weekday": "sunday", "livingplace": "Brutten"}}, "location": "Winterthur"}, "Int Greifenseelauf, Uster": {"latitude": 47.3482747, "longitude": 8.717873899999999, "race": "Int Greifenseelauf, Uster", "date": {"sam. 20.09.2003": {"year": 2003, "day": 20, "month": 9, "categories": {"H/M30": {"distance": 21, "rank": 9, "pace": 235000000000, "time": 4962.7}}, "weekday": "saturday", "livingplace": "Brutten"}}, "location": "Uster"}, "Kerzerslauf": {"latitude": 46.97488999999999, "longitude": 7.1954365, "race": "Kerzerslauf", "date": {"sam. 20.03.2004": {"year": 2004, "day": 20, "month": 3, "categories": {"M20": {"distance": 15, "rank": 96, "pace": 227000000000, "time": 3417.1}}, "weekday": "saturday", "livingplace": "Geroldswil"}, "sam. 19.03.2005": {"year": 2005, "day": 19, "month": 3, "categories": {"M20": {"distance": 15, "rank": 74, "pace": 226000000000, "time": 3404.6}}, "weekday": "saturday", "livingplace": "Geroldswil"}}, "location": "Kerzers"}, "Bieler Lauftage, Biel Bienne": {"latitude": 47.1367785, "longitude": 7.2467909, "race": "Bieler Lauftage, Biel Bienne", "date": {"ven. 13.06.2008": {"year": 2008, "day": 13, "month": 6, "categories": {"TS2/M35": {"distance": 56, "rank": 4, "pace": 320000000000, "time": 17977.6}}, "weekday": "friday", "livingplace": "Dottikon"}}, "location": "Biel/Bienne"}, "Z\u00fcrich Marathon, Teamrun und Cityrun": {"latitude": 47.3768866, "longitude": 8.541694, "race": "Z\u00fcrich Marathon, Teamrun und Cityrun", "date": {"dim. 01.04.2007": {"year": 2007, "day": 1, "month": 4, "categories": {"M30": {"distance": 42, "rank": 65, "pace": 241000000000, "time": 10204.9}}, "weekday": "sunday", "livingplace": "Dubendorf"}, "dim. 04.04.2004": {"year": 2004, "day": 4, "month": 4, "categories": {"M30": {"distance": 42, "rank": 74, "pace": 242000000000, "time": 10211.4}}, "weekday": "sunday", "livingplace": "Geroldswil"}}, "location": "Z\u00fcrich"}}, "birth": 1972}