{"name": "Dalcher Christoph", "sex": "M", "races": {"Lucerne Marathon, Luzern": {"latitude": 47.05016819999999, "longitude": 8.3093072, "race": "Lucerne Marathon, Luzern", "date": {"dim. 31.10.2010": {"year": 2010, "day": 31, "month": 10, "categories": {"H-M30": {"distance": 21, "rank": 136, "pace": 257000000000, "time": 5428.1}}, "weekday": "sunday", "livingplace": "Tagerig"}}, "location": "Luzern"}, "Gippinger Stauseelauf": {"latitude": 47.5810513, "longitude": 8.2152586, "race": "Gippinger Stauseelauf", "date": {"jeu. 31.12.2015": {"year": 2015, "day": 31, "month": 12, "categories": {"7-JoggM": {"distance": 8, "rank": 35, "pace": 257000000000, "time": 1936.9}}, "weekday": "thursday", "livingplace": "Moriken"}}, "location": "Leuggern"}, "Aegeriseelauf, Ober\u00e4geri": {"latitude": NaN, "longitude": NaN, "race": "Aegeriseelauf, Ober\u00e4geri", "date": {"ven. 22.07.2011": {"year": 2011, "day": 22, "month": 7, "categories": {"S1": {"distance": 14, "rank": 35, "pace": 241000000000, "time": 3418.7}}, "weekday": "friday", "livingplace": "Tagerig"}}, "location": "Ober\u00e4geri"}, "ASICS Bremgarter Reusslauf": {"latitude": 47.34917739999999, "longitude": 8.3397905, "race": "ASICS Bremgarter Reusslauf", "date": {"sam. 26.02.2011": {"year": 2011, "day": 26, "month": 2, "categories": {"M30": {"distance": 11, "rank": 116, "pace": 239000000000, "time": 2630.2}}, "weekday": "saturday", "livingplace": "Tagerig"}}, "location": "Bremgarten AG"}, "Birslauf Basel": {"latitude": 47.5595986, "longitude": 7.5885761, "race": "Birslauf Basel", "date": {"sam. 24.03.2007": {"year": 2007, "day": 24, "month": 3, "categories": {"M\u00e4nner": {"distance": 10, "rank": 413, "pace": 343000000000, "time": 3436.0}}, "weekday": "saturday", "livingplace": "Binningen"}}, "location": "Basel"}, "Liestaler Stadtlauf": {"latitude": 47.4866143, "longitude": 7.7334272, "race": "Liestaler Stadtlauf", "date": {"mer. 26.08.2009": {"year": 2009, "day": 26, "month": 8, "categories": {"M30": {"distance": 12, "rank": 15, "pace": 284000000000, "time": 3416.6}}, "weekday": "wednesday", "livingplace": "Tagerig"}, "mer. 28.08.2013": {"year": 2013, "day": 28, "month": 8, "categories": {"M40": {"distance": 12, "rank": 42, "pace": 314000000000, "time": 3778.5}}, "weekday": "wednesday", "livingplace": "Moriken"}}, "location": "Liestal"}, "Gempenlauf, Dornach": {"latitude": 47.4790491, "longitude": 7.6170412, "race": "Gempenlauf, Dornach", "date": {"mer. 04.06.2014": {"year": 2014, "day": 4, "month": 6, "categories": {"M40": {"distance": 8, "rank": 40, "pace": 338000000000, "time": 2640.3}}, "weekday": "wednesday", "livingplace": "Moriken"}}, "location": "Dornach"}, "Hallwilerseelauf, Beinwil am See": {"latitude": NaN, "longitude": NaN, "race": "Hallwilerseelauf, Beinwil am See", "date": {"sam. 16.10.2010": {"year": 2010, "day": 16, "month": 10, "categories": {"21-M30": {"distance": 21, "rank": 179, "pace": 266000000000, "time": 5623.9}}, "weekday": "saturday", "livingplace": "Tagerig"}}, "location": "Beinwil am See"}, "Winterthur Marathon": {"latitude": 39.8088766, "longitude": -75.6037351, "race": "Winterthur Marathon", "date": {"dim. 29.05.2011": {"year": 2011, "day": 29, "month": 5, "categories": {"M-M30": {"distance": 42, "rank": 6, "pace": 277000000000, "time": 11709.9}}, "weekday": "sunday", "livingplace": "Tagerig"}}, "location": "Winterthur"}}, "birth": 1973}