{"name": "Dardel St\u00e9phane", "sex": "M", "races": {"Lausanne Marathon": {"latitude": 46.5196535, "longitude": 6.6322734, "race": "Lausanne Marathon", "date": {"dim. 28.10.2012": {"year": 2012, "day": 28, "month": 10, "categories": {"21-H2": {"distance": 21, "rank": 214, "pace": 277000000000, "time": 5860.3}}, "weekday": "sunday", "livingplace": "Pully"}}, "location": "Lausanne"}, "Morat-Fribourg": {"latitude": 46.92922110000001, "longitude": 7.120184, "race": "Morat-Fribourg", "date": {"sam. 01.10.2011": {"year": 2011, "day": 1, "month": 10, "categories": {"17-M20": {"distance": 17, "rank": 577, "pace": 281000000000, "time": 4833.1}}, "weekday": "saturday", "livingplace": "Lausanne"}, "sam. 06.10.2012": {"year": 2012, "day": 6, "month": 10, "categories": {"17-M20": {"distance": 17, "rank": 440, "pace": 272000000000, "time": 4757.1}}, "weekday": "saturday", "livingplace": "Pully"}}, "location": "Murten"}, "D\u00e9fi Val-de-Travers, Couvet": {"latitude": 46.9262933, "longitude": 6.6324944, "race": "D\u00e9fi Val-de-Travers, Couvet", "date": {"sam. 20.06.2009": {"year": 2009, "day": 20, "month": 6, "categories": {"EH": {"distance": 12, "rank": 6, "pace": 356000000000, "time": 4352.2}}, "weekday": "saturday", "livingplace": "Lausanne"}}, "location": "Couvet"}, "Montreux - Les Rochers de Naye": {"latitude": 46.4312213, "longitude": 6.9106799, "race": "Montreux - Les Rochers de Naye", "date": {"dim. 08.07.2012": {"year": 2012, "day": 8, "month": 7, "categories": {"M-HElite": {"distance": 19, "rank": 132, "pace": 491000000000, "time": 9234.0}}, "weekday": "sunday", "livingplace": "Pully"}}, "location": "Montreux"}, "Course de l'Escalade, Gen\u00e8ve": {"latitude": 46.2043907, "longitude": 6.1431577, "race": "Course de l'Escalade, Gen\u00e8ve", "date": {"sam. 04.12.2010": {"year": 2010, "day": 4, "month": 12, "categories": {"H-H2": {"distance": 7, "rank": 639, "pace": 265000000000, "time": 1925.8}}, "weekday": "saturday", "livingplace": "Lausanne"}}, "location": "Gen\u00e8ve"}, "20km de Lausanne": {"latitude": 46.5196535, "longitude": 6.6322734, "race": "20km de Lausanne", "date": {"sam. 30.04.2011": {"year": 2011, "day": 30, "month": 4, "categories": {"20-H30": {"distance": 20, "rank": 404, "pace": 289000000000, "time": 5793.5}}, "weekday": "saturday", "livingplace": "Lausanne"}, "sam. 28.04.2012": {"year": 2012, "day": 28, "month": 4, "categories": {"20-H30": {"distance": 20, "rank": 189, "pace": 279000000000, "time": 5591.7}}, "weekday": "saturday", "livingplace": "Pully"}}, "location": "Lausanne"}, "Les Traine-Savates, Cheseaux-sur-Lausanne": {"latitude": 46.585452, "longitude": 6.6047712, "race": "Les Traine-Savates, Cheseaux-sur-Lausanne", "date": {"sam. 14.04.2012": {"year": 2012, "day": 14, "month": 4, "categories": {"10-M20": {"distance": 10, "rank": 99, "pace": 265000000000, "time": 2759.9}}, "weekday": "saturday", "livingplace": "Pully"}}, "location": "Cheseaux-sur-Lausanne"}, "Course p\u00e9destre Thyon-Dixence, Thyon": {"latitude": NaN, "longitude": NaN, "race": "Course p\u00e9destre Thyon-Dixence, Thyon", "date": {"dim. 05.08.2012": {"year": 2012, "day": 5, "month": 8, "categories": {"HomElite": {"distance": 16, "rank": 127, "pace": 554000000000, "time": 9068.5}}, "weekday": "sunday", "livingplace": "Pully"}}, "location": "Thyon-Les Collons"}}, "birth": 1978}