{"name": "Da Silva Luis", "sex": "M", "races": {"Groupe E Tour Fribourg #5 Fribourg": {"latitude": 46.8128615, "longitude": 7.131657799999999, "race": "Groupe E Tour Fribourg #5 Fribourg", "date": {"mer. 18.09.2013": {"year": 2013, "day": 18, "month": 9, "categories": {"HS1": {"distance": 10, "rank": 25, "pace": 250000000000, "time": 2508.8}}, "weekday": "wednesday", "livingplace": "Neuchatel"}}, "location": "Givisiez"}, "Morat-Fribourg": {"latitude": 46.92922110000001, "longitude": 7.120184, "race": "Morat-Fribourg", "date": {"sam. 05.10.2013": {"year": 2013, "day": 5, "month": 10, "categories": {"17-M20": {"distance": 17, "rank": 499, "pace": 269000000000, "time": 4708.4}}, "weekday": "saturday", "livingplace": "Neuchatel"}, "sam. 03.10.2015": {"year": 2015, "day": 3, "month": 10, "categories": {"17-M20": {"distance": 17, "rank": 672, "pace": 286000000000, "time": 4913.7}}, "weekday": "saturday", "livingplace": "Fribourg"}, "sam. 06.10.2012": {"year": 2012, "day": 6, "month": 10, "categories": {"17-M20": {"distance": 17, "rank": 905, "pace": 296000000000, "time": 5177.7}}, "weekday": "saturday", "livingplace": "Chez le Bart"}, "sam. 04.10.2014": {"year": 2014, "day": 4, "month": 10, "categories": {"17-M20": {"distance": 17, "rank": 524, "pace": 278000000000, "time": 4775.5}}, "weekday": "saturday", "livingplace": "Fribourg"}}, "location": "Murten"}, "BCN Tour #6 Neuch\u00e2tel": {"latitude": 46.9899874, "longitude": 6.9292732, "race": "BCN Tour #6 Neuch\u00e2tel", "date": {"mer. 29.05.2013": {"year": 2013, "day": 29, "month": 5, "categories": {"HS1": {"distance": 11, "rank": 58, "pace": 272000000000, "time": 2995.9}}, "weekday": "wednesday", "livingplace": "Chez le Bart"}}, "location": "Neuch\u00e2tel"}, "BCN Tour Neuch\u00e2tel": {"latitude": 46.9899874, "longitude": 6.9292732, "race": "BCN Tour Neuch\u00e2tel", "date": {"mer. 26.05.2010": {"year": 2010, "day": 26, "month": 5, "categories": {"HE": {"distance": 10, "rank": 125, "pace": 340000000000, "time": 3307.2}}, "weekday": "wednesday", "livingplace": "Chez le Bart"}, "mer. 30.05.2012": {"year": 2012, "day": 30, "month": 5, "categories": {"HE": {"distance": 11, "rank": 83, "pace": 291000000000, "time": 3269.8}}, "weekday": "wednesday", "livingplace": "Chez le Bart"}}, "location": "Neuch\u00e2tel"}, "Groupe E Tour Fribourg #3 Charmey": {"latitude": 46.97488999999999, "longitude": 7.1954365, "race": "Groupe E Tour Fribourg #3 Charmey", "date": {"mer. 04.09.2013": {"year": 2013, "day": 4, "month": 9, "categories": {"HS1": {"distance": 11, "rank": 44, "pace": 310000000000, "time": 3376.0}}, "weekday": "wednesday", "livingplace": "Neuchatel"}}, "location": "Kerzers"}, "Groupe E Tour Fribourg #2 Kerzers": {"latitude": 46.6175845, "longitude": 7.1654493, "race": "Groupe E Tour Fribourg #2 Kerzers", "date": {"mer. 28.08.2013": {"year": 2013, "day": 28, "month": 8, "categories": {"HS1": {"distance": 12, "rank": 39, "pace": 283000000000, "time": 3353.5}}, "weekday": "wednesday", "livingplace": "Neuchatel"}}, "location": "Charmey (Gruy\u00e8re)"}, "BCN Tour Ponts-de-Martel": {"latitude": 47.0624261, "longitude": 6.9175754, "race": "BCN Tour Ponts-de-Martel", "date": {"mer. 28.04.2010": {"year": 2010, "day": 28, "month": 4, "categories": {"HE": {"distance": 11, "rank": 103, "pace": 321000000000, "time": 3598.1}}, "weekday": "wednesday", "livingplace": "Chez le Bart"}}, "location": "Ch\u00e9zard-St-Martin"}, "BCN Tour #1 Corcelles": {"latitude": 46.9668714, "longitude": 6.8589727, "race": "BCN Tour #1 Corcelles", "date": {"mer. 24.04.2013": {"year": 2013, "day": 24, "month": 4, "categories": {"HS1": {"distance": 10, "rank": 62, "pace": 268000000000, "time": 2632.4}}, "weekday": "wednesday", "livingplace": "Chez le Bart"}}, "location": "Colombier NE"}, "BCN Tour #3 Dombresson": {"latitude": 46.999113, "longitude": 6.733554799999999, "race": "BCN Tour #3 Dombresson", "date": {"mer. 08.05.2013": {"year": 2013, "day": 8, "month": 5, "categories": {"HS1": {"distance": 10, "rank": 75, "pace": 263000000000, "time": 2610.3}}, "weekday": "wednesday", "livingplace": "Chez le Bart"}}, "location": "Les Ponts-de-Martel"}}, "birth": 1983}