{"name": "Davet Jonathan", "sex": "M", "races": {"Groupe E Tour Fribourg #4, Siviriez": {"latitude": 46.6585092, "longitude": 6.877722, "race": "Groupe E Tour Fribourg #4, Siviriez", "date": {"mer. 10.09.2014": {"year": 2014, "day": 10, "month": 9, "categories": {"EcolB-M": {"distance": 1, "rank": 8, "pace": 243000000000, "time": 303.8}}, "weekday": "wednesday", "livingplace": "Siviriez"}}, "location": "Siviriez"}, "Groupe E Tour Fribourg #5, Givisiez": {"latitude": 46.8128615, "longitude": 7.131657799999999, "race": "Groupe E Tour Fribourg #5, Givisiez", "date": {"mer. 17.09.2014": {"year": 2014, "day": 17, "month": 9, "categories": {"EcolB-M": {"distance": 2, "rank": 8, "pace": 243000000000, "time": 388.8}}, "weekday": "wednesday", "livingplace": "Siviriez"}}, "location": "Givisiez"}, "Groupe E Tour Fribourg #2, Charmey": {"latitude": 46.6175845, "longitude": 7.1654493, "race": "Groupe E Tour Fribourg #2, Charmey", "date": {"mer. 27.08.2014": {"year": 2014, "day": 27, "month": 8, "categories": {"EcolB-M": {"distance": 1, "rank": 6, "pace": 273000000000, "time": 367.0}}, "weekday": "wednesday", "livingplace": "Siviriez"}}, "location": "Charmey (Gruy\u00e8re)"}, "Groupe E Tour Fribourg #4 Montagny": {"latitude": 46.6585092, "longitude": 6.877722, "race": "Groupe E Tour Fribourg #4 Montagny", "date": {"mer. 11.09.2013": {"year": 2013, "day": 11, "month": 9, "categories": {"KG1": {"distance": 1, "rank": 2, "pace": 234000000000, "time": 280.8}}, "weekday": "wednesday", "livingplace": "Siviriez"}}, "location": "Siviriez"}, "Groupe E Tour Fribourg #3 Charmey": {"latitude": 46.97488999999999, "longitude": 7.1954365, "race": "Groupe E Tour Fribourg #3 Charmey", "date": {"mer. 04.09.2013": {"year": 2013, "day": 4, "month": 9, "categories": {"KG1": {"distance": 1, "rank": 3, "pace": 263000000000, "time": 316.2}}, "weekday": "wednesday", "livingplace": "Siviriez"}}, "location": "Kerzers"}, "Groupe E Tour Fribourg #1 Siviriez": {"latitude": 46.81832, "longitude": 6.977279999999999, "race": "Groupe E Tour Fribourg #1 Siviriez", "date": {"mer. 21.08.2013": {"year": 2013, "day": 21, "month": 8, "categories": {"KG1": {"distance": 1, "rank": 3, "pace": 258000000000, "time": 322.8}}, "weekday": "wednesday", "livingplace": "Siviriez"}}, "location": "Cousset"}, "Groupe E Tour Fribourg #5 Fribourg": {"latitude": 46.8128615, "longitude": 7.131657799999999, "race": "Groupe E Tour Fribourg #5 Fribourg", "date": {"mer. 18.09.2013": {"year": 2013, "day": 18, "month": 9, "categories": {"KG1": {"distance": 1, "rank": 2, "pace": 251000000000, "time": 276.6}}, "weekday": "wednesday", "livingplace": "Siviriez"}}, "location": "Givisiez"}, "Groupe E Tour Fribourg #3, Kerzers": {"latitude": 46.97488999999999, "longitude": 7.1954365, "race": "Groupe E Tour Fribourg #3, Kerzers", "date": {"mer. 03.09.2014": {"year": 2014, "day": 3, "month": 9, "categories": {"EcolB-M": {"distance": 1, "rank": 6, "pace": 276000000000, "time": 332.1}}, "weekday": "wednesday", "livingplace": "Siviriez"}}, "location": "Kerzers"}, "Groupe E Tour Fribourg #4 Siviriez": {"latitude": 46.6585092, "longitude": 6.877722, "race": "Groupe E Tour Fribourg #4 Siviriez", "date": {"mer. 19.09.2012": {"year": 2012, "day": 19, "month": 9, "categories": {"KG1": {"distance": 1, "rank": 4, "pace": 278000000000, "time": 348.7}}, "weekday": "wednesday", "livingplace": "Siviriez"}}, "location": "Siviriez"}, "Groupe E Tour Fribourg #1, Cousset": {"latitude": 46.81832, "longitude": 6.977279999999999, "race": "Groupe E Tour Fribourg #1, Cousset", "date": {"mer. 20.08.2014": {"year": 2014, "day": 20, "month": 8, "categories": {"EcolB-M": {"distance": 1, "rank": 4, "pace": 246000000000, "time": 295.2}}, "weekday": "wednesday", "livingplace": "Siviriez"}}, "location": "Cousset"}}, "birth": 2004}