{"name": "De Amorim Abilio", "sex": "M", "races": {"Lausanne Marathon": {"latitude": 46.5196535, "longitude": 6.6322734, "race": "Lausanne Marathon", "date": {"dim. 27.10.2013": {"year": 2013, "day": 27, "month": 10, "categories": {"21-H4": {"distance": 21, "rank": 275, "pace": 336000000000, "time": 7091.6}}, "weekday": "sunday", "livingplace": "St Prex"}}, "location": "Lausanne"}, "Les Traine-Savates, Cheseaux-sur-Lausanne": {"latitude": 46.585452, "longitude": 6.6047712, "race": "Les Traine-Savates, Cheseaux-sur-Lausanne", "date": {"sam. 13.04.2013": {"year": 2013, "day": 13, "month": 4, "categories": {"10-M50": {"distance": 10, "rank": 107, "pace": 326000000000, "time": 3365.4}}, "weekday": "saturday", "livingplace": "St Prex"}}, "location": "Cheseaux-sur-Lausanne"}, "Morat-Fribourg": {"latitude": 46.92922110000001, "longitude": 7.120184, "race": "Morat-Fribourg", "date": {"sam. 05.10.2013": {"year": 2013, "day": 5, "month": 10, "categories": {"17-M50": {"distance": 17, "rank": 338, "pace": 327000000000, "time": 5719.6}}, "weekday": "saturday", "livingplace": "St Prex"}, "sam. 03.10.2015": {"year": 2015, "day": 3, "month": 10, "categories": {"17-M55": {"distance": 17, "rank": 290, "pace": 386000000000, "time": 6639.6}}, "weekday": "saturday", "livingplace": "St Prex"}}, "location": "Murten"}, "Kerzerslauf": {"latitude": 46.97488999999999, "longitude": 7.1954365, "race": "Kerzerslauf", "date": {"sam. 16.03.2013": {"year": 2013, "day": 16, "month": 3, "categories": {"15-M50": {"distance": 15, "rank": 343, "pace": 327000000000, "time": 4905.6}}, "weekday": "saturday", "livingplace": "St Prex"}}, "location": "Kerzers"}, "Semi-Marathon de la C\u00f4te, Allaman-Nyon": {"latitude": 46.3832683, "longitude": 6.2347852, "race": "Semi-Marathon de la C\u00f4te, Allaman-Nyon", "date": {"dim. 14.09.2014": {"year": 2014, "day": 14, "month": 9, "categories": {"21-H50": {"distance": 21, "rank": 98, "pace": 364000000000, "time": 7687.2}}, "weekday": "sunday", "livingplace": "St Prex"}}, "location": "Nyon"}}, "birth": 1960}