{"name": "Deb\u00e9taz Jean-Claude", "sex": "M", "races": {"Tour du Chablais #2 Rennaz": {"latitude": 46.3835529, "longitude": 6.854975199999999, "race": "Tour du Chablais #2 Rennaz", "date": {"mer. 04.05.2011": {"year": 2011, "day": 4, "month": 5, "categories": {"M-M50": {"distance": 9, "rank": 63, "pace": 296000000000, "time": 2772.5}}, "weekday": "wednesday", "livingplace": "Chardonne"}}, "location": "Bouveret"}, "Tour du Chablais #6 Monthey": {"latitude": 46.3190253, "longitude": 6.970566, "race": "Tour du Chablais #6 Monthey", "date": {"mer. 08.05.2013": {"year": 2013, "day": 8, "month": 5, "categories": {"M-M60": {"distance": 9, "rank": 35, "pace": 343000000000, "time": 3207.9}}, "weekday": "wednesday", "livingplace": "Chardonne"}}, "location": "Aigle"}, "Morat-Fribourg": {"latitude": 46.92922110000001, "longitude": 7.120184, "race": "Morat-Fribourg", "date": {"sam. 06.10.2012": {"year": 2012, "day": 6, "month": 10, "categories": {"17-M55": {"distance": 17, "rank": 146, "pace": 325000000000, "time": 5676.7}}, "weekday": "saturday", "livingplace": "Chardonne"}, "sam. 03.10.2015": {"year": 2015, "day": 3, "month": 10, "categories": {"17-M60": {"distance": 17, "rank": 80, "pace": 346000000000, "time": 5944.1}}, "weekday": "saturday", "livingplace": "Chardonne"}, "sam. 02.10.2010": {"year": 2010, "day": 2, "month": 10, "categories": {"17-M55": {"distance": 17, "rank": 138, "pace": 328000000000, "time": 5641.0}}, "weekday": "saturday", "livingplace": "Chardonne"}, "sam. 05.10.2013": {"year": 2013, "day": 5, "month": 10, "categories": {"17-M60": {"distance": 17, "rank": 98, "pace": 338000000000, "time": 5898.5}}, "weekday": "saturday", "livingplace": "Chardonne"}, "sam. 03.10.2009": {"year": 2009, "day": 3, "month": 10, "categories": {"C-M55": {"distance": 17, "rank": 122, "pace": 317000000000, "time": 5453.9}}, "weekday": "saturday", "livingplace": "Chardonne"}, "sam. 01.10.2011": {"year": 2011, "day": 1, "month": 10, "categories": {"17-M55": {"distance": 17, "rank": 109, "pace": 312000000000, "time": 5361.4}}, "weekday": "saturday", "livingplace": "Chardonne"}, "sam. 04.10.2008": {"year": 2008, "day": 4, "month": 10, "categories": {"C-M55": {"distance": 17, "rank": 167, "pace": 323000000000, "time": 5548.3}}, "weekday": "saturday", "livingplace": "Chardonne"}}, "location": "Murten"}, "10km, Payerne": {"latitude": 46.8220266, "longitude": 6.9405663, "race": "10km, Payerne", "date": {"sam. 16.04.2011": {"year": 2011, "day": 16, "month": 4, "categories": {"M50": {"distance": 10, "rank": 15, "pace": 304000000000, "time": 3047.2}}, "weekday": "saturday", "livingplace": "Chardonne"}}, "location": "Payerne"}, "Les Traine-Savates, Cheseaux-sur-Lausanne": {"latitude": 46.585452, "longitude": 6.6047712, "race": "Les Traine-Savates, Cheseaux-sur-Lausanne", "date": {"sam. 12.04.2014": {"year": 2014, "day": 12, "month": 4, "categories": {"10-M60": {"distance": 10, "rank": 26, "pace": 321000000000, "time": 3313.0}}, "weekday": "saturday", "livingplace": "Chardonne"}}, "location": "Cheseaux-sur-Lausanne"}, "Dreil\u00e4nder-Lauf, Basel": {"latitude": 47.5595986, "longitude": 7.5885761, "race": "Dreil\u00e4nder-Lauf, Basel", "date": {"dim. 22.05.2011": {"year": 2011, "day": 22, "month": 5, "categories": {"21M50": {"distance": 21, "rank": 53, "pace": 325000000000, "time": 6874.6}}, "weekday": "sunday", "livingplace": "Chardonne"}}, "location": "Basel"}, "Tour du Chablais #1 Montreux": {"latitude": 46.2957462, "longitude": 6.9916269, "race": "Tour du Chablais #1 Montreux", "date": {"mer. 11.04.2012": {"year": 2012, "day": 11, "month": 4, "categories": {"M-M50": {"distance": 8, "rank": 53, "pace": 304000000000, "time": 2312.0}}, "weekday": "wednesday", "livingplace": "Chardonne"}}, "location": "Ollon VD"}, "Tour du Chablais #3 Collombey-Muraz": {"latitude": 46.1782231, "longitude": 7.0223787, "race": "Tour du Chablais #3 Collombey-Muraz", "date": {"mer. 25.04.2012": {"year": 2012, "day": 25, "month": 4, "categories": {"M-M50": {"distance": 9, "rank": 46, "pace": 291000000000, "time": 2613.4}}, "weekday": "wednesday", "livingplace": "Chardonne"}}, "location": "Evionnaz"}, "Montreux - Les Rochers de Naye": {"latitude": 46.4312213, "longitude": 6.9106799, "race": "Montreux - Les Rochers de Naye", "date": {"dim. 08.07.2012": {"year": 2012, "day": 8, "month": 7, "categories": {"M-HV\u00e9t2": {"distance": 19, "rank": 56, "pace": 548000000000, "time": 10308.1}}, "weekday": "sunday", "livingplace": "Chardonne"}}, "location": "Montreux"}, "Tour du Chablais #6 Aigle": {"latitude": 46.3190253, "longitude": 6.970566, "race": "Tour du Chablais #6 Aigle", "date": {"mer. 01.06.2011": {"year": 2011, "day": 1, "month": 6, "categories": {"M-M50": {"distance": 10, "rank": 46, "pace": 285000000000, "time": 2912.5}}, "weekday": "wednesday", "livingplace": "Chardonne"}}, "location": "Aigle"}, "Tour du Chablais #3 Bex": {"latitude": 46.1782231, "longitude": 7.0223787, "race": "Tour du Chablais #3 Bex", "date": {"mer. 21.04.2010": {"year": 2010, "day": 21, "month": 4, "categories": {"M-M50": {"distance": 10, "rank": 47, "pace": 298000000000, "time": 2980.8}}, "weekday": "wednesday", "livingplace": "Chardonne"}}, "location": "Evionnaz"}, "Kerzerslauf": {"latitude": 46.97488999999999, "longitude": 7.1954365, "race": "Kerzerslauf", "date": {"sam. 17.03.2012": {"year": 2012, "day": 17, "month": 3, "categories": {"15-M55": {"distance": 15, "rank": 196, "pace": 326000000000, "time": 4893.4}}, "weekday": "saturday", "livingplace": "Chardonne"}}, "location": "Kerzers"}, "Tour du Chablais #6 Montreux": {"latitude": 46.3190253, "longitude": 6.970566, "race": "Tour du Chablais #6 Montreux", "date": {"mer. 16.05.2012": {"year": 2012, "day": 16, "month": 5, "categories": {"M-M50": {"distance": 9, "rank": 61, "pace": 289000000000, "time": 2682.3}}, "weekday": "wednesday", "livingplace": "Chardonne"}}, "location": "Aigle"}}, "birth": 1953}