{"name": "Deb\u00e9taz Arnaud", "sex": "M", "races": {"Tour du Pays de Vaud etape 5 - La Sarraz": {"latitude": 46.5993131, "longitude": 6.539251200000001, "race": "Tour du Pays de Vaud etape 5 - La Sarraz", "date": {"mer. 09.09.2009": {"year": 2009, "day": 9, "month": 9, "categories": {"HS1": {"distance": 9, "rank": 37, "pace": 254000000000, "time": 2138.9}}, "weekday": "wednesday", "livingplace": "Chardonne"}}, "location": "Penthaz"}, "Tour du Chablais #2 Rennaz": {"latitude": 46.3835529, "longitude": 6.854975199999999, "race": "Tour du Chablais #2 Rennaz", "date": {"mer. 04.05.2011": {"year": 2011, "day": 4, "month": 5, "categories": {"M-M20": {"distance": 9, "rank": 69, "pace": 250000000000, "time": 2338.8}}, "weekday": "wednesday", "livingplace": "Chardonne"}}, "location": "Bouveret"}, "Morat-Fribourg": {"latitude": 46.92922110000001, "longitude": 7.120184, "race": "Morat-Fribourg", "date": {"sam. 03.10.2009": {"year": 2009, "day": 3, "month": 10, "categories": {"C-M20": {"distance": 17, "rank": 456, "pace": 275000000000, "time": 4730.1}}, "weekday": "saturday", "livingplace": "Chardonne"}, "sam. 01.10.2011": {"year": 2011, "day": 1, "month": 10, "categories": {"17-M20": {"distance": 17, "rank": 391, "pace": 269000000000, "time": 4634.3}}, "weekday": "saturday", "livingplace": "Chardonne"}, "sam. 04.10.2008": {"year": 2008, "day": 4, "month": 10, "categories": {"C-M20": {"distance": 17, "rank": 720, "pace": 287000000000, "time": 4941.0}}, "weekday": "saturday", "livingplace": "Chardonne"}, "sam. 02.10.2010": {"year": 2010, "day": 2, "month": 10, "categories": {"17-M20": {"distance": 17, "rank": 310, "pace": 268000000000, "time": 4609.2}}, "weekday": "saturday", "livingplace": "Chardonne"}}, "location": "Murten"}, "Tour du Pays de Vaud printanier #2 Yverdon-les-Bains": {"latitude": 46.6698891, "longitude": 6.7975224, "race": "Tour du Pays de Vaud printanier #2 Yverdon-les-Bains", "date": {"mer. 05.06.2013": {"year": 2013, "day": 5, "month": 6, "categories": {"H-Sen1": {"distance": 9, "rank": 38, "pace": 282000000000, "time": 2573.4}}, "weekday": "wednesday", "livingplace": "Chardonne"}}, "location": "Moudon"}, "Dreil\u00e4nder-Lauf, Basel": {"latitude": 47.5595986, "longitude": 7.5885761, "race": "Dreil\u00e4nder-Lauf, Basel", "date": {"dim. 22.05.2011": {"year": 2011, "day": 22, "month": 5, "categories": {"21M30": {"distance": 21, "rank": 38, "pace": 282000000000, "time": 5962.8}}, "weekday": "sunday", "livingplace": "Chardonne"}}, "location": "Basel"}, "Lausanne Marathon": {"latitude": 46.5196535, "longitude": 6.6322734, "race": "Lausanne Marathon", "date": {"dim. 31.10.2010": {"year": 2010, "day": 31, "month": 10, "categories": {"10-H2": {"distance": 10, "rank": 73, "pace": 243000000000, "time": 2436.4}}, "weekday": "sunday", "livingplace": "Chardonne"}, "dim. 30.10.2011": {"year": 2011, "day": 30, "month": 10, "categories": {"10-H2": {"distance": 10, "rank": 68, "pace": 241000000000, "time": 2418.1}}, "weekday": "sunday", "livingplace": "Chardonne"}, "dim. 26.10.2014": {"year": 2014, "day": 26, "month": 10, "categories": {"10-H30": {"distance": 10, "rank": 397, "pace": 299000000000, "time": 2995.1}}, "weekday": "sunday", "livingplace": "Chardonne"}}, "location": "Lausanne"}, "Tour du Chablais #6 Montreux": {"latitude": 46.3190253, "longitude": 6.970566, "race": "Tour du Chablais #6 Montreux", "date": {"mer. 16.05.2012": {"year": 2012, "day": 16, "month": 5, "categories": {"M-M20": {"distance": 9, "rank": 53, "pace": 240000000000, "time": 2221.5}}, "weekday": "wednesday", "livingplace": "Chardonne"}}, "location": "Aigle"}, "Montreux - Les Rochers de Naye": {"latitude": 46.4312213, "longitude": 6.9106799, "race": "Montreux - Les Rochers de Naye", "date": {"dim. 10.07.2011": {"year": 2011, "day": 10, "month": 7, "categories": {"C-HElite": {"distance": 10, "rank": 11, "pace": 430000000000, "time": 4093.0}}, "weekday": "sunday", "livingplace": "Chardonne"}, "dim. 08.07.2012": {"year": 2012, "day": 8, "month": 7, "categories": {"M-HElite": {"distance": 19, "rank": 119, "pace": 479000000000, "time": 9008.3}}, "weekday": "sunday", "livingplace": "Chardonne"}}, "location": "Montreux"}, "Tour du Chablais #6 Aigle": {"latitude": 46.3190253, "longitude": 6.970566, "race": "Tour du Chablais #6 Aigle", "date": {"mer. 01.06.2011": {"year": 2011, "day": 1, "month": 6, "categories": {"M-M20": {"distance": 10, "rank": 64, "pace": 239000000000, "time": 2445.3}}, "weekday": "wednesday", "livingplace": "Chardonne"}}, "location": "Aigle"}, "Tour du Chablais #3 Bex": {"latitude": 46.1782231, "longitude": 7.0223787, "race": "Tour du Chablais #3 Bex", "date": {"mer. 21.04.2010": {"year": 2010, "day": 21, "month": 4, "categories": {"M-M20": {"distance": 10, "rank": 54, "pace": 252000000000, "time": 2520.6}}, "weekday": "wednesday", "livingplace": "Chardonne"}}, "location": "Evionnaz"}, "Kerzerslauf": {"latitude": 46.97488999999999, "longitude": 7.1954365, "race": "Kerzerslauf", "date": {"sam. 17.03.2012": {"year": 2012, "day": 17, "month": 3, "categories": {"15-M20": {"distance": 15, "rank": 248, "pace": 271000000000, "time": 4073.3}}, "weekday": "saturday", "livingplace": "Chardonne"}}, "location": "Kerzers"}, "Tour du Chablais #3 Collombey-Muraz": {"latitude": 46.1782231, "longitude": 7.0223787, "race": "Tour du Chablais #3 Collombey-Muraz", "date": {"mer. 25.04.2012": {"year": 2012, "day": 25, "month": 4, "categories": {"M-M20": {"distance": 9, "rank": 53, "pace": 246000000000, "time": 2213.1}}, "weekday": "wednesday", "livingplace": "Chardonne"}}, "location": "Evionnaz"}}, "birth": 1978}