{"name": "D\u00e9bieux Jo\u00ebl", "sex": "M", "races": {"Tour du Pays de Vaud printanier #2 Yverdon-les-Bains": {"latitude": 46.6698891, "longitude": 6.7975224, "race": "Tour du Pays de Vaud printanier #2 Yverdon-les-Bains", "date": {"mer. 05.06.2013": {"year": 2013, "day": 5, "month": 6, "categories": {"H-Hom": {"distance": 9, "rank": 7, "pace": 241000000000, "time": 2197.2}}, "weekday": "wednesday", "livingplace": "Bavois"}}, "location": "Moudon"}, "Morat-Fribourg": {"latitude": 46.92922110000001, "longitude": 7.120184, "race": "Morat-Fribourg", "date": {"sam. 05.10.2013": {"year": 2013, "day": 5, "month": 10, "categories": {"17-M20": {"distance": 17, "rank": 129, "pace": 241000000000, "time": 4213.9}}, "weekday": "saturday", "livingplace": "Bavois"}, "sam. 01.10.2011": {"year": 2011, "day": 1, "month": 10, "categories": {"17-M20": {"distance": 17, "rank": 175, "pace": 249000000000, "time": 4291.1}}, "weekday": "saturday", "livingplace": "Bernex"}, "sam. 06.10.2012": {"year": 2012, "day": 6, "month": 10, "categories": {"17-M20": {"distance": 17, "rank": 127, "pace": 246000000000, "time": 4300.1}}, "weekday": "saturday", "livingplace": "Bavois"}}, "location": "Murten"}, "ASICS Bremgarter Reusslauf": {"latitude": 47.34917739999999, "longitude": 8.3397905, "race": "ASICS Bremgarter Reusslauf", "date": {"sam. 23.02.2013": {"year": 2013, "day": 23, "month": 2, "categories": {"11-M20": {"distance": 11, "rank": 43, "pace": 225000000000, "time": 2479.8}}, "weekday": "saturday", "livingplace": "Yverdon"}}, "location": "Bremgarten AG"}, "SwissCityMarathon - Lucerne, Luzern": {"latitude": 47.05016819999999, "longitude": 8.3093072, "race": "SwissCityMarathon - Lucerne, Luzern", "date": {"dim. 26.10.2014": {"year": 2014, "day": 26, "month": 10, "categories": {"H-M20": {"distance": 21, "rank": 58, "pace": 249000000000, "time": 5265.6}}, "weekday": "sunday", "livingplace": "Bavois"}}, "location": "Luzern"}, "Tour du Pays de Vaud #3 - Mezi\u00e8res": {"latitude": 46.7784736, "longitude": 6.641183, "race": "Tour du Pays de Vaud #3 - Mezi\u00e8res", "date": {"mer. 22.08.2012": {"year": 2012, "day": 22, "month": 8, "categories": {"H-Hom": {"distance": 8, "rank": 9, "pace": 253000000000, "time": 2132.3}}, "weekday": "wednesday", "livingplace": "Bavois"}}, "location": "Yverdon-les-Bains"}, "Sierre-Zinal, Sierre": {"latitude": 46.29413110000001, "longitude": 7.533536199999999, "race": "Sierre-Zinal, Sierre", "date": {"dim. 12.08.2012": {"year": 2012, "day": 12, "month": 8, "categories": {"Elites": {"distance": 31, "rank": 196, "pace": 473000000000, "time": 14670.7}}, "weekday": "sunday", "livingplace": "Bavois"}, "dim. 11.08.2013": {"year": 2013, "day": 11, "month": 8, "categories": {"Elites": {"distance": 31, "rank": 251, "pace": 495000000000, "time": 15364.9}}, "weekday": "sunday", "livingplace": "Bavois"}}, "location": "Sierre"}, "20km de Lausanne": {"latitude": 46.5196535, "longitude": 6.6322734, "race": "20km de Lausanne", "date": {"sam. 30.04.2011": {"year": 2011, "day": 30, "month": 4, "categories": {"20-H20": {"distance": 20, "rank": 42, "pace": 245000000000, "time": 4915.0}}, "weekday": "saturday", "livingplace": "Bernex"}, "sam. 28.04.2012": {"year": 2012, "day": 28, "month": 4, "categories": {"20-H20": {"distance": 20, "rank": 25, "pace": 240000000000, "time": 4801.6}}, "weekday": "saturday", "livingplace": "Bavois"}, "sam. 26.04.2014": {"year": 2014, "day": 26, "month": 4, "categories": {"20-H20": {"distance": 20, "rank": 29, "pace": 239000000000, "time": 4791.6}}, "weekday": "saturday", "livingplace": "Yverdon"}}, "location": "Lausanne"}, "Tour du Pays de Vaud printanier #3 - Yens": {"latitude": 46.7829756, "longitude": 6.5728678, "race": "Tour du Pays de Vaud printanier #3 - Yens", "date": {"mer. 12.06.2013": {"year": 2013, "day": 12, "month": 6, "categories": {"H-Hom": {"distance": 9, "rank": 6, "pace": 233000000000, "time": 2121.9}}, "weekday": "wednesday", "livingplace": "Bavois"}}, "location": "Champvent"}, "Tour du Pays de Vaud #3 - Chavornay": {"latitude": 46.7784736, "longitude": 6.641183, "race": "Tour du Pays de Vaud #3 - Chavornay", "date": {"mer. 28.08.2013": {"year": 2013, "day": 28, "month": 8, "categories": {"H-Hom": {"distance": 9, "rank": 9, "pace": 224000000000, "time": 2000.4}}, "weekday": "wednesday", "livingplace": "Bavois"}}, "location": "Yverdon-les-Bains"}, "Lausanne Marathon": {"latitude": 46.5196535, "longitude": 6.6322734, "race": "Lausanne Marathon", "date": {"dim. 30.10.2011": {"year": 2011, "day": 30, "month": 10, "categories": {"21-H1": {"distance": 21, "rank": 52, "pace": 246000000000, "time": 5208.0}}, "weekday": "sunday", "livingplace": "Bernex"}}, "location": "Lausanne"}, "Course de l'Escalade, Gen\u00e8ve": {"latitude": 46.2043907, "longitude": 6.1431577, "race": "Course de l'Escalade, Gen\u00e8ve", "date": {"sam. 01.12.2012": {"year": 2012, "day": 1, "month": 12, "categories": {"Duc-Hom1": {"distance": 18, "rank": 22, "pace": 244000000000, "time": 4280.5}}, "weekday": "saturday", "livingplace": "Bavois"}}, "location": "Gen\u00e8ve"}, "Tour du Pays de Vaud #4 - La Sarraz": {"latitude": 46.7088129, "longitude": 6.5707689, "race": "Tour du Pays de Vaud #4 - La Sarraz", "date": {"mer. 29.08.2012": {"year": 2012, "day": 29, "month": 8, "categories": {"H-Hom": {"distance": 9, "rank": 12, "pace": 226000000000, "time": 1926.9}}, "weekday": "wednesday", "livingplace": "Bavois"}, "mer. 04.09.2013": {"year": 2013, "day": 4, "month": 9, "categories": {"H-Hom": {"distance": 9, "rank": 8, "pace": 232000000000, "time": 1976.6}}, "weekday": "wednesday", "livingplace": "Bavois"}}, "location": "Chavornay"}, "Kerzerslauf": {"latitude": 46.97488999999999, "longitude": 7.1954365, "race": "Kerzerslauf", "date": {"sam. 17.03.2012": {"year": 2012, "day": 17, "month": 3, "categories": {"15-M20": {"distance": 15, "rank": 62, "pace": 232000000000, "time": 3480.2}}, "weekday": "saturday", "livingplace": "Bavois"}}, "location": "Kerzers"}}, "birth": 1985}