{"name": "De Cock Guillaume", "sex": "M", "races": {"Tour du Chablais #1 Roche": {"latitude": 46.2957462, "longitude": 6.9916269, "race": "Tour du Chablais #1 Roche", "date": {"mer. 07.04.2010": {"year": 2010, "day": 7, "month": 4, "categories": {"M-M20": {"distance": 9, "rank": 32, "pace": 230000000000, "time": 2066.4}}, "weekday": "wednesday", "livingplace": "Roche"}, "mer. 03.04.2013": {"year": 2013, "day": 3, "month": 4, "categories": {"M-M20": {"distance": 9, "rank": 45, "pace": 238000000000, "time": 2113.4}}, "weekday": "wednesday", "livingplace": "Aigle"}}, "location": "Ollon VD"}, "Tour du Chablais #6 Monthey": {"latitude": 46.3190253, "longitude": 6.970566, "race": "Tour du Chablais #6 Monthey", "date": {"mer. 08.05.2013": {"year": 2013, "day": 8, "month": 5, "categories": {"M-M20": {"distance": 9, "rank": 34, "pace": 229000000000, "time": 2143.8}}, "weekday": "wednesday", "livingplace": "Aigle"}}, "location": "Aigle"}, "Morat-Fribourg": {"latitude": 46.92922110000001, "longitude": 7.120184, "race": "Morat-Fribourg", "date": {"sam. 06.10.2012": {"year": 2012, "day": 6, "month": 10, "categories": {"17-M20": {"distance": 17, "rank": 270, "pace": 260000000000, "time": 4552.0}}, "weekday": "saturday", "livingplace": "Aigle"}, "sam. 03.10.2015": {"year": 2015, "day": 3, "month": 10, "categories": {"17-M20": {"distance": 17, "rank": 118, "pace": 247000000000, "time": 4241.6}}, "weekday": "saturday", "livingplace": "Aigle"}}, "location": "Murten"}, "Tour du Chablais #4 Morgins": {"latitude": NaN, "longitude": NaN, "race": "Tour du Chablais #4 Morgins", "date": {"mer. 18.05.2011": {"year": 2011, "day": 18, "month": 5, "categories": {"M-M20": {"distance": 8, "rank": 17, "pace": 233000000000, "time": 1946.9}}, "weekday": "wednesday", "livingplace": "Roche"}}, "location": "Les Mosses"}, "20km de Lausanne": {"latitude": 46.5196535, "longitude": 6.6322734, "race": "20km de Lausanne", "date": {"sam. 30.04.2011": {"year": 2011, "day": 30, "month": 4, "categories": {"20-H20": {"distance": 20, "rank": 21, "pace": 230000000000, "time": 4619.2}}, "weekday": "saturday", "livingplace": "Roche"}, "sam. 24.04.2010": {"year": 2010, "day": 24, "month": 4, "categories": {"20-H20": {"distance": 20, "rank": 26, "pace": 239000000000, "time": 4798.9}}, "weekday": "saturday", "livingplace": "Roche"}, "sam. 27.04.2013": {"year": 2013, "day": 27, "month": 4, "categories": {"20-H20": {"distance": 20, "rank": 42, "pace": 239000000000, "time": 4781.4}}, "weekday": "saturday", "livingplace": "Aigle"}, "sam. 25.04.2015": {"year": 2015, "day": 25, "month": 4, "categories": {"20-H30": {"distance": 20, "rank": 61, "pace": 240000000000, "time": 4813.7}}, "weekday": "saturday", "livingplace": "Sentinelles"}}, "location": "Lausanne"}, "Tour du Chablais #1 Lavey": {"latitude": 46.2957462, "longitude": 6.9916269, "race": "Tour du Chablais #1 Lavey", "date": {"mer. 27.04.2011": {"year": 2011, "day": 27, "month": 4, "categories": {"M-M20": {"distance": 9, "rank": 19, "pace": 220000000000, "time": 1987.1}}, "weekday": "wednesday", "livingplace": "Roche"}}, "location": "Ollon VD"}, "Tour du Chablais #2 Yvorne": {"latitude": 46.3835529, "longitude": 6.854975199999999, "race": "Tour du Chablais #2 Yvorne", "date": {"mer. 10.04.2013": {"year": 2013, "day": 10, "month": 4, "categories": {"M-M20": {"distance": 8, "rank": 25, "pace": 243000000000, "time": 1945.0}}, "weekday": "wednesday", "livingplace": "Aigle"}}, "location": "Bouveret"}, "Tour du Chablais #2 St-Gingolph": {"latitude": 46.3835529, "longitude": 6.854975199999999, "race": "Tour du Chablais #2 St-Gingolph", "date": {"mer. 14.04.2010": {"year": 2010, "day": 14, "month": 4, "categories": {"M-M20": {"distance": 8, "rank": 19, "pace": 237000000000, "time": 1985.9}}, "weekday": "wednesday", "livingplace": "Roche"}}, "location": "Bouveret"}, "Tour du Chablais #4 Champ\u00e9ry": {"latitude": NaN, "longitude": NaN, "race": "Tour du Chablais #4 Champ\u00e9ry", "date": {"mer. 02.05.2012": {"year": 2012, "day": 2, "month": 5, "categories": {"M-M20": {"distance": 8, "rank": 23, "pace": 224000000000, "time": 1861.7}}, "weekday": "wednesday", "livingplace": "Aigle"}}, "location": "Les Mosses"}, "Tour du Chablais #5 Morgins": {"latitude": 46.3603257, "longitude": 6.931504599999999, "race": "Tour du Chablais #5 Morgins", "date": {"mer. 01.05.2013": {"year": 2013, "day": 1, "month": 5, "categories": {"M-M20": {"distance": 8, "rank": 41, "pace": 247000000000, "time": 1879.7}}, "weekday": "wednesday", "livingplace": "Aigle"}}, "location": "Roche VD"}, "Lausanne Marathon": {"latitude": 46.5196535, "longitude": 6.6322734, "race": "Lausanne Marathon", "date": {"dim. 30.10.2011": {"year": 2011, "day": 30, "month": 10, "categories": {"21-H1": {"distance": 21, "rank": 60, "pace": 250000000000, "time": 5276.7}}, "weekday": "sunday", "livingplace": "Roche"}}, "location": "Lausanne"}, "Tour du Chablais #4 St  Maurice": {"latitude": NaN, "longitude": NaN, "race": "Tour du Chablais #4 St  Maurice", "date": {"mer. 24.04.2013": {"year": 2013, "day": 24, "month": 4, "categories": {"M-M20": {"distance": 10, "rank": 81, "pace": 262000000000, "time": 2628.9}}, "weekday": "wednesday", "livingplace": "Aigle"}}, "location": "Les Mosses"}, "Tour du Chablais #3 Collombey-Muraz": {"latitude": 46.1782231, "longitude": 7.0223787, "race": "Tour du Chablais #3 Collombey-Muraz", "date": {"mer. 25.04.2012": {"year": 2012, "day": 25, "month": 4, "categories": {"M-M20": {"distance": 9, "rank": 37, "pace": 228000000000, "time": 2054.8}}, "weekday": "wednesday", "livingplace": "Aigle"}}, "location": "Evionnaz"}, "Tour du Pays de Vaud etape 5 - La Sarraz": {"latitude": 46.5993131, "longitude": 6.539251200000001, "race": "Tour du Pays de Vaud etape 5 - La Sarraz", "date": {"mer. 09.09.2009": {"year": 2009, "day": 9, "month": 9, "categories": {"Hom": {"distance": 9, "rank": 15, "pace": 236000000000, "time": 1989.4}}, "weekday": "wednesday", "livingplace": "Roche"}}, "location": "Penthaz"}, "Tour du Chablais #3 Bex": {"latitude": 46.1782231, "longitude": 7.0223787, "race": "Tour du Chablais #3 Bex", "date": {"mer. 21.04.2010": {"year": 2010, "day": 21, "month": 4, "categories": {"M-M20": {"distance": 10, "rank": 20, "pace": 227000000000, "time": 2274.9}}, "weekday": "wednesday", "livingplace": "Roche"}}, "location": "Evionnaz"}, "Tour du Chablais #3 Le Bouveret": {"latitude": 46.1782231, "longitude": 7.0223787, "race": "Tour du Chablais #3 Le Bouveret", "date": {"mer. 11.05.2011": {"year": 2011, "day": 11, "month": 5, "categories": {"M-M20": {"distance": 10, "rank": 21, "pace": 222000000000, "time": 2224.7}}, "weekday": "wednesday", "livingplace": "Roche"}}, "location": "Evionnaz"}, "Sierre-Zinal, Sierre": {"latitude": 46.29413110000001, "longitude": 7.533536199999999, "race": "Sierre-Zinal, Sierre", "date": {"dim. 12.08.2012": {"year": 2012, "day": 12, "month": 8, "categories": {"Elites": {"distance": 31, "rank": 240, "pace": 495000000000, "time": 15348.2}}, "weekday": "sunday", "livingplace": "Aigle"}}, "location": "Sierre"}, "Tour du Chablais #6 Mouthey": {"latitude": 46.3190253, "longitude": 6.970566, "race": "Tour du Chablais #6 Mouthey", "date": {"mer. 12.05.2010": {"year": 2010, "day": 12, "month": 5, "categories": {"M-M20": {"distance": 9, "rank": 22, "pace": 215000000000, "time": 1984.3}}, "weekday": "wednesday", "livingplace": "Roche"}}, "location": "Aigle"}, "Tour du Chablais #1 Montreux": {"latitude": 46.2957462, "longitude": 6.9916269, "race": "Tour du Chablais #1 Montreux", "date": {"mer. 11.04.2012": {"year": 2012, "day": 11, "month": 4, "categories": {"M-M20": {"distance": 8, "rank": 41, "pace": 242000000000, "time": 1845.0}}, "weekday": "wednesday", "livingplace": "Aigle"}}, "location": "Ollon VD"}, "Tour du Chablais #6 Montreux": {"latitude": 46.3190253, "longitude": 6.970566, "race": "Tour du Chablais #6 Montreux", "date": {"mer. 16.05.2012": {"year": 2012, "day": 16, "month": 5, "categories": {"M-M20": {"distance": 9, "rank": 18, "pace": 217000000000, "time": 2009.1}}, "weekday": "wednesday", "livingplace": "Aigle"}}, "location": "Aigle"}, "Montreux - Les Rochers de Naye": {"latitude": 46.4312213, "longitude": 6.9106799, "race": "Montreux - Les Rochers de Naye", "date": {"dim. 08.07.2012": {"year": 2012, "day": 8, "month": 7, "categories": {"M-HElite": {"distance": 19, "rank": 38, "pace": 407000000000, "time": 7658.0}}, "weekday": "sunday", "livingplace": "Aigle"}, "dim. 05.07.2015": {"year": 2015, "day": 5, "month": 7, "categories": {"M-HElite": {"distance": 19, "rank": 37, "pace": 396000000000, "time": 7456.2}}, "weekday": "sunday", "livingplace": "Aigle"}}, "location": "Montreux"}, "Tour du Chablais #2 Bex": {"latitude": 46.3835529, "longitude": 6.854975199999999, "race": "Tour du Chablais #2 Bex", "date": {"mer. 18.04.2012": {"year": 2012, "day": 18, "month": 4, "categories": {"M-M20": {"distance": 8, "rank": 53, "pace": 245000000000, "time": 1961.5}}, "weekday": "wednesday", "livingplace": "Aigle"}}, "location": "Bouveret"}, "Tour du Chablais #3 Bouveret": {"latitude": 46.1782231, "longitude": 7.0223787, "race": "Tour du Chablais #3 Bouveret", "date": {"mer. 17.04.2013": {"year": 2013, "day": 17, "month": 4, "categories": {"M-M20": {"distance": 10, "rank": 23, "pace": 228000000000, "time": 2289.3}}, "weekday": "wednesday", "livingplace": "Aigle"}}, "location": "Evionnaz"}}, "birth": 1985}