{"name": "De Cristofano Salvatore", "sex": "M", "races": {"Lucerne Marathon, Luzern": {"latitude": 47.05016819999999, "longitude": 8.3093072, "race": "Lucerne Marathon, Luzern", "date": {"dim. 31.10.2010": {"year": 2010, "day": 31, "month": 10, "categories": {"H-M30": {"distance": 21, "rank": 38, "pace": 230000000000, "time": 4872.0}}, "weekday": "sunday", "livingplace": "Orpund"}, "dim. 30.10.2011": {"year": 2011, "day": 30, "month": 10, "categories": {"H-M30": {"distance": 21, "rank": 26, "pace": 228000000000, "time": 4829.1}}, "weekday": "sunday", "livingplace": "Orpund"}}, "location": "Luzern"}, "SwissCityMarathon - Lucerne, Luzern": {"latitude": 47.05016819999999, "longitude": 8.3093072, "race": "SwissCityMarathon - Lucerne, Luzern", "date": {"dim. 26.10.2014": {"year": 2014, "day": 26, "month": 10, "categories": {"H-M30": {"distance": 21, "rank": 32, "pace": 232000000000, "time": 4899.5}}, "weekday": "sunday", "livingplace": "Orpund"}}, "location": "Luzern"}, "ASICS Bremgarter Reusslauf": {"latitude": 47.34917739999999, "longitude": 8.3397905, "race": "ASICS Bremgarter Reusslauf", "date": {"sam. 28.02.2015": {"year": 2015, "day": 28, "month": 2, "categories": {"11-M30": {"distance": 11, "rank": 52, "pace": 229000000000, "time": 2523.1}}, "weekday": "saturday", "livingplace": "Orpund"}}, "location": "Bremgarten AG"}, "Basler Stadtlauf": {"latitude": 47.5595986, "longitude": 7.5885761, "race": "Basler Stadtlauf", "date": {"sam. 28.11.2015": {"year": 2015, "day": 28, "month": 11, "categories": {"M35": {"distance": 6, "rank": 12, "pace": 208000000000, "time": 1144.2}}, "weekday": "saturday", "livingplace": "Orpund"}}, "location": "Basel"}, "Int  Bieler Cross, Biel-Bienne": {"latitude": 47.1367785, "longitude": 7.2467909, "race": "Int  Bieler Cross, Biel-Bienne", "date": {"dim. 09.11.2014": {"year": 2014, "day": 9, "month": 11, "categories": {"M30": {"distance": 8, "rank": 5, "pace": 222000000000, "time": 1783.2}}, "weekday": "sunday", "livingplace": "Orpund"}}, "location": "Biel/Bienne"}, "20km de Lausanne": {"latitude": 46.5196535, "longitude": 6.6322734, "race": "20km de Lausanne", "date": {"sam. 24.04.2010": {"year": 2010, "day": 24, "month": 4, "categories": {"10-H30": {"distance": 10, "rank": 10, "pace": 218000000000, "time": 2188.3}}, "weekday": "saturday", "livingplace": "Orpund"}, "sam. 25.04.2009": {"year": 2009, "day": 25, "month": 4, "categories": {"10-H30": {"distance": 10, "rank": 19, "pace": 224000000000, "time": 2248.6}}, "weekday": "saturday", "livingplace": "Orpund"}}, "location": "Lausanne"}, "Hallwilerseelauf, Beinwil am See": {"latitude": NaN, "longitude": NaN, "race": "Hallwilerseelauf, Beinwil am See", "date": {"sam. 11.10.2014": {"year": 2014, "day": 11, "month": 10, "categories": {"10-Mann": {"distance": 10, "rank": 8, "pace": 210000000000, "time": 2101.0}}, "weekday": "saturday", "livingplace": "Orpund"}}, "location": "Beinwil am See"}, "Bieler Lauftage, Biel Bienne": {"latitude": 47.1367785, "longitude": 7.2467909, "race": "Bieler Lauftage, Biel Bienne", "date": {"ven. 12.06.2009": {"year": 2009, "day": 12, "month": 6, "categories": {"H/M30": {"distance": 21, "rank": 5, "pace": 257000000000, "time": 5442.5}}, "weekday": "friday", "livingplace": "Orpund"}}, "location": "Biel/Bienne"}, "Corrida Bulloise, Bulle": {"latitude": 46.6154512, "longitude": 7.057726799999999, "race": "Corrida Bulloise, Bulle", "date": {"sam. 21.11.2015": {"year": 2015, "day": 21, "month": 11, "categories": {"8-M20": {"distance": 8, "rank": 28, "pace": 226000000000, "time": 1848.3}}, "weekday": "saturday", "livingplace": "Orpund"}}, "location": "Bulle"}, "Herbstlauf Burgdorf": {"latitude": 45.277123, "longitude": -115.9129022, "race": "Herbstlauf Burgdorf", "date": {"sam. 23.10.2010": {"year": 2010, "day": 23, "month": 10, "categories": {"V": {"distance": 5, "rank": 1, "pace": 225000000000, "time": 1127.4}}, "weekday": "saturday", "livingplace": "Orpund"}}, "location": "Burgdorf"}, "Frauenfelder": {"latitude": NaN, "longitude": NaN, "race": "Frauenfelder", "date": {"dim. 16.11.2014": {"year": 2014, "day": 16, "month": 11, "categories": {"HM-M30": {"distance": 21, "rank": 14, "pace": 227000000000, "time": 4794.6}}, "weekday": "sunday", "livingplace": "Orpund"}}, "location": "Frauenfeld"}, "Willisauer Lauf, Willisau": {"latitude": NaN, "longitude": NaN, "race": "Willisauer Lauf, Willisau", "date": {"sam. 20.09.2014": {"year": 2014, "day": 20, "month": 9, "categories": {"H-M30": {"distance": 12, "rank": 6, "pace": 224000000000, "time": 2698.5}}, "weekday": "saturday", "livingplace": "Orpund"}}, "location": "Willisau"}, "Schlosslauf Rapperswil-Jona": {"latitude": 47.2266239, "longitude": 8.818437399999999, "race": "Schlosslauf Rapperswil-Jona", "date": {"dim. 19.10.2014": {"year": 2014, "day": 19, "month": 10, "categories": {"5-Men": {"distance": 5, "rank": 8, "pace": 220000000000, "time": 1190.2}}, "weekday": "sunday", "livingplace": "Orpund"}}, "location": "Rapperswil SG"}, "Morat-Fribourg": {"latitude": 46.92922110000001, "longitude": 7.120184, "race": "Morat-Fribourg", "date": {"sam. 04.10.2014": {"year": 2014, "day": 4, "month": 10, "categories": {"17-M20": {"distance": 17, "rank": 138, "pace": 245000000000, "time": 4218.2}}, "weekday": "saturday", "livingplace": "Orpund"}}, "location": "Murten"}}, "birth": 1977}