{"name": "De Faria Patrick", "sex": "M", "races": {"Tour du Pays de Vaud #1, Penthaz": {"latitude": 46.5993131, "longitude": 6.539251200000001, "race": "Tour du Pays de Vaud #1, Penthaz", "date": {"mer. 13.08.2014": {"year": 2014, "day": 13, "month": 8, "categories": {"H-Sen1": {"distance": 9, "rank": 109, "pace": 320000000000, "time": 2735.0}}, "weekday": "wednesday", "livingplace": "Montreux"}}, "location": "Penthaz"}, "Tour du pays de Vaud #1 - Penthaz": {"latitude": 46.5993131, "longitude": 6.539251200000001, "race": "Tour du pays de Vaud #1 - Penthaz", "date": {"mer. 14.08.2013": {"year": 2013, "day": 14, "month": 8, "categories": {"H-Sen1": {"distance": 9, "rank": 139, "pace": 329000000000, "time": 2808.9}}, "weekday": "wednesday", "livingplace": "Montreux"}}, "location": "Penthaz"}, "Tour du pays de Vaud #6 - St  Prex": {"latitude": 46.4829113, "longitude": 6.458343500000001, "race": "Tour du pays de Vaud #6 - St  Prex", "date": {"mer. 14.09.2011": {"year": 2011, "day": 14, "month": 9, "categories": {"H-Sen1": {"distance": 9, "rank": 141, "pace": 308000000000, "time": 2653.0}}, "weekday": "wednesday", "livingplace": "Montreux"}}, "location": "St-Prex"}, "Tour du Pays de Vaud #3 - Chavornay": {"latitude": 46.7784736, "longitude": 6.641183, "race": "Tour du Pays de Vaud #3 - Chavornay", "date": {"mer. 28.08.2013": {"year": 2013, "day": 28, "month": 8, "categories": {"H-Sen1": {"distance": 9, "rank": 138, "pace": 329000000000, "time": 2935.2}}, "weekday": "wednesday", "livingplace": "Montreux"}}, "location": "Yverdon-les-Bains"}, "Lausanne Marathon": {"latitude": 46.5196535, "longitude": 6.6322734, "race": "Lausanne Marathon", "date": {"dim. 31.10.2010": {"year": 2010, "day": 31, "month": 10, "categories": {"21-H2": {"distance": 21, "rank": 660, "pace": 326000000000, "time": 6891.0}}, "weekday": "sunday", "livingplace": "Montreux"}, "sam. 24.10.2015": {"year": 2015, "day": 24, "month": 10, "categories": {"10-H30": {"distance": 10, "rank": 519, "pace": 311000000000, "time": 3111.1}}, "weekday": "saturday", "livingplace": "Montreux"}}, "location": "Lausanne"}, "Morat-Fribourg": {"latitude": 46.92922110000001, "longitude": 7.120184, "race": "Morat-Fribourg", "date": {"sam. 03.10.2009": {"year": 2009, "day": 3, "month": 10, "categories": {"C-M20": {"distance": 17, "rank": 1667, "pace": 345000000000, "time": 5933.8}}, "weekday": "saturday", "livingplace": "Montreux"}, "sam. 02.10.2010": {"year": 2010, "day": 2, "month": 10, "categories": {"17-M20": {"distance": 17, "rank": 1453, "pace": 337000000000, "time": 5790.7}}, "weekday": "saturday", "livingplace": "Montreux"}}, "location": "Murten"}, "20km de Lausanne": {"latitude": 46.5196535, "longitude": 6.6322734, "race": "20km de Lausanne", "date": {"sam. 24.04.2010": {"year": 2010, "day": 24, "month": 4, "categories": {"10-H30": {"distance": 10, "rank": 382, "pace": 312000000000, "time": 3121.1}}, "weekday": "saturday", "livingplace": "Montreux"}, "sam. 25.04.2015": {"year": 2015, "day": 25, "month": 4, "categories": {"10-H30": {"distance": 10, "rank": 794, "pace": 326000000000, "time": 3263.9}}, "weekday": "saturday", "livingplace": "Montreux"}, "sam. 26.04.2014": {"year": 2014, "day": 26, "month": 4, "categories": {"10-H30": {"distance": 10, "rank": 817, "pace": 335000000000, "time": 3352.6}}, "weekday": "saturday", "livingplace": "Montreux"}}, "location": "Lausanne"}, "Tour du Pays de Vaud printanier #3 - Yens": {"latitude": 46.7829756, "longitude": 6.5728678, "race": "Tour du Pays de Vaud printanier #3 - Yens", "date": {"mer. 12.06.2013": {"year": 2013, "day": 12, "month": 6, "categories": {"H-Sen1": {"distance": 9, "rank": 97, "pace": 349000000000, "time": 3178.6}}, "weekday": "wednesday", "livingplace": "Montreux"}, "mer. 18.06.2014": {"year": 2014, "day": 18, "month": 6, "categories": {"H-Sen1": {"distance": 9, "rank": 99, "pace": 332000000000, "time": 3025.8}}, "weekday": "wednesday", "livingplace": "Montreux"}}, "location": "Champvent"}, "Kerzerslauf": {"latitude": 46.97488999999999, "longitude": 7.1954365, "race": "Kerzerslauf", "date": {"sam. 21.03.2015": {"year": 2015, "day": 21, "month": 3, "categories": {"15-M35": {"distance": 15, "rank": 372, "pace": 347000000000, "time": 5209.6}}, "weekday": "saturday", "livingplace": "Montreux"}, "sam. 16.03.2013": {"year": 2013, "day": 16, "month": 3, "categories": {"15-M35": {"distance": 15, "rank": 319, "pace": 340000000000, "time": 5103.0}}, "weekday": "saturday", "livingplace": "Montreux"}}, "location": "Kerzers"}, "Tour du Pays de Vaud #4 - La Sarraz": {"latitude": 46.7088129, "longitude": 6.5707689, "race": "Tour du Pays de Vaud #4 - La Sarraz", "date": {"mer. 04.09.2013": {"year": 2013, "day": 4, "month": 9, "categories": {"H-Sen1": {"distance": 9, "rank": 134, "pace": 344000000000, "time": 2926.0}}, "weekday": "wednesday", "livingplace": "Montreux"}}, "location": "Chavornay"}, "Z\u00fcrich Marathon, Teamrun und Cityrun": {"latitude": 47.3768866, "longitude": 8.541694, "race": "Z\u00fcrich Marathon, Teamrun und Cityrun", "date": {"dim. 17.04.2011": {"year": 2011, "day": 17, "month": 4, "categories": {"42-M30": {"distance": 42, "rank": 589, "pace": 403000000000, "time": 17012.0}}, "weekday": "sunday", "livingplace": "Montreux"}}, "location": "Z\u00fcrich"}}, "birth": 1976}