{"name": "De Gol Cora", "sex": "F", "races": {"Tour du Chablais #5 Bex": {"latitude": 46.3603257, "longitude": 6.931504599999999, "race": "Tour du Chablais #5 Bex", "date": {"mer. 09.05.2012": {"year": 2012, "day": 9, "month": 5, "categories": {"F-F20": {"distance": 9, "rank": 61, "pace": 316000000000, "time": 2803.5}}, "weekday": "wednesday", "livingplace": "Muraz Collombey"}}, "location": "Roche VD"}, "Tour du Chablais #1 Martigny": {"latitude": 46.2957462, "longitude": 6.9916269, "race": "Tour du Chablais #1 Martigny", "date": {"mer. 23.04.2014": {"year": 2014, "day": 23, "month": 4, "categories": {"F-F20": {"distance": 9, "rank": 59, "pace": 305000000000, "time": 2598.4}}, "weekday": "wednesday", "livingplace": "Muraz Collombey"}}, "location": "Ollon VD"}, "Tour du Chablais #4 Champ\u00e9ry": {"latitude": NaN, "longitude": NaN, "race": "Tour du Chablais #4 Champ\u00e9ry", "date": {"mer. 02.05.2012": {"year": 2012, "day": 2, "month": 5, "categories": {"F-F20": {"distance": 8, "rank": 42, "pace": 305000000000, "time": 2534.0}}, "weekday": "wednesday", "livingplace": "Muraz Collombey"}}, "location": "Les Mosses"}, "Tour du Chablais #1 Montreux": {"latitude": 46.2957462, "longitude": 6.9916269, "race": "Tour du Chablais #1 Montreux", "date": {"mer. 11.04.2012": {"year": 2012, "day": 11, "month": 4, "categories": {"F-F20": {"distance": 8, "rank": 56, "pace": 330000000000, "time": 2510.0}}, "weekday": "wednesday", "livingplace": "Muraz Collombey"}}, "location": "Ollon VD"}, "Tour du Chablais #6 Montreux": {"latitude": 46.3190253, "longitude": 6.970566, "race": "Tour du Chablais #6 Montreux", "date": {"mer. 16.05.2012": {"year": 2012, "day": 16, "month": 5, "categories": {"F-F20": {"distance": 9, "rank": 45, "pace": 301000000000, "time": 2786.9}}, "weekday": "wednesday", "livingplace": "Muraz Collombey"}}, "location": "Aigle"}, "20km de Lausanne": {"latitude": 46.5196535, "longitude": 6.6322734, "race": "20km de Lausanne", "date": {"sam. 25.04.2015": {"year": 2015, "day": 25, "month": 4, "categories": {"10-F20": {"distance": 10, "rank": 211, "pace": 317000000000, "time": 3175.4}}, "weekday": "saturday", "livingplace": "Muraz Collombey"}}, "location": "Lausanne"}, "Tour du Chablais #2 Bex": {"latitude": 46.3835529, "longitude": 6.854975199999999, "race": "Tour du Chablais #2 Bex", "date": {"mer. 18.04.2012": {"year": 2012, "day": 18, "month": 4, "categories": {"F-F20": {"distance": 8, "rank": 54, "pace": 314000000000, "time": 2512.8}}, "weekday": "wednesday", "livingplace": "Muraz Collombey"}}, "location": "Bouveret"}, "Tour du Chablais #3 Collombey-Muraz": {"latitude": 46.1782231, "longitude": 7.0223787, "race": "Tour du Chablais #3 Collombey-Muraz", "date": {"mer. 25.04.2012": {"year": 2012, "day": 25, "month": 4, "categories": {"F-F20": {"distance": 9, "rank": 54, "pace": 311000000000, "time": 2795.8}}, "weekday": "wednesday", "livingplace": "Muraz Collombey"}}, "location": "Evionnaz"}}, "birth": 1992}