{"name": "Degrada Xavier", "sex": "M", "races": {"Tour du Chablais #1 Martigny": {"latitude": 46.2957462, "longitude": 6.9916269, "race": "Tour du Chablais #1 Martigny", "date": {"mer. 23.04.2014": {"year": 2014, "day": 23, "month": 4, "categories": {"M-M40": {"distance": 9, "rank": 3, "pace": 209000000000, "time": 1783.7}}, "weekday": "wednesday", "livingplace": "Troistorrents"}}, "location": "Ollon VD"}, "Course de l'Escalade, Gen\u00e8ve": {"latitude": 46.2043907, "longitude": 6.1431577, "race": "Course de l'Escalade, Gen\u00e8ve", "date": {"sam. 07.12.2013": {"year": 2013, "day": 7, "month": 12, "categories": {"Elite-M": {"distance": 7, "rank": 122, "pace": 219000000000, "time": 1587.8}}, "weekday": "saturday", "livingplace": "Troistorrents"}}, "location": "Gen\u00e8ve"}, "Morat-Fribourg": {"latitude": 46.92922110000001, "longitude": 7.120184, "race": "Morat-Fribourg", "date": {"sam. 06.10.2007": {"year": 2007, "day": 6, "month": 10, "categories": {"J/CM": {"distance": 9, "rank": 2, "pace": 210000000000, "time": 1811.4}}, "weekday": "saturday", "livingplace": "Troistorrents"}}, "location": "Murten"}, "Corrida Bulloise, Bulle": {"latitude": 46.6154512, "longitude": 7.057726799999999, "race": "Corrida Bulloise, Bulle", "date": {"sam. 16.11.2013": {"year": 2013, "day": 16, "month": 11, "categories": {"M20": {"distance": 8, "rank": 27, "pace": 219000000000, "time": 1786.3}}, "weekday": "saturday", "livingplace": "Troistorrents"}, "sam. 15.11.2014": {"year": 2014, "day": 15, "month": 11, "categories": {"Pop-Hom": {"distance": 6, "rank": 7, "pace": 216000000000, "time": 1333.2}}, "weekday": "saturday", "livingplace": "Troistorrents"}}, "location": "Bulle"}, "Lausanne Marathon": {"latitude": 46.5196535, "longitude": 6.6322734, "race": "Lausanne Marathon", "date": {"dim. 31.10.2010": {"year": 2010, "day": 31, "month": 10, "categories": {"21-H2": {"distance": 21, "rank": 35, "pace": 234000000000, "time": 4956.0}}, "weekday": "sunday", "livingplace": "Troistorrents"}}, "location": "Lausanne"}, "Tour du Chablais #5 Morgins": {"latitude": 46.3603257, "longitude": 6.931504599999999, "race": "Tour du Chablais #5 Morgins", "date": {"mer. 01.05.2013": {"year": 2013, "day": 1, "month": 5, "categories": {"M-M20": {"distance": 8, "rank": 14, "pace": 229000000000, "time": 1740.6}}, "weekday": "wednesday", "livingplace": "Troistorrents"}}, "location": "Roche VD"}, "20km de Lausanne": {"latitude": 46.5196535, "longitude": 6.6322734, "race": "20km de Lausanne", "date": {"sam. 25.04.2009": {"year": 2009, "day": 25, "month": 4, "categories": {"20-H30": {"distance": 20, "rank": 17, "pace": 220000000000, "time": 4419.4}}, "weekday": "saturday", "livingplace": "Troistorrents"}}, "location": "Lausanne"}, "Tour du Chablais #2 Yvorne": {"latitude": 46.3835529, "longitude": 6.854975199999999, "race": "Tour du Chablais #2 Yvorne", "date": {"mer. 10.04.2013": {"year": 2013, "day": 10, "month": 4, "categories": {"M-M20": {"distance": 8, "rank": 12, "pace": 232000000000, "time": 1856.4}}, "weekday": "wednesday", "livingplace": "Troistorrents"}}, "location": "Bouveret"}, "Tour du Chablais #3 Bouveret": {"latitude": 46.1782231, "longitude": 7.0223787, "race": "Tour du Chablais #3 Bouveret", "date": {"mer. 17.04.2013": {"year": 2013, "day": 17, "month": 4, "categories": {"M-M20": {"distance": 10, "rank": 15, "pace": 218000000000, "time": 2185.2}}, "weekday": "wednesday", "livingplace": "Troistorrents"}}, "location": "Evionnaz"}, "Z\u00fcrich Marathon, Teamrun und Cityrun": {"latitude": 47.3768866, "longitude": 8.541694, "race": "Z\u00fcrich Marathon, Teamrun und Cityrun", "date": {"dim. 01.04.2007": {"year": 2007, "day": 1, "month": 4, "categories": {"M30": {"distance": 42, "rank": 94, "pace": 249000000000, "time": 10543.3}}, "weekday": "sunday", "livingplace": "Troistorrents"}}, "location": "Z\u00fcrich"}}, "birth": 1974}