{"name": "Delgado-Gonzalo Ricard", "sex": "M", "races": {"Tour du Pays de Vaud printanier #2 Yverdon-les-Bains": {"latitude": 46.6698891, "longitude": 6.7975224, "race": "Tour du Pays de Vaud printanier #2 Yverdon-les-Bains", "date": {"mer. 05.06.2013": {"year": 2013, "day": 5, "month": 6, "categories": {"H-Sen1": {"distance": 9, "rank": 63, "pace": 317000000000, "time": 2890.5}}, "weekday": "wednesday", "livingplace": "Ecublens"}}, "location": "Moudon"}, "Tour du Pays de Vaud #4 - La Sarraz": {"latitude": 46.7088129, "longitude": 6.5707689, "race": "Tour du Pays de Vaud #4 - La Sarraz", "date": {"mer. 04.09.2013": {"year": 2013, "day": 4, "month": 9, "categories": {"H-Sen1": {"distance": 9, "rank": 145, "pace": 371000000000, "time": 3157.6}}, "weekday": "wednesday", "livingplace": "Ecublens"}}, "location": "Chavornay"}, "Tour du Pays de Vaud printanier #3 - Yens": {"latitude": 46.7829756, "longitude": 6.5728678, "race": "Tour du Pays de Vaud printanier #3 - Yens", "date": {"mer. 12.06.2013": {"year": 2013, "day": 12, "month": 6, "categories": {"H-Sen1": {"distance": 9, "rank": 69, "pace": 313000000000, "time": 2849.8}}, "weekday": "wednesday", "livingplace": "Ecublens"}}, "location": "Champvent"}, "Tour du Pays de Vaud #2 - Mezi\u00e8res": {"latitude": 46.5955273, "longitude": 6.7702883, "race": "Tour du Pays de Vaud #2 - Mezi\u00e8res", "date": {"mer. 21.08.2013": {"year": 2013, "day": 21, "month": 8, "categories": {"H-Sen1": {"distance": 8, "rank": 77, "pace": 310000000000, "time": 2516.4}}, "weekday": "wednesday", "livingplace": "Ecublens"}}, "location": "M\u00e9zi\u00e8res VD"}, "Tour du Pays de Vaud #3 - Chavornay": {"latitude": 46.7784736, "longitude": 6.641183, "race": "Tour du Pays de Vaud #3 - Chavornay", "date": {"mer. 28.08.2013": {"year": 2013, "day": 28, "month": 8, "categories": {"H-Sen1": {"distance": 9, "rank": 99, "pace": 294000000000, "time": 2619.0}}, "weekday": "wednesday", "livingplace": "Ecublens"}}, "location": "Yverdon-les-Bains"}, "Lausanne Marathon": {"latitude": 46.5196535, "longitude": 6.6322734, "race": "Lausanne Marathon", "date": {"dim. 26.10.2014": {"year": 2014, "day": 26, "month": 10, "categories": {"21-H30": {"distance": 21, "rank": 383, "pace": 296000000000, "time": 6262.8}}, "weekday": "sunday", "livingplace": "Ecublens"}, "dim. 27.10.2013": {"year": 2013, "day": 27, "month": 10, "categories": {"10-H2": {"distance": 10, "rank": 293, "pace": 297000000000, "time": 2972.6}}, "weekday": "sunday", "livingplace": "Ecublens"}}, "location": "Lausanne"}, "SwissCityMarathon - Lucerne, Luzern": {"latitude": 47.05016819999999, "longitude": 8.3093072, "race": "SwissCityMarathon - Lucerne, Luzern", "date": {"dim. 25.10.2015": {"year": 2015, "day": 25, "month": 10, "categories": {"H-M30": {"distance": 21, "rank": 243, "pace": 288000000000, "time": 6082.1}}, "weekday": "sunday", "livingplace": "Lausanne"}}, "location": "Luzern"}, "20km de Lausanne": {"latitude": 46.5196535, "longitude": 6.6322734, "race": "20km de Lausanne", "date": {"sam. 25.04.2015": {"year": 2015, "day": 25, "month": 4, "categories": {"10-H30": {"distance": 10, "rank": 175, "pace": 269000000000, "time": 2695.5}}, "weekday": "saturday", "livingplace": "Lausanne"}, "sam. 26.04.2014": {"year": 2014, "day": 26, "month": 4, "categories": {"10-H30": {"distance": 10, "rank": 160, "pace": 268000000000, "time": 2685.0}}, "weekday": "saturday", "livingplace": "Ecublens"}}, "location": "Lausanne"}, "Tour du Pays de Vaud printanier #1 Moudon": {"latitude": 46.3832683, "longitude": 6.2347852, "race": "Tour du Pays de Vaud printanier #1 Moudon", "date": {"mer. 29.05.2013": {"year": 2013, "day": 29, "month": 5, "categories": {"H-Sen1": {"distance": 8, "rank": 39, "pace": 279000000000, "time": 2391.7}}, "weekday": "wednesday", "livingplace": "Ecublens"}}, "location": "Nyon"}, "Dreil\u00e4nder-Lauf, Basel": {"latitude": 47.5595986, "longitude": 7.5885761, "race": "Dreil\u00e4nder-Lauf, Basel", "date": {"dim. 26.05.2013": {"year": 2013, "day": 26, "month": 5, "categories": {"21M30": {"distance": 21, "rank": 89, "pace": 307000000000, "time": 6487.4}}, "weekday": "sunday", "livingplace": "Ecublens"}}, "location": "Basel"}}, "birth": 1983}