{"name": "Dell Acqua St\u00e9phane", "sex": "M", "races": {"Kerzerslauf": {"latitude": 46.97488999999999, "longitude": 7.1954365, "race": "Kerzerslauf", "date": {"sam. 18.03.2006": {"year": 2006, "day": 18, "month": 3, "categories": {"M35": {"distance": 15, "rank": 318, "pace": 310000000000, "time": 4660.2}}, "weekday": "saturday", "livingplace": "Auvernier"}}, "location": "Kerzers"}, "BCN Tour Couvet": {"latitude": 47.0624261, "longitude": 6.9175754, "race": "BCN Tour Couvet", "date": {"mer. 02.05.2012": {"year": 2012, "day": 2, "month": 5, "categories": {"HS2": {"distance": 11, "rank": 168, "pace": 319000000000, "time": 3564.1}}, "weekday": "wednesday", "livingplace": "Auvernier"}}, "location": "Ch\u00e9zard-St-Martin"}, "BCN Tour #1 Corcelles": {"latitude": 46.9668714, "longitude": 6.8589727, "race": "BCN Tour #1 Corcelles", "date": {"mer. 24.04.2013": {"year": 2013, "day": 24, "month": 4, "categories": {"HS2": {"distance": 10, "rank": 149, "pace": 299000000000, "time": 2936.5}}, "weekday": "wednesday", "livingplace": "Auvernier"}}, "location": "Colombier NE"}, "BCN Tour #4 Fleurier": {"latitude": 47.1034892, "longitude": 6.832783800000001, "race": "BCN Tour #4 Fleurier", "date": {"mer. 15.05.2013": {"year": 2013, "day": 15, "month": 5, "categories": {"HS2": {"distance": 9, "rank": 114, "pace": 296000000000, "time": 2564.3}}, "weekday": "wednesday", "livingplace": "Auvernier"}}, "location": "La Chaux-de-Fonds"}, "BCN Tour Colombier": {"latitude": 47.1034892, "longitude": 6.832783800000001, "race": "BCN Tour Colombier", "date": {"mer. 16.05.2012": {"year": 2012, "day": 16, "month": 5, "categories": {"HS2": {"distance": 11, "rank": 199, "pace": 314000000000, "time": 3392.2}}, "weekday": "wednesday", "livingplace": "Auvernier"}}, "location": "La Chaux-de-Fonds"}, "BCN Tour La Chaux-de-Fonds": {"latitude": 46.9262933, "longitude": 6.6324944, "race": "BCN Tour La Chaux-de-Fonds", "date": {"mer. 23.05.2012": {"year": 2012, "day": 23, "month": 5, "categories": {"HS2": {"distance": 11, "rank": 174, "pace": 315000000000, "time": 3412.6}}, "weekday": "wednesday", "livingplace": "Auvernier"}}, "location": "Couvet"}, "BCN Tour #6 Neuch\u00e2tel": {"latitude": 46.9899874, "longitude": 6.9292732, "race": "BCN Tour #6 Neuch\u00e2tel", "date": {"mer. 29.05.2013": {"year": 2013, "day": 29, "month": 5, "categories": {"HS2": {"distance": 11, "rank": 133, "pace": 306000000000, "time": 3366.6}}, "weekday": "wednesday", "livingplace": "Auvernier"}}, "location": "Neuch\u00e2tel"}, "BCN Tour Les Ponts-de-Martel": {"latitude": 46.999113, "longitude": 6.733554799999999, "race": "BCN Tour Les Ponts-de-Martel", "date": {"mer. 09.05.2012": {"year": 2012, "day": 9, "month": 5, "categories": {"HS2": {"distance": 10, "rank": 174, "pace": 319000000000, "time": 3289.4}}, "weekday": "wednesday", "livingplace": "Auvernier"}}, "location": "Les Ponts-de-Martel"}, "BCN Tour Neuch\u00e2tel": {"latitude": 46.9899874, "longitude": 6.9292732, "race": "BCN Tour Neuch\u00e2tel", "date": {"mer. 30.05.2012": {"year": 2012, "day": 30, "month": 5, "categories": {"HS2": {"distance": 11, "rank": 157, "pace": 326000000000, "time": 3653.6}}, "weekday": "wednesday", "livingplace": "Auvernier"}}, "location": "Neuch\u00e2tel"}, "BCN Tour #5 Colombier": {"latitude": 46.9262933, "longitude": 6.6324944, "race": "BCN Tour #5 Colombier", "date": {"mer. 22.05.2013": {"year": 2013, "day": 22, "month": 5, "categories": {"HS2": {"distance": 11, "rank": 172, "pace": 281000000000, "time": 2955.9}}, "weekday": "wednesday", "livingplace": "Auvernier"}}, "location": "Couvet"}, "BCN Tour #2 La Chaux-de-Fonds": {"latitude": 47.0624261, "longitude": 6.9175754, "race": "BCN Tour #2 La Chaux-de-Fonds", "date": {"mer. 01.05.2013": {"year": 2013, "day": 1, "month": 5, "categories": {"HS2": {"distance": 11, "rank": 166, "pace": 296000000000, "time": 3167.3}}, "weekday": "wednesday", "livingplace": "Auvernier"}}, "location": "Ch\u00e9zard-St-Martin"}, "BCN Tour Cornaux": {"latitude": 46.9668714, "longitude": 6.8589727, "race": "BCN Tour Cornaux", "date": {"mer. 25.04.2012": {"year": 2012, "day": 25, "month": 4, "categories": {"HS2": {"distance": 11, "rank": 157, "pace": 343000000000, "time": 3777.9}}, "weekday": "wednesday", "livingplace": "Auvernier"}}, "location": "Colombier NE"}, "BCN Tour #3 Dombresson": {"latitude": 46.999113, "longitude": 6.733554799999999, "race": "BCN Tour #3 Dombresson", "date": {"mer. 08.05.2013": {"year": 2013, "day": 8, "month": 5, "categories": {"HS2": {"distance": 10, "rank": 192, "pace": 299000000000, "time": 2963.1}}, "weekday": "wednesday", "livingplace": "Auvernier"}}, "location": "Les Ponts-de-Martel"}}, "birth": 1967}