{"name": "Delmenico Massimo", "sex": "M", "races": {"Stralugano, Lugano": {"latitude": 46.0036778, "longitude": 8.951051999999999, "race": "Stralugano, Lugano", "date": {"dim. 30.09.2012": {"year": 2012, "day": 30, "month": 9, "categories": {"30-M20": {"distance": 30, "rank": 233, "pace": 351000000000, "time": 10530.6}}, "weekday": "sunday", "livingplace": "Morbio Inferiore"}}, "location": "Lugano"}, "Morat-Fribourg": {"latitude": 46.92922110000001, "longitude": 7.120184, "race": "Morat-Fribourg", "date": {"sam. 04.10.2008": {"year": 2008, "day": 4, "month": 10, "categories": {"C-M20": {"distance": 17, "rank": 1672, "pace": 358000000000, "time": 6155.5}}, "weekday": "saturday", "livingplace": "Morbio Inferiore"}}, "location": "Murten"}, "ASICS Bremgarter Reusslauf": {"latitude": 47.34917739999999, "longitude": 8.3397905, "race": "ASICS Bremgarter Reusslauf", "date": {"sam. 22.02.2014": {"year": 2014, "day": 22, "month": 2, "categories": {"11-M30": {"distance": 11, "rank": 299, "pace": 289000000000, "time": 3189.7}}, "weekday": "saturday", "livingplace": "Morbio Inferiore"}}, "location": "Bremgarten AG"}, "Lausanne Marathon": {"latitude": 46.5196535, "longitude": 6.6322734, "race": "Lausanne Marathon", "date": {"dim. 31.10.2010": {"year": 2010, "day": 31, "month": 10, "categories": {"21-H1": {"distance": 21, "rank": 245, "pace": 303000000000, "time": 6414.2}}, "weekday": "sunday", "livingplace": "Morbio Inferiore"}, "dim. 27.10.2013": {"year": 2013, "day": 27, "month": 10, "categories": {"21-H2": {"distance": 21, "rank": 641, "pace": 323000000000, "time": 6826.1}}, "weekday": "sunday", "livingplace": "Morbio Inferiore"}}, "location": "Lausanne"}, "SwissCityMarathon - Lucerne, Luzern": {"latitude": 47.05016819999999, "longitude": 8.3093072, "race": "SwissCityMarathon - Lucerne, Luzern", "date": {"dim. 25.10.2015": {"year": 2015, "day": 25, "month": 10, "categories": {"F-Mann": {"distance": 9, "rank": 297, "pace": 335000000000, "time": 2889.7}}, "weekday": "sunday", "livingplace": "Morbio Inferiore"}}, "location": "Luzern"}, "20km de Lausanne": {"latitude": 46.5196535, "longitude": 6.6322734, "race": "20km de Lausanne", "date": {"sam. 27.04.2013": {"year": 2013, "day": 27, "month": 4, "categories": {"20-H30": {"distance": 20, "rank": 367, "pace": 283000000000, "time": 5677.7}}, "weekday": "saturday", "livingplace": "Morbio Inferiore"}, "sam. 28.04.2012": {"year": 2012, "day": 28, "month": 4, "categories": {"20-H20": {"distance": 20, "rank": 335, "pace": 325000000000, "time": 6503.7}}, "weekday": "saturday", "livingplace": "Morbio Inferiore"}}, "location": "Lausanne"}, "Kerzerslauf": {"latitude": 46.97488999999999, "longitude": 7.1954365, "race": "Kerzerslauf", "date": {"sam. 15.03.2014": {"year": 2014, "day": 15, "month": 3, "categories": {"15-M20": {"distance": 15, "rank": 469, "pace": 308000000000, "time": 4623.4}}, "weekday": "saturday", "livingplace": "Morbio Inferiore"}}, "location": "Kerzers"}}, "birth": 1983}