{"name": "Demierre Christine", "sex": "F", "races": {"Groupe E Tour Fribourg #4, Siviriez": {"latitude": 46.6585092, "longitude": 6.877722, "race": "Groupe E Tour Fribourg #4, Siviriez", "date": {"mer. 10.09.2014": {"year": 2014, "day": 10, "month": 9, "categories": {"D-Dam2": {"distance": 11, "rank": 21, "pace": 427000000000, "time": 4613.0}}, "weekday": "wednesday", "livingplace": "Payerne"}}, "location": "Siviriez"}, "Morat-Fribourg": {"latitude": 46.92922110000001, "longitude": 7.120184, "race": "Morat-Fribourg", "date": {"sam. 03.10.2015": {"year": 2015, "day": 3, "month": 10, "categories": {"8-JoggF": {"distance": 9, "rank": 288, "pace": 378000000000, "time": 3283.8}}, "weekday": "saturday", "livingplace": "Fribourg"}, "sam. 04.10.2014": {"year": 2014, "day": 4, "month": 10, "categories": {"17-W35": {"distance": 17, "rank": 218, "pace": 392000000000, "time": 6741.2}}, "weekday": "saturday", "livingplace": "Payerne"}}, "location": "Murten"}, "Groupe E Tour Fribourg #2, Charmey": {"latitude": 46.6175845, "longitude": 7.1654493, "race": "Groupe E Tour Fribourg #2, Charmey", "date": {"mer. 27.08.2014": {"year": 2014, "day": 27, "month": 8, "categories": {"D-Dam2": {"distance": 10, "rank": 29, "pace": 422000000000, "time": 4078.9}}, "weekday": "wednesday", "livingplace": "Payerne"}}, "location": "Charmey (Gruy\u00e8re)"}, "Schweizer Frauenlauf Bern": {"latitude": 46.9479739, "longitude": 7.4474468, "race": "Schweizer Frauenlauf Bern", "date": {"dim. 15.06.2014": {"year": 2014, "day": 15, "month": 6, "categories": {"10-W35": {"distance": 10, "rank": 247, "pace": 346000000000, "time": 3460.4}}, "weekday": "sunday", "livingplace": "Payerne"}}, "location": "Bern"}, "Groupe E Tour Fribourg #3, Kerzers": {"latitude": 46.97488999999999, "longitude": 7.1954365, "race": "Groupe E Tour Fribourg #3, Kerzers", "date": {"mer. 03.09.2014": {"year": 2014, "day": 3, "month": 9, "categories": {"D-Dam2": {"distance": 10, "rank": 21, "pace": 360000000000, "time": 3663.7}}, "weekday": "wednesday", "livingplace": "Payerne"}}, "location": "Kerzers"}, "20km de Lausanne": {"latitude": 46.5196535, "longitude": 6.6322734, "race": "20km de Lausanne", "date": {"sam. 26.04.2014": {"year": 2014, "day": 26, "month": 4, "categories": {"10-F30": {"distance": 10, "rank": 353, "pace": 351000000000, "time": 3512.8}}, "weekday": "saturday", "livingplace": "Payerne"}}, "location": "Lausanne"}, "Groupe E Tour Fribourg #5, Givisiez": {"latitude": 46.8128615, "longitude": 7.131657799999999, "race": "Groupe E Tour Fribourg #5, Givisiez", "date": {"mer. 17.09.2014": {"year": 2014, "day": 17, "month": 9, "categories": {"D-Dam2": {"distance": 10, "rank": 31, "pace": 381000000000, "time": 3913.8}}, "weekday": "wednesday", "livingplace": "Payerne"}}, "location": "Givisiez"}, "Groupe E Tour Fribourg #1, Cousset": {"latitude": 46.81832, "longitude": 6.977279999999999, "race": "Groupe E Tour Fribourg #1, Cousset", "date": {"mer. 20.08.2014": {"year": 2014, "day": 20, "month": 8, "categories": {"D-Dam2": {"distance": 9, "rank": 28, "pace": 375000000000, "time": 3532.6}}, "weekday": "wednesday", "livingplace": "Payerne"}}, "location": "Cousset"}}, "birth": 1975}