{"name": "Demont Dylan", "sex": "M", "races": {"20km de Lausanne": {"latitude": 46.5196535, "longitude": 6.6322734, "race": "20km de Lausanne", "date": {"sam. 27.04.2013": {"year": 2013, "day": 27, "month": 4, "categories": {"10-Hesp": {"distance": 10, "rank": 41, "pace": 253000000000, "time": 2539.7}}, "weekday": "saturday", "livingplace": "Pompaples"}, "sam. 22.04.2006": {"year": 2006, "day": 22, "month": 4, "categories": {"4/EcolB": {"distance": 4, "rank": 117, "pace": 300000000000, "time": 1203.9}}, "weekday": "saturday", "livingplace": "Lausanne"}}, "location": "Lausanne"}, "Course de l'Escalade, Gen\u00e8ve": {"latitude": 46.2043907, "longitude": 6.1431577, "race": "Course de l'Escalade, Gen\u00e8ve", "date": {"sam. 06.12.2003": {"year": 2003, "day": 6, "month": 12, "categories": {"HEcolB": {"distance": 2, "rank": 226, "pace": 290000000000, "time": 673.7}}, "weekday": "saturday", "livingplace": "Lausanne"}, "sam. 02.12.2006": {"year": 2006, "day": 2, "month": 12, "categories": {"HEcolA": {"distance": 2, "rank": 102, "pace": 250000000000, "time": 581.3}}, "weekday": "saturday", "livingplace": "Lausanne"}, "sam. 03.12.2005": {"year": 2005, "day": 3, "month": 12, "categories": {"HEcolA": {"distance": 2, "rank": 188, "pace": 269000000000, "time": 624.8}}, "weekday": "saturday", "livingplace": "Lausanne"}, "sam. 07.12.2013": {"year": 2013, "day": 7, "month": 12, "categories": {"Esc-JunM": {"distance": 7, "rank": 27, "pace": 244000000000, "time": 1771.7}}, "weekday": "saturday", "livingplace": "Pompaples"}}, "location": "Gen\u00e8ve"}, "Corrida Bulloise, Bulle": {"latitude": 46.6154512, "longitude": 7.057726799999999, "race": "Corrida Bulloise, Bulle", "date": {"sam. 16.11.2013": {"year": 2013, "day": 16, "month": 11, "categories": {"PopHomm": {"distance": 6, "rank": 43, "pace": 238000000000, "time": 1468.7}}, "weekday": "saturday", "livingplace": "Pompaples"}, "sam. 15.11.2014": {"year": 2014, "day": 15, "month": 11, "categories": {"Pop-Hom": {"distance": 6, "rank": 34, "pace": 234000000000, "time": 1443.8}}, "weekday": "saturday", "livingplace": "Pompaples"}}, "location": "Bulle"}, "Tour du Pays de Vaud printanier #1 Chavornay": {"latitude": 46.3832683, "longitude": 6.2347852, "race": "Tour du Pays de Vaud printanier #1 Chavornay", "date": {"mer. 30.05.2012": {"year": 2012, "day": 30, "month": 5, "categories": {"H-Jun": {"distance": 9, "rank": 5, "pace": 294000000000, "time": 2638.2}}, "weekday": "wednesday", "livingplace": "Pompaples"}}, "location": "Nyon"}, "Tour du pays de Vaud #1 - Mezi\u00e8res": {"latitude": 46.7784736, "longitude": 6.641183, "race": "Tour du pays de Vaud #1 - Mezi\u00e8res", "date": {"mer. 10.08.2011": {"year": 2011, "day": 10, "month": 8, "categories": {"H-Jun": {"distance": 9, "rank": 15, "pace": 290000000000, "time": 2469.1}}, "weekday": "wednesday", "livingplace": "Pompaples"}}, "location": "Yverdon-les-Bains"}, "Les Traine-Savates, Cheseaux-sur-Lausanne": {"latitude": 46.585452, "longitude": 6.6047712, "race": "Les Traine-Savates, Cheseaux-sur-Lausanne", "date": {"sam. 12.04.2008": {"year": 2008, "day": 12, "month": 4, "categories": {"MCB": {"distance": 3, "rank": 8, "pace": 232000000000, "time": 791.4}}, "weekday": "saturday", "livingplace": "Lausanne"}}, "location": "Cheseaux-sur-Lausanne"}, "Kerzerslauf": {"latitude": 46.97488999999999, "longitude": 7.1954365, "race": "Kerzerslauf", "date": {"sam. 15.03.2008": {"year": 2008, "day": 15, "month": 3, "categories": {"5/M05J": {"distance": 5, "rank": 27, "pace": 276000000000, "time": 1384.1}}, "weekday": "saturday", "livingplace": "Bussigny pres Lausan"}}, "location": "Kerzers"}, "Tour du Pays de Vaud #1, Penthaz": {"latitude": 46.5993131, "longitude": 6.539251200000001, "race": "Tour du Pays de Vaud #1, Penthaz", "date": {"mer. 13.08.2014": {"year": 2014, "day": 13, "month": 8, "categories": {"H-Hom": {"distance": 9, "rank": 13, "pace": 241000000000, "time": 2056.5}}, "weekday": "wednesday", "livingplace": "Pompaples"}}, "location": "Penthaz"}, "Tour du Pays de Vaud #3 - Chavornay": {"latitude": 46.7784736, "longitude": 6.641183, "race": "Tour du Pays de Vaud #3 - Chavornay", "date": {"mer. 28.08.2013": {"year": 2013, "day": 28, "month": 8, "categories": {"H-Jun": {"distance": 9, "rank": 6, "pace": 266000000000, "time": 2375.3}}, "weekday": "wednesday", "livingplace": "Pompaples"}}, "location": "Yverdon-les-Bains"}, "Lausanne Marathon": {"latitude": 46.5196535, "longitude": 6.6322734, "race": "Lausanne Marathon", "date": {"dim. 31.10.2010": {"year": 2010, "day": 31, "month": 10, "categories": {"10-JG": {"distance": 10, "rank": 105, "pace": 298000000000, "time": 2989.8}}, "weekday": "sunday", "livingplace": "Pompaples"}}, "location": "Lausanne"}, "Morat-Fribourg": {"latitude": 46.92922110000001, "longitude": 7.120184, "race": "Morat-Fribourg", "date": {"sam. 05.10.2013": {"year": 2013, "day": 5, "month": 10, "categories": {"17-JunH": {"distance": 17, "rank": 19, "pace": 269000000000, "time": 4699.0}}, "weekday": "saturday", "livingplace": "Pompaples"}, "sam. 06.10.2012": {"year": 2012, "day": 6, "month": 10, "categories": {"17-JunH": {"distance": 17, "rank": 34, "pace": 280000000000, "time": 4902.6}}, "weekday": "saturday", "livingplace": "Pompaples"}}, "location": "Murten"}, "Tour du Pays de Vaud #4 - La Sarraz": {"latitude": 46.7088129, "longitude": 6.5707689, "race": "Tour du Pays de Vaud #4 - La Sarraz", "date": {"mer. 29.08.2012": {"year": 2012, "day": 29, "month": 8, "categories": {"H-Jun": {"distance": 9, "rank": 6, "pace": 254000000000, "time": 2162.6}}, "weekday": "wednesday", "livingplace": "Pompaples"}, "mer. 04.09.2013": {"year": 2013, "day": 4, "month": 9, "categories": {"H-Jun": {"distance": 9, "rank": 7, "pace": 256000000000, "time": 2181.2}}, "weekday": "wednesday", "livingplace": "Pompaples"}}, "location": "Chavornay"}, "Tour du pays de Vaud #1 - Penthaz": {"latitude": 46.5993131, "longitude": 6.539251200000001, "race": "Tour du pays de Vaud #1 - Penthaz", "date": {"mer. 14.08.2013": {"year": 2013, "day": 14, "month": 8, "categories": {"H-Jun": {"distance": 9, "rank": 4, "pace": 257000000000, "time": 2200.6}}, "weekday": "wednesday", "livingplace": "Pompaples"}, "mer. 08.08.2012": {"year": 2012, "day": 8, "month": 8, "categories": {"H-Jun": {"distance": 9, "rank": 10, "pace": 266000000000, "time": 2275.8}}, "weekday": "wednesday", "livingplace": "Pompaples"}}, "location": "Penthaz"}, "Semi-Marathon de la C\u00f4te, Allaman-Nyon": {"latitude": 46.3832683, "longitude": 6.2347852, "race": "Semi-Marathon de la C\u00f4te, Allaman-Nyon", "date": {"dim. 14.09.2014": {"year": 2014, "day": 14, "month": 9, "categories": {"21-H20": {"distance": 21, "rank": 42, "pace": 283000000000, "time": 5976.1}}, "weekday": "sunday", "livingplace": "Pompaples"}}, "location": "Nyon"}}, "birth": 1994}