{"name": "De Montmollin Antoine", "sex": "M", "races": {"Course de l'Escalade, Gen\u00e8ve": {"latitude": 46.2043907, "longitude": 6.1431577, "race": "Course de l'Escalade, Gen\u00e8ve", "date": {"sam. 06.12.2008": {"year": 2008, "day": 6, "month": 12, "categories": {"HCadB": {"distance": 5, "rank": 305, "pace": 300000000000, "time": 1435.8}}, "weekday": "saturday", "livingplace": "Valangin"}}, "location": "Gen\u00e8ve"}, "BCN Tour La Br\u00e9vine": {"latitude": 46.999113, "longitude": 6.733554799999999, "race": "BCN Tour La Br\u00e9vine", "date": {"mer. 04.05.2011": {"year": 2011, "day": 4, "month": 5, "categories": {"HJ": {"distance": 10, "rank": 67, "pace": 330000000000, "time": 3309.2}}, "weekday": "wednesday", "livingplace": "Valangin"}}, "location": "Les Ponts-de-Martel"}, "BCN Tour Fontaine Cernier": {"latitude": 47.0624261, "longitude": 6.9175754, "race": "BCN Tour Fontaine Cernier", "date": {"mer. 27.04.2011": {"year": 2011, "day": 27, "month": 4, "categories": {"HJ": {"distance": 10, "rank": 80, "pace": 326000000000, "time": 3360.7}}, "weekday": "wednesday", "livingplace": "Valangin"}}, "location": "Ch\u00e9zard-St-Martin"}, "BCN Tour Neuch\u00e2tel": {"latitude": 46.9899874, "longitude": 6.9292732, "race": "BCN Tour Neuch\u00e2tel", "date": {"mer. 25.05.2011": {"year": 2011, "day": 25, "month": 5, "categories": {"HJ": {"distance": 11, "rank": 101, "pace": 382000000000, "time": 4365.3}}, "weekday": "wednesday", "livingplace": "Valangin"}}, "location": "Neuch\u00e2tel"}, "BCN Tour Les Ponts de Martel": {"latitude": 46.9262933, "longitude": 6.6324944, "race": "BCN Tour Les Ponts de Martel", "date": {"mer. 18.05.2011": {"year": 2011, "day": 18, "month": 5, "categories": {"HJ": {"distance": 13, "rank": 71, "pace": 376000000000, "time": 4820.4}}, "weekday": "wednesday", "livingplace": "Valangin"}}, "location": "Couvet"}, "BCN Tour La Chaux-de-Fonds": {"latitude": 47.1034892, "longitude": 6.832783800000001, "race": "BCN Tour La Chaux-de-Fonds", "date": {"mer. 11.05.2011": {"year": 2011, "day": 11, "month": 5, "categories": {"HJ": {"distance": 11, "rank": 68, "pace": 400000000000, "time": 4282.8}}, "weekday": "wednesday", "livingplace": "Valangin"}}, "location": "La Chaux-de-Fonds"}, "BCN Tour Auvernier": {"latitude": 46.9668714, "longitude": 6.8589727, "race": "BCN Tour Auvernier", "date": {"mer. 20.04.2011": {"year": 2011, "day": 20, "month": 4, "categories": {"HJ": {"distance": 11, "rank": 61, "pace": 370000000000, "time": 4003.1}}, "weekday": "wednesday", "livingplace": "Valangin"}}, "location": "Colombier NE"}}, "birth": 1994}