{"name": "Denniel Marie-Claire", "sex": "F", "races": {"Tour du Chablais #2 Rennaz": {"latitude": 46.3835529, "longitude": 6.854975199999999, "race": "Tour du Chablais #2 Rennaz", "date": {"mer. 04.05.2011": {"year": 2011, "day": 4, "month": 5, "categories": {"F-F20": {"distance": 9, "rank": 22, "pace": 295000000000, "time": 2761.8}}, "weekday": "wednesday", "livingplace": "Rechy"}}, "location": "Bouveret"}, "Tour du Chablais #5 Les Mosses": {"latitude": 46.3603257, "longitude": 6.931504599999999, "race": "Tour du Chablais #5 Les Mosses", "date": {"mer. 25.05.2011": {"year": 2011, "day": 25, "month": 5, "categories": {"F-F20": {"distance": 8, "rank": 31, "pace": 316000000000, "time": 2533.6}}, "weekday": "wednesday", "livingplace": "Rechy"}}, "location": "Roche VD"}, "Tour du Chablais #3 Le Bouveret": {"latitude": 46.1782231, "longitude": 7.0223787, "race": "Tour du Chablais #3 Le Bouveret", "date": {"mer. 11.05.2011": {"year": 2011, "day": 11, "month": 5, "categories": {"F-F20": {"distance": 10, "rank": 30, "pace": 294000000000, "time": 2946.4}}, "weekday": "wednesday", "livingplace": "Rechy"}}, "location": "Evionnaz"}, "Tour du Chablais #4 Morgins": {"latitude": NaN, "longitude": NaN, "race": "Tour du Chablais #4 Morgins", "date": {"mer. 18.05.2011": {"year": 2011, "day": 18, "month": 5, "categories": {"F-F20": {"distance": 8, "rank": 30, "pace": 312000000000, "time": 2605.2}}, "weekday": "wednesday", "livingplace": "Rechy"}}, "location": "Les Mosses"}, "Tour du Chablais #6 Aigle": {"latitude": 46.3190253, "longitude": 6.970566, "race": "Tour du Chablais #6 Aigle", "date": {"mer. 01.06.2011": {"year": 2011, "day": 1, "month": 6, "categories": {"F-F20": {"distance": 10, "rank": 43, "pace": 295000000000, "time": 3010.5}}, "weekday": "wednesday", "livingplace": "Rechy"}}, "location": "Aigle"}, "20km de Lausanne": {"latitude": 46.5196535, "longitude": 6.6322734, "race": "20km de Lausanne", "date": {"sam. 30.04.2011": {"year": 2011, "day": 30, "month": 4, "categories": {"20-F30": {"distance": 20, "rank": 83, "pace": 321000000000, "time": 6420.7}}, "weekday": "saturday", "livingplace": "Rechy"}}, "location": "Lausanne"}}, "birth": 1977}