{"name": "Denoix Sonia", "sex": "F", "races": {"Tour du Pays de Vaud etape 5 - La Sarraz": {"latitude": 46.5993131, "longitude": 6.539251200000001, "race": "Tour du Pays de Vaud etape 5 - La Sarraz", "date": {"mer. 10.09.2008": {"year": 2008, "day": 10, "month": 9, "categories": {"DamSen1": {"distance": 9, "rank": 12, "pace": 280000000000, "time": 2415.5}}, "weekday": "wednesday", "livingplace": "Chardonne"}}, "location": "Penthaz"}, "Tour du Chablais #2 Rennaz": {"latitude": 46.3835529, "longitude": 6.854975199999999, "race": "Tour du Chablais #2 Rennaz", "date": {"mer. 04.05.2011": {"year": 2011, "day": 4, "month": 5, "categories": {"F-F20": {"distance": 9, "rank": 9, "pace": 276000000000, "time": 2589.3}}, "weekday": "wednesday", "livingplace": "Chardonne"}}, "location": "Bouveret"}, "Tour du pays de Vaud #1 - Penthaz": {"latitude": 46.5993131, "longitude": 6.539251200000001, "race": "Tour du pays de Vaud #1 - Penthaz", "date": {"mer. 08.08.2012": {"year": 2012, "day": 8, "month": 8, "categories": {"D-Sen1": {"distance": 9, "rank": 24, "pace": 305000000000, "time": 2605.9}}, "weekday": "wednesday", "livingplace": "La Tour de Peilz"}}, "location": "Penthaz"}, "Tour du Chablais #4 Morgins": {"latitude": NaN, "longitude": NaN, "race": "Tour du Chablais #4 Morgins", "date": {"mer. 18.05.2011": {"year": 2011, "day": 18, "month": 5, "categories": {"F-F20": {"distance": 8, "rank": 12, "pace": 287000000000, "time": 2396.9}}, "weekday": "wednesday", "livingplace": "Chardonne"}}, "location": "Les Mosses"}, "Tour du Pays de Vaud #3 - Mezi\u00e8res": {"latitude": 46.7784736, "longitude": 6.641183, "race": "Tour du Pays de Vaud #3 - Mezi\u00e8res", "date": {"mer. 22.08.2012": {"year": 2012, "day": 22, "month": 8, "categories": {"D-Sen1": {"distance": 8, "rank": 14, "pace": 322000000000, "time": 2711.9}}, "weekday": "wednesday", "livingplace": "La Tour de Peilz"}}, "location": "Yverdon-les-Bains"}, "Tour du Pays de Vaud etape 1 - Le Mont sur Lausanne": {"latitude": 46.7784736, "longitude": 6.641183, "race": "Tour du Pays de Vaud etape 1 - Le Mont sur Lausanne", "date": {"mer. 13.08.2008": {"year": 2008, "day": 13, "month": 8, "categories": {"DamSen1": {"distance": 8, "rank": 10, "pace": 287000000000, "time": 2412.5}}, "weekday": "wednesday", "livingplace": "Chardonne"}}, "location": "Yverdon-les-Bains"}, "20km de Lausanne": {"latitude": 46.5196535, "longitude": 6.6322734, "race": "20km de Lausanne", "date": {"sam. 30.04.2011": {"year": 2011, "day": 30, "month": 4, "categories": {"10-F30": {"distance": 10, "rank": 19, "pace": 277000000000, "time": 2777.1}}, "weekday": "saturday", "livingplace": "Cham"}, "sam. 24.04.2010": {"year": 2010, "day": 24, "month": 4, "categories": {"10-F30": {"distance": 10, "rank": 72, "pace": 314000000000, "time": 3146.0}}, "weekday": "saturday", "livingplace": "Cham"}, "sam. 25.04.2009": {"year": 2009, "day": 25, "month": 4, "categories": {"10-F30": {"distance": 10, "rank": 41, "pace": 296000000000, "time": 2963.7}}, "weekday": "saturday", "livingplace": "Cham"}}, "location": "Lausanne"}, "Tour du Chablais #1 Lavey": {"latitude": 46.2957462, "longitude": 6.9916269, "race": "Tour du Chablais #1 Lavey", "date": {"mer. 27.04.2011": {"year": 2011, "day": 27, "month": 4, "categories": {"F-F20": {"distance": 9, "rank": 12, "pace": 275000000000, "time": 2480.1}}, "weekday": "wednesday", "livingplace": "Chardonne"}}, "location": "Ollon VD"}, "Tour du Chablais #2 Bex": {"latitude": 46.3835529, "longitude": 6.854975199999999, "race": "Tour du Chablais #2 Bex", "date": {"mer. 18.04.2012": {"year": 2012, "day": 18, "month": 4, "categories": {"F-F20": {"distance": 8, "rank": 24, "pace": 289000000000, "time": 2319.3}}, "weekday": "wednesday", "livingplace": "La Tour de Peilz"}}, "location": "Bouveret"}, "Tour du Pays de Vaud #2 - Genolier": {"latitude": 46.5955273, "longitude": 6.7702883, "race": "Tour du Pays de Vaud #2 - Genolier", "date": {"mer. 15.08.2012": {"year": 2012, "day": 15, "month": 8, "categories": {"D-Sen1": {"distance": 9, "rank": 17, "pace": 298000000000, "time": 2540.1}}, "weekday": "wednesday", "livingplace": "La Tour de Peilz"}, "mer. 17.08.2011": {"year": 2011, "day": 17, "month": 8, "categories": {"D-Sen1": {"distance": 9, "rank": 10, "pace": 284000000000, "time": 2416.4}}, "weekday": "wednesday", "livingplace": "La Tour de Peilz"}}, "location": "M\u00e9zi\u00e8res VD"}, "Tour du Chablais #6 Mouthey": {"latitude": 46.3190253, "longitude": 6.970566, "race": "Tour du Chablais #6 Mouthey", "date": {"mer. 12.05.2010": {"year": 2010, "day": 12, "month": 5, "categories": {"F-F20": {"distance": 9, "rank": 23, "pace": 284000000000, "time": 2618.5}}, "weekday": "wednesday", "livingplace": "Chardonne"}}, "location": "Aigle"}, "Tour du Chablais #1 Montreux": {"latitude": 46.2957462, "longitude": 6.9916269, "race": "Tour du Chablais #1 Montreux", "date": {"mer. 11.04.2012": {"year": 2012, "day": 11, "month": 4, "categories": {"F-F20": {"distance": 8, "rank": 20, "pace": 296000000000, "time": 2256.0}}, "weekday": "wednesday", "livingplace": "La Tour de Peilz"}}, "location": "Ollon VD"}, "Tour du Pays de Vaud etape 2 - Genolier": {"latitude": 46.5955273, "longitude": 6.7702883, "race": "Tour du Pays de Vaud etape 2 - Genolier", "date": {"mer. 20.08.2008": {"year": 2008, "day": 20, "month": 8, "categories": {"DamSen1": {"distance": 8, "rank": 9, "pace": 283000000000, "time": 2353.3}}, "weekday": "wednesday", "livingplace": "Chardonne"}}, "location": "M\u00e9zi\u00e8res VD"}, "Tour du Pays de Vaud etape 3 - Aubonne": {"latitude": 46.7829756, "longitude": 6.5728678, "race": "Tour du Pays de Vaud etape 3 - Aubonne", "date": {"mer. 27.08.2008": {"year": 2008, "day": 27, "month": 8, "categories": {"DamSen1": {"distance": 8, "rank": 10, "pace": 312000000000, "time": 2433.7}}, "weekday": "wednesday", "livingplace": "Chardonne"}}, "location": "Champvent"}, "Tour du pays de Vaud #5 - Penthaz": {"latitude": 46.5993131, "longitude": 6.539251200000001, "race": "Tour du pays de Vaud #5 - Penthaz", "date": {"mer. 07.09.2011": {"year": 2011, "day": 7, "month": 9, "categories": {"D-Sen1": {"distance": 8, "rank": 9, "pace": 306000000000, "time": 2556.7}}, "weekday": "wednesday", "livingplace": "La Tour de Peilz"}}, "location": "Penthaz"}, "Tour du Chablais #6 Aigle": {"latitude": 46.3190253, "longitude": 6.970566, "race": "Tour du Chablais #6 Aigle", "date": {"mer. 01.06.2011": {"year": 2011, "day": 1, "month": 6, "categories": {"F-F20": {"distance": 10, "rank": 16, "pace": 265000000000, "time": 2711.5}}, "weekday": "wednesday", "livingplace": "Chardonne"}}, "location": "Aigle"}, "Les Traine-Savates, Cheseaux-sur-Lausanne": {"latitude": 46.585452, "longitude": 6.6047712, "race": "Les Traine-Savates, Cheseaux-sur-Lausanne", "date": {"sam. 09.04.2011": {"year": 2011, "day": 9, "month": 4, "categories": {"10-W20": {"distance": 10, "rank": 24, "pace": 289000000000, "time": 3015.9}}, "weekday": "saturday", "livingplace": "Chardonne"}}, "location": "Cheseaux-sur-Lausanne"}, "Tour du Chablais #3 Bouveret": {"latitude": 46.1782231, "longitude": 7.0223787, "race": "Tour du Chablais #3 Bouveret", "date": {"mer. 17.04.2013": {"year": 2013, "day": 17, "month": 4, "categories": {"F-F20": {"distance": 10, "rank": 27, "pace": 292000000000, "time": 2924.8}}, "weekday": "wednesday", "livingplace": "Semsales"}}, "location": "Evionnaz"}}, "birth": 1977}