{"name": "Derendinger Christian", "sex": "M", "races": {"Tour du Pays de Vaud #2 - Genolier": {"latitude": 46.5955273, "longitude": 6.7702883, "race": "Tour du Pays de Vaud #2 - Genolier", "date": {"mer. 17.08.2011": {"year": 2011, "day": 17, "month": 8, "categories": {"H-Sen2": {"distance": 9, "rank": 54, "pace": 275000000000, "time": 2339.7}}, "weekday": "wednesday", "livingplace": "Aclens"}}, "location": "M\u00e9zi\u00e8res VD"}, "Tour du pays de Vaud #5 - Penthaz": {"latitude": 46.5993131, "longitude": 6.539251200000001, "race": "Tour du pays de Vaud #5 - Penthaz", "date": {"mer. 07.09.2011": {"year": 2011, "day": 7, "month": 9, "categories": {"H-Sen2": {"distance": 8, "rank": 90, "pace": 318000000000, "time": 2663.3}}, "weekday": "wednesday", "livingplace": "Aclens"}}, "location": "Penthaz"}, "Tour du Pays de Vaud printanier #3 - Yens": {"latitude": 46.7829756, "longitude": 6.5728678, "race": "Tour du Pays de Vaud printanier #3 - Yens", "date": {"mer. 12.06.2013": {"year": 2013, "day": 12, "month": 6, "categories": {"H-Sen2": {"distance": 9, "rank": 34, "pace": 287000000000, "time": 2619.8}}, "weekday": "wednesday", "livingplace": "Aclens"}}, "location": "Champvent"}, "Tour du pays de Vaud #6 - St  Prex": {"latitude": 46.4829113, "longitude": 6.458343500000001, "race": "Tour du pays de Vaud #6 - St  Prex", "date": {"mer. 14.09.2011": {"year": 2011, "day": 14, "month": 9, "categories": {"H-Sen2": {"distance": 9, "rank": 48, "pace": 257000000000, "time": 2216.6}}, "weekday": "wednesday", "livingplace": "Aclens"}}, "location": "St-Prex"}, "Tour du pays de Vaud #1 - Mezi\u00e8res": {"latitude": 46.7784736, "longitude": 6.641183, "race": "Tour du pays de Vaud #1 - Mezi\u00e8res", "date": {"mer. 10.08.2011": {"year": 2011, "day": 10, "month": 8, "categories": {"H-Sen2": {"distance": 9, "rank": 77, "pace": 273000000000, "time": 2327.1}}, "weekday": "wednesday", "livingplace": "Aclens"}}, "location": "Yverdon-les-Bains"}}, "birth": 1965}