{"name": "Despland Arthur", "sex": "M", "races": {"Morat-Fribourg": {"latitude": 46.92922110000001, "longitude": 7.120184, "race": "Morat-Fribourg", "date": {"sam. 03.10.2009": {"year": 2009, "day": 3, "month": 10, "categories": {"K-EMB": {"distance": 2, "rank": 21, "pace": 224000000000, "time": 471.8}}, "weekday": "saturday", "livingplace": "Prilly"}}, "location": "Murten"}, "Lausanne Marathon": {"latitude": 46.5196535, "longitude": 6.6322734, "race": "Lausanne Marathon", "date": {"sam. 24.10.2015": {"year": 2015, "day": 24, "month": 10, "categories": {"10-JunG": {"distance": 10, "rank": 141, "pace": 314000000000, "time": 3143.3}}, "weekday": "saturday", "livingplace": "L'Isle"}}, "location": "Lausanne"}, "Course de l'Escalade, Gen\u00e8ve": {"latitude": 46.2043907, "longitude": 6.1431577, "race": "Course de l'Escalade, Gen\u00e8ve", "date": {"sam. 05.12.2009": {"year": 2009, "day": 5, "month": 12, "categories": {"HEcolB10": {"distance": 2, "rank": 59, "pace": 264000000000, "time": 615.3}}, "weekday": "saturday", "livingplace": "L'Isle"}, "sam. 06.12.2008": {"year": 2008, "day": 6, "month": 12, "categories": {"HPousA": {"distance": 2, "rank": 52, "pace": 269000000000, "time": 490.7}}, "weekday": "saturday", "livingplace": "L'Isle"}}, "location": "Gen\u00e8ve"}, "20km de Lausanne": {"latitude": 46.5196535, "longitude": 6.6322734, "race": "20km de Lausanne", "date": {"sam. 25.04.2009": {"year": 2009, "day": 25, "month": 4, "categories": {"EcolD-M": {"distance": 2, "rank": 17, "pace": 257000000000, "time": 515.8}}, "weekday": "saturday", "livingplace": "Prilly"}, "sam. 28.04.2007": {"year": 2007, "day": 28, "month": 4, "categories": {"11": {"distance": 2, "rank": 45, "pace": 301000000000, "time": 602.6}}, "weekday": "saturday", "livingplace": "L'Isle"}}, "location": "Lausanne"}, "Les Traine-Savates, Cheseaux-sur-Lausanne": {"latitude": 46.585452, "longitude": 6.6047712, "race": "Les Traine-Savates, Cheseaux-sur-Lausanne", "date": {"sam. 04.04.2009": {"year": 2009, "day": 4, "month": 4, "categories": {"EcolB-M": {"distance": 3, "rank": 5, "pace": 245000000000, "time": 834.7}}, "weekday": "saturday", "livingplace": "L'Isle"}, "sam. 12.04.2008": {"year": 2008, "day": 12, "month": 4, "categories": {"MEC": {"distance": 2, "rank": 17, "pace": 260000000000, "time": 442.8}}, "weekday": "saturday", "livingplace": "L'Isle"}, "sam. 10.04.2010": {"year": 2010, "day": 10, "month": 4, "categories": {"EcolB-M": {"distance": 3, "rank": 6, "pace": 245000000000, "time": 834.0}}, "weekday": "saturday", "livingplace": "L'Isle"}}, "location": "Cheseaux-sur-Lausanne"}, "Kerzerslauf": {"latitude": 46.97488999999999, "longitude": 7.1954365, "race": "Kerzerslauf", "date": {"sam. 20.03.2010": {"year": 2010, "day": 20, "month": 3, "categories": {"2-M11": {"distance": 1, "rank": 25, "pace": 230000000000, "time": 322.9}}, "weekday": "saturday", "livingplace": "L'Isle"}}, "location": "Kerzers"}}, "birth": 1999}