{"name": "Desponds Caroline", "sex": "F", "races": {"Morat-Fribourg": {"latitude": 46.92922110000001, "longitude": 7.120184, "race": "Morat-Fribourg", "date": {"sam. 05.10.2013": {"year": 2013, "day": 5, "month": 10, "categories": {"17-W20": {"distance": 17, "rank": 381, "pace": 354000000000, "time": 6188.3}}, "weekday": "saturday", "livingplace": "Echandens Denges"}}, "location": "Murten"}, "Tour du Pays de Vaud etape 2 - Genolier": {"latitude": 46.5955273, "longitude": 6.7702883, "race": "Tour du Pays de Vaud etape 2 - Genolier", "date": {"mer. 20.08.2008": {"year": 2008, "day": 20, "month": 8, "categories": {"Dam": {"distance": 8, "rank": 18, "pace": 328000000000, "time": 2723.8}}, "weekday": "wednesday", "livingplace": "Ecublens"}, "mer. 19.08.2009": {"year": 2009, "day": 19, "month": 8, "categories": {"Dam": {"distance": 8, "rank": 35, "pace": 380000000000, "time": 3083.3}}, "weekday": "wednesday", "livingplace": "Ecublens"}}, "location": "M\u00e9zi\u00e8res VD"}, "Tour du Pays de Vaud etape 3 - Aubonne": {"latitude": 46.7829756, "longitude": 6.5728678, "race": "Tour du Pays de Vaud etape 3 - Aubonne", "date": {"mer. 27.08.2008": {"year": 2008, "day": 27, "month": 8, "categories": {"Dam": {"distance": 8, "rank": 13, "pace": 340000000000, "time": 2656.2}}, "weekday": "wednesday", "livingplace": "Ecublens"}}, "location": "Champvent"}, "Tour du Pays de Vaud etape 1 - Le Mont sur Lausanne": {"latitude": 46.7784736, "longitude": 6.641183, "race": "Tour du Pays de Vaud etape 1 - Le Mont sur Lausanne", "date": {"mer. 13.08.2008": {"year": 2008, "day": 13, "month": 8, "categories": {"Dam": {"distance": 8, "rank": 16, "pace": 325000000000, "time": 2737.6}}, "weekday": "wednesday", "livingplace": "Ecublens"}}, "location": "Yverdon-les-Bains"}, "20km de Lausanne": {"latitude": 46.5196535, "longitude": 6.6322734, "race": "20km de Lausanne", "date": {"sam. 30.04.2011": {"year": 2011, "day": 30, "month": 4, "categories": {"10-F20": {"distance": 10, "rank": 173, "pace": 328000000000, "time": 3287.7}}, "weekday": "saturday", "livingplace": "Lausanne"}, "sam. 27.04.2013": {"year": 2013, "day": 27, "month": 4, "categories": {"10-F20": {"distance": 10, "rank": 155, "pace": 313000000000, "time": 3138.8}}, "weekday": "saturday", "livingplace": "Echandens Denges"}, "sam. 25.04.2009": {"year": 2009, "day": 25, "month": 4, "categories": {"10-F20": {"distance": 10, "rank": 309, "pace": 364000000000, "time": 3640.1}}, "weekday": "saturday", "livingplace": "Ecublens"}}, "location": "Lausanne"}, "La Montheysanne, Monthey": {"latitude": 46.2521873, "longitude": 6.9469598, "race": "La Montheysanne, Monthey", "date": {"dim. 23.08.2015": {"year": 2015, "day": 23, "month": 8, "categories": {"5-DA1": {"distance": 5, "rank": 13, "pace": 307000000000, "time": 1538.0}}, "weekday": "sunday", "livingplace": "Echandens"}}, "location": "Monthey"}, "Kerzerslauf": {"latitude": 46.97488999999999, "longitude": 7.1954365, "race": "Kerzerslauf", "date": {"sam. 17.03.2012": {"year": 2012, "day": 17, "month": 3, "categories": {"15-F20": {"distance": 15, "rank": 320, "pace": 357000000000, "time": 5361.2}}, "weekday": "saturday", "livingplace": "Lausanne"}}, "location": "Kerzers"}}, "birth": 1985}