{"name": "Dettwiler Andreas", "sex": "M", "races": {"Maratona Ticino, Tenero": {"latitude": NaN, "longitude": NaN, "race": "Maratona Ticino, Tenero", "date": {"dim. 11.11.2012": {"year": 2012, "day": 11, "month": 11, "categories": {"H-M40": {"distance": 21, "rank": 13, "pace": 236000000000, "time": 4997.4}}, "weekday": "sunday", "livingplace": "Biel/Bienne"}}, "location": "Tenero"}, "Thuner Stadtlauf, Thun": {"latitude": 46.7579868, "longitude": 7.6279881, "race": "Thuner Stadtlauf, Thun", "date": {"dim. 26.08.2012": {"year": 2012, "day": 26, "month": 8, "categories": {"10-M40": {"distance": 10, "rank": 12, "pace": 229000000000, "time": 2295.7}}, "weekday": "sunday", "livingplace": "Biel/Bienne"}}, "location": "Thun"}, "Bieler Lauftage, Biel Bienne": {"latitude": 47.1367785, "longitude": 7.2467909, "race": "Bieler Lauftage, Biel Bienne", "date": {"ven. 13.06.2008": {"year": 2008, "day": 13, "month": 6, "categories": {"S100/M": {"distance": 100, "rank": 7, "pace": 270000000000, "time": 27041.8}}, "weekday": "friday", "livingplace": "Biel/Bienne"}}, "location": "Biel/Bienne"}, "Corrida Bulloise, Bulle": {"latitude": 46.6154512, "longitude": 7.057726799999999, "race": "Corrida Bulloise, Bulle", "date": {"sam. 19.11.2011": {"year": 2011, "day": 19, "month": 11, "categories": {"M40": {"distance": 8, "rank": 35, "pace": 234000000000, "time": 1907.3}}, "weekday": "saturday", "livingplace": "Biel/Bienne"}}, "location": "Bulle"}, "Lausanne Marathon": {"latitude": 46.5196535, "longitude": 6.6322734, "race": "Lausanne Marathon", "date": {"dim. 30.10.2011": {"year": 2011, "day": 30, "month": 10, "categories": {"21-H3": {"distance": 21, "rank": 38, "pace": 239000000000, "time": 5060.6}}, "weekday": "sunday", "livingplace": "Biel/Bienne"}}, "location": "Lausanne"}, "10km Schweizer Meisterschaften Lyss": {"latitude": 47.0746504, "longitude": 7.3077022, "race": "10km Schweizer Meisterschaften Lyss", "date": {"sam. 02.04.2011": {"year": 2011, "day": 2, "month": 4, "categories": {"10-M40": {"distance": 10, "rank": 22, "pace": 234000000000, "time": 2342.3}}, "weekday": "saturday", "livingplace": "Biel/Bienne"}, "sam. 31.03.2012": {"year": 2012, "day": 31, "month": 3, "categories": {"10-M45": {"distance": 10, "rank": 12, "pace": 227000000000, "time": 2277.9}}, "weekday": "saturday", "livingplace": "Biel/Bienne"}}, "location": "Lyss"}, "Z\u00fcrcher Silvesterlauf, Z\u00fcrich": {"latitude": 47.3768866, "longitude": 8.541694, "race": "Z\u00fcrcher Silvesterlauf, Z\u00fcrich", "date": {"dim. 16.12.2012": {"year": 2012, "day": 16, "month": 12, "categories": {"8-MM40": {"distance": 9, "rank": 33, "pace": 226000000000, "time": 1944.4}}, "weekday": "sunday", "livingplace": "Biel/Bienne"}, "dim. 11.12.2011": {"year": 2011, "day": 11, "month": 12, "categories": {"8-MenAK2": {"distance": 9, "rank": 41, "pace": 227000000000, "time": 1952.9}}, "weekday": "sunday", "livingplace": "Biel/Bienne"}}, "location": "Z\u00fcrich"}, "Emmenlauf Utzenstorf": {"latitude": 47.12816670000001, "longitude": 7.5588034, "race": "Emmenlauf Utzenstorf", "date": {"mer. 17.08.2011": {"year": 2011, "day": 17, "month": 8, "categories": {"Herren3": {"distance": 11, "rank": 9, "pace": 233000000000, "time": 2455.1}}, "weekday": "wednesday", "livingplace": "Biel/Bienne"}}, "location": "Utzenstorf"}, "Kerzerslauf": {"latitude": 46.97488999999999, "longitude": 7.1954365, "race": "Kerzerslauf", "date": {"sam. 21.03.2015": {"year": 2015, "day": 21, "month": 3, "categories": {"15-M45": {"distance": 15, "rank": 40, "pace": 244000000000, "time": 3666.5}}, "weekday": "saturday", "livingplace": "Biel/Bienne"}}, "location": "Kerzers"}}, "birth": 1967}