{"name": "Devaud Nicolas", "sex": "M", "races": {"Montreux - Les Rochers de Naye": {"latitude": 46.4312213, "longitude": 6.9106799, "race": "Montreux - Les Rochers de Naye", "date": {"dim. 10.07.2011": {"year": 2011, "day": 10, "month": 7, "categories": {"M-HElite": {"distance": 19, "rank": 48, "pace": 399000000000, "time": 7510.4}}, "weekday": "sunday", "livingplace": "Le Vaud"}}, "location": "Montreux"}, "Tour du Pays de Vaud #3 - Mezi\u00e8res": {"latitude": 46.7784736, "longitude": 6.641183, "race": "Tour du Pays de Vaud #3 - Mezi\u00e8res", "date": {"mer. 22.08.2012": {"year": 2012, "day": 22, "month": 8, "categories": {"H-Sen1": {"distance": 8, "rank": 21, "pace": 270000000000, "time": 2273.3}}, "weekday": "wednesday", "livingplace": "Le Vaud"}}, "location": "Yverdon-les-Bains"}, "Tour du Pays de Vaud #4 - La Sarraz": {"latitude": 46.7088129, "longitude": 6.5707689, "race": "Tour du Pays de Vaud #4 - La Sarraz", "date": {"mer. 29.08.2012": {"year": 2012, "day": 29, "month": 8, "categories": {"H-Sen1": {"distance": 9, "rank": 19, "pace": 240000000000, "time": 2042.5}}, "weekday": "wednesday", "livingplace": "Le Vaud"}, "mer. 04.09.2013": {"year": 2013, "day": 4, "month": 9, "categories": {"H-Sen1": {"distance": 9, "rank": 24, "pace": 252000000000, "time": 2144.1}}, "weekday": "wednesday", "livingplace": "Orient"}}, "location": "Chavornay"}, "Sierre-Zinal, Sierre": {"latitude": 46.29413110000001, "longitude": 7.533536199999999, "race": "Sierre-Zinal, Sierre", "date": {"dim. 12.08.2012": {"year": 2012, "day": 12, "month": 8, "categories": {"Elites": {"distance": 31, "rank": 146, "pace": 443000000000, "time": 13761.7}}, "weekday": "sunday", "livingplace": "Le Vaud"}, "dim. 11.08.2013": {"year": 2013, "day": 11, "month": 8, "categories": {"Elites": {"distance": 31, "rank": 111, "pace": 429000000000, "time": 13305.9}}, "weekday": "sunday", "livingplace": "Orient"}}, "location": "Sierre"}, "Tour du Pays de Vaud #2 - Genolier": {"latitude": 46.5955273, "longitude": 6.7702883, "race": "Tour du Pays de Vaud #2 - Genolier", "date": {"mer. 15.08.2012": {"year": 2012, "day": 15, "month": 8, "categories": {"H-Sen1": {"distance": 9, "rank": 26, "pace": 246000000000, "time": 2091.7}}, "weekday": "wednesday", "livingplace": "Le Vaud"}}, "location": "M\u00e9zi\u00e8res VD"}}, "birth": 1979}