{"name": "De Vries Frans", "sex": "M", "races": {"Thuner Stadtlauf, Thun": {"latitude": 46.7579868, "longitude": 7.6279881, "race": "Thuner Stadtlauf, Thun", "date": {"dim. 26.08.2001": {"year": 2001, "day": 26, "month": 8, "categories": {"M40": {"distance": 10, "rank": 30, "pace": 256000000000, "time": 2560.7}}, "weekday": "sunday", "livingplace": "Heimberg"}}, "location": "Thun"}, "ASICS Bremgarter Reusslauf": {"latitude": 47.34917739999999, "longitude": 8.3397905, "race": "ASICS Bremgarter Reusslauf", "date": {"sam. 23.02.2002": {"year": 2002, "day": 23, "month": 2, "categories": {"13": {"distance": 10, "rank": 143, "pace": 255000000000, "time": 2559.1}}, "weekday": "saturday", "livingplace": "Heimberg"}}, "location": "Bremgarten AG"}, "Hallwilerseelauf, Beinwil am See": {"latitude": NaN, "longitude": NaN, "race": "Hallwilerseelauf, Beinwil am See", "date": {"sam. 13.10.2001": {"year": 2001, "day": 13, "month": 10, "categories": {"13": {"distance": 21, "rank": 138, "pace": 271000000000, "time": 5725.1}}, "weekday": "saturday", "livingplace": "Heimberg"}}, "location": "Beinwil am See"}, "Thuner Langstreckenlauf": {"latitude": 46.7579868, "longitude": 7.6279881, "race": "Thuner Langstreckenlauf", "date": {"sam. 27.05.2000": {"year": 2000, "day": 27, "month": 5, "categories": {"M40": {"distance": 15, "rank": 61, "pace": 264000000000, "time": 3830.3}}, "weekday": "saturday", "livingplace": "Heimberg"}}, "location": "Thun"}, "Gurtenclassic, Wabern": {"latitude": 46.92901639999999, "longitude": 7.448973199999999, "race": "Gurtenclassic, Wabern", "date": {"dim. 04.11.2001": {"year": 2001, "day": 4, "month": 11, "categories": {"M40": {"distance": 15, "rank": 82, "pace": 312000000000, "time": 4718.6}}, "weekday": "sunday", "livingplace": "Heimberg"}}, "location": "Wabern"}, "Kerzerslauf": {"latitude": 46.97488999999999, "longitude": 7.1954365, "race": "Kerzerslauf", "date": {"sam. 17.03.2001": {"year": 2001, "day": 17, "month": 3, "categories": {"M45": {"distance": 15, "rank": 178, "pace": 280000000000, "time": 4206.2}}, "weekday": "saturday", "livingplace": "Heimberg"}}, "location": "Kerzers"}, "Int Greifenseelauf, Uster": {"latitude": 47.3482747, "longitude": 8.717873899999999, "race": "Int Greifenseelauf, Uster", "date": {"sam. 18.09.2004": {"year": 2004, "day": 18, "month": 9, "categories": {"H/M45": {"distance": 21, "rank": 326, "pace": 303000000000, "time": 6400.6}}, "weekday": "saturday", "livingplace": "Heimberg"}}, "location": "Uster"}}, "birth": 1956}