{"name": "Dewarrat Jean-Marc", "sex": "M", "races": {"Thuner Stadtlauf, Thun": {"latitude": 46.7579868, "longitude": 7.6279881, "race": "Thuner Stadtlauf, Thun", "date": {"dim. 24.08.2014": {"year": 2014, "day": 24, "month": 8, "categories": {"10-M30": {"distance": 11, "rank": 143, "pace": 389000000000, "time": 4191.5}}, "weekday": "sunday", "livingplace": "Remaufens"}}, "location": "Thun"}, "Morat-Fribourg": {"latitude": 46.92922110000001, "longitude": 7.120184, "race": "Morat-Fribourg", "date": {"sam. 03.10.2015": {"year": 2015, "day": 3, "month": 10, "categories": {"17-M20": {"distance": 17, "rank": 2142, "pace": 403000000000, "time": 6934.7}}, "weekday": "saturday", "livingplace": "Remaufens"}, "sam. 04.10.2014": {"year": 2014, "day": 4, "month": 10, "categories": {"17-M20": {"distance": 17, "rank": 2180, "pace": 414000000000, "time": 7124.9}}, "weekday": "saturday", "livingplace": "Remaufens"}}, "location": "Murten"}, "Les Traine-Savates, Cheseaux-sur-Lausanne": {"latitude": 46.585452, "longitude": 6.6047712, "race": "Les Traine-Savates, Cheseaux-sur-Lausanne", "date": {"sam. 18.04.2015": {"year": 2015, "day": 18, "month": 4, "categories": {"10-M20": {"distance": 10, "rank": 280, "pace": 361000000000, "time": 3725.3}}, "weekday": "saturday", "livingplace": "Remaufens"}}, "location": "Cheseaux-sur-Lausanne"}, "Montreux - Les Rochers de Naye": {"latitude": 46.4312213, "longitude": 6.9106799, "race": "Montreux - Les Rochers de Naye", "date": {"dim. 07.07.2013": {"year": 2013, "day": 7, "month": 7, "categories": {"C-HElite": {"distance": 10, "rank": 37, "pace": 634000000000, "time": 6028.7}}, "weekday": "sunday", "livingplace": "Remaufens"}}, "location": "Montreux"}, "20km de Lausanne": {"latitude": 46.5196535, "longitude": 6.6322734, "race": "20km de Lausanne", "date": {"sam. 27.04.2013": {"year": 2013, "day": 27, "month": 4, "categories": {"10-H30": {"distance": 10, "rank": 948, "pace": 341000000000, "time": 3410.8}}, "weekday": "saturday", "livingplace": "Remaufens"}, "sam. 25.04.2015": {"year": 2015, "day": 25, "month": 4, "categories": {"20-H30": {"distance": 20, "rank": 978, "pace": 375000000000, "time": 7507.4}}, "weekday": "saturday", "livingplace": "Remaufens"}, "sam. 26.04.2014": {"year": 2014, "day": 26, "month": 4, "categories": {"10-H30": {"distance": 10, "rank": 1033, "pace": 365000000000, "time": 3651.8}}, "weekday": "saturday", "livingplace": "Remaufens"}}, "location": "Lausanne"}, "Dreil\u00e4nder-Lauf, Basel": {"latitude": 47.5595986, "longitude": 7.5885761, "race": "Dreil\u00e4nder-Lauf, Basel", "date": {"dim. 25.05.2014": {"year": 2014, "day": 25, "month": 5, "categories": {"10M30": {"distance": 10, "rank": 54, "pace": 366000000000, "time": 3697.2}}, "weekday": "sunday", "livingplace": "Remaufens"}}, "location": "Basel"}, "Z\u00fcrcher Silvesterlauf, Z\u00fcrich": {"latitude": 47.3768866, "longitude": 8.541694, "race": "Z\u00fcrcher Silvesterlauf, Z\u00fcrich", "date": {"dim. 14.12.2014": {"year": 2014, "day": 14, "month": 12, "categories": {"10-M30": {"distance": 10, "rank": 1293, "pace": 372000000000, "time": 3729.2}}, "weekday": "sunday", "livingplace": "Remaufens"}}, "location": "Z\u00fcrich"}}, "birth": 1981}