{"name": "De Weck Guy", "sex": "M", "races": {"BCN Tour La Chaux-de-Fonds": {"latitude": 46.9262933, "longitude": 6.6324944, "race": "BCN Tour La Chaux-de-Fonds", "date": {"mer. 23.05.2012": {"year": 2012, "day": 23, "month": 5, "categories": {"HS1": {"distance": 11, "rank": 82, "pace": 273000000000, "time": 2948.9}}, "weekday": "wednesday", "livingplace": "Porrentruy"}}, "location": "Couvet"}, "BCN Tour Les Ponts-de-Martel": {"latitude": 46.999113, "longitude": 6.733554799999999, "race": "BCN Tour Les Ponts-de-Martel", "date": {"mer. 09.05.2012": {"year": 2012, "day": 9, "month": 5, "categories": {"HS1": {"distance": 10, "rank": 91, "pace": 286000000000, "time": 2952.4}}, "weekday": "wednesday", "livingplace": "Porrentruy"}}, "location": "Les Ponts-de-Martel"}, "BCN Tour Neuch\u00e2tel": {"latitude": 46.9899874, "longitude": 6.9292732, "race": "BCN Tour Neuch\u00e2tel", "date": {"mer. 30.05.2012": {"year": 2012, "day": 30, "month": 5, "categories": {"HS1": {"distance": 11, "rank": 71, "pace": 284000000000, "time": 3183.6}}, "weekday": "wednesday", "livingplace": "Porrentruy"}}, "location": "Neuch\u00e2tel"}, "Morat-Fribourg": {"latitude": 46.92922110000001, "longitude": 7.120184, "race": "Morat-Fribourg", "date": {"sam. 03.10.2009": {"year": 2009, "day": 3, "month": 10, "categories": {"C-M20": {"distance": 17, "rank": 727, "pace": 289000000000, "time": 4976.5}}, "weekday": "saturday", "livingplace": "Porrentruy"}, "sam. 04.10.2008": {"year": 2008, "day": 4, "month": 10, "categories": {"C-M20": {"distance": 17, "rank": 549, "pace": 279000000000, "time": 4790.7}}, "weekday": "saturday", "livingplace": "Porrentruy"}}, "location": "Murten"}, "BCN Tour Couvet": {"latitude": 47.0624261, "longitude": 6.9175754, "race": "BCN Tour Couvet", "date": {"mer. 02.05.2012": {"year": 2012, "day": 2, "month": 5, "categories": {"HS1": {"distance": 11, "rank": 113, "pace": 297000000000, "time": 3316.1}}, "weekday": "wednesday", "livingplace": "Porrentruy"}}, "location": "Ch\u00e9zard-St-Martin"}, "BCN Tour Colombier": {"latitude": 47.1034892, "longitude": 6.832783800000001, "race": "BCN Tour Colombier", "date": {"mer. 16.05.2012": {"year": 2012, "day": 16, "month": 5, "categories": {"HS1": {"distance": 11, "rank": 91, "pace": 278000000000, "time": 3004.1}}, "weekday": "wednesday", "livingplace": "Porrentruy"}}, "location": "La Chaux-de-Fonds"}}, "birth": 1982}