{"name": "Di Domenica Mauro", "sex": "M", "races": {"Lucerne Marathon, Luzern": {"latitude": 47.05016819999999, "longitude": 8.3093072, "race": "Lucerne Marathon, Luzern", "date": {"dim. 30.10.2011": {"year": 2011, "day": 30, "month": 10, "categories": {"M-M30": {"distance": 42, "rank": 349, "pace": 394000000000, "time": 16631.6}}, "weekday": "sunday", "livingplace": "Aesch"}}, "location": "Luzern"}, "ASICS Bremgarter Reusslauf": {"latitude": 47.34917739999999, "longitude": 8.3397905, "race": "ASICS Bremgarter Reusslauf", "date": {"sam. 26.02.2005": {"year": 2005, "day": 26, "month": 2, "categories": {"11": {"distance": 11, "rank": 135, "pace": 269000000000, "time": 2833.6}}, "weekday": "saturday", "livingplace": "Reinach"}, "sam. 25.02.2006": {"year": 2006, "day": 25, "month": 2, "categories": {"M30": {"distance": 11, "rank": 222, "pace": 272000000000, "time": 2857.7}}, "weekday": "saturday", "livingplace": "Reinach"}, "sam. 27.02.2010": {"year": 2010, "day": 27, "month": 2, "categories": {"M30": {"distance": 11, "rank": 269, "pace": 290000000000, "time": 3200.0}}, "weekday": "saturday", "livingplace": "Aesch"}, "sam. 26.02.2011": {"year": 2011, "day": 26, "month": 2, "categories": {"M30": {"distance": 11, "rank": 327, "pace": 296000000000, "time": 3261.9}}, "weekday": "saturday", "livingplace": "Aesch"}, "sam. 23.02.2008": {"year": 2008, "day": 23, "month": 2, "categories": {"M30": {"distance": 11, "rank": 293, "pace": 303000000000, "time": 3343.6}}, "weekday": "saturday", "livingplace": "Aesch"}}, "location": "Bremgarten AG"}, "Basler Stadtlauf": {"latitude": 47.5595986, "longitude": 7.5885761, "race": "Basler Stadtlauf", "date": {"sam. 29.11.2008": {"year": 2008, "day": 29, "month": 11, "categories": {"N": {"distance": 6, "rank": 154, "pace": 271000000000, "time": 1495.9}}, "weekday": "saturday", "livingplace": "Aesch"}}, "location": "Basel"}, "Liestaler Stadtlauf": {"latitude": 47.4866143, "longitude": 7.7334272, "race": "Liestaler Stadtlauf", "date": {"mer. 29.08.2007": {"year": 2007, "day": 29, "month": 8, "categories": {"M30": {"distance": 12, "rank": 9, "pace": 302000000000, "time": 3631.8}}, "weekday": "wednesday", "livingplace": "Aesch"}}, "location": "Liestal"}, "Z\u00fcrcher Silvesterlauf, Z\u00fcrich": {"latitude": 47.3768866, "longitude": 8.541694, "race": "Z\u00fcrcher Silvesterlauf, Z\u00fcrich", "date": {"dim. 14.12.2008": {"year": 2008, "day": 14, "month": 12, "categories": {"MenAK1-8": {"distance": 9, "rank": 465, "pace": 276000000000, "time": 2379.0}}, "weekday": "sunday", "livingplace": "Aesch"}}, "location": "Z\u00fcrich"}, "Int Greifenseelauf, Uster": {"latitude": 47.3482747, "longitude": 8.717873899999999, "race": "Int Greifenseelauf, Uster", "date": {"sam. 19.09.2009": {"year": 2009, "day": 19, "month": 9, "categories": {"H-M30": {"distance": 21, "rank": 802, "pace": 405000000000, "time": 8558.7}}, "weekday": "saturday", "livingplace": "Aesch"}}, "location": "Uster"}, "Kerzerslauf": {"latitude": 46.97488999999999, "longitude": 7.1954365, "race": "Kerzerslauf", "date": {"sam. 18.03.2006": {"year": 2006, "day": 18, "month": 3, "categories": {"M20": {"distance": 15, "rank": 295, "pace": 284000000000, "time": 4262.7}}, "weekday": "saturday", "livingplace": "Reinach"}}, "location": "Kerzers"}, "Basler Marathon-Tage": {"latitude": 47.5595986, "longitude": 7.5885761, "race": "Basler Marathon-Tage", "date": {"sam. 25.10.2003": {"year": 2003, "day": 25, "month": 10, "categories": {"L-HM/MHK": {"distance": 21, "rank": 24, "pace": 295000000000, "time": 6235.0}}, "weekday": "saturday", "livingplace": "Reinach"}}, "location": "Basel"}}, "birth": 1975}