{"name": "Digirolamo Monika", "sex": "F", "races": {"Z\u00fcrich Marathon, Teamrun und Cityrun": {"latitude": 47.3768866, "longitude": 8.541694, "race": "Z\u00fcrich Marathon, Teamrun und Cityrun", "date": {"dim. 06.04.2014": {"year": 2014, "day": 6, "month": 4, "categories": {"10-W30": {"distance": 10, "rank": 14, "pace": 263000000000, "time": 2586.8}}, "weekday": "sunday", "livingplace": "Baretswil"}}, "location": "Z\u00fcrich"}, "Schweizer Frauenlauf Bern": {"latitude": 46.9479739, "longitude": 7.4474468, "race": "Schweizer Frauenlauf Bern", "date": {"dim. 10.06.2012": {"year": 2012, "day": 10, "month": 6, "categories": {"10-W35": {"distance": 10, "rank": 39, "pace": 284000000000, "time": 2846.0}}, "weekday": "sunday", "livingplace": "Baretswil"}, "dim. 15.06.2014": {"year": 2014, "day": 15, "month": 6, "categories": {"10-W35": {"distance": 10, "rank": 15, "pace": 270000000000, "time": 2700.4}}, "weekday": "sunday", "livingplace": "Baretswil"}}, "location": "Bern"}, "IWB Basel Marathon": {"latitude": 47.5595986, "longitude": 7.5885761, "race": "IWB Basel Marathon", "date": {"dim. 23.09.2012": {"year": 2012, "day": 23, "month": 9, "categories": {"H-21-F30": {"distance": 21, "rank": 23, "pace": 299000000000, "time": 6319.0}}, "weekday": "sunday", "livingplace": "Baretswil"}}, "location": "Basel"}, "Winterthur Marathon": {"latitude": 39.8088766, "longitude": -75.6037351, "race": "Winterthur Marathon", "date": {"dim. 06.05.2012": {"year": 2012, "day": 6, "month": 5, "categories": {"H-F30": {"distance": 21, "rank": 20, "pace": 308000000000, "time": 6481.1}}, "weekday": "sunday", "livingplace": "Baretswil"}, "dim. 31.05.2015": {"year": 2015, "day": 31, "month": 5, "categories": {"HM-F40": {"distance": 21, "rank": 16, "pace": 282000000000, "time": 5937.7}}, "weekday": "sunday", "livingplace": "Baretswil"}, "dim. 01.06.2014": {"year": 2014, "day": 1, "month": 6, "categories": {"H-F30": {"distance": 21, "rank": 11, "pace": 288000000000, "time": 6067.7}}, "weekday": "sunday", "livingplace": "Baretswil"}}, "location": "Winterthur"}, "Int Greifenseelauf, Uster": {"latitude": 47.3482747, "longitude": 8.717873899999999, "race": "Int Greifenseelauf, Uster", "date": {"sam. 19.09.2009": {"year": 2009, "day": 19, "month": 9, "categories": {"H-W30": {"distance": 21, "rank": 98, "pace": 316000000000, "time": 6684.8}}, "weekday": "saturday", "livingplace": "Uster"}}, "location": "Uster"}}, "birth": 1975}