{"name": "Dill Markus", "sex": "M", "races": {"Bl\u00fcemlisalp-Lauf, Reichenbach": {"latitude": 46.6254387, "longitude": 7.6940529, "race": "Bl\u00fcemlisalp-Lauf, Reichenbach", "date": {"dim. 24.05.2015": {"year": 2015, "day": 24, "month": 5, "categories": {"M50": {"distance": 16, "rank": 10, "pace": 316000000000, "time": 5090.5}}, "weekday": "sunday", "livingplace": "Schonbuhl"}}, "location": "Reichenbach im Kandertal"}, "Gurtenclassic, Wabern": {"latitude": 46.92901639999999, "longitude": 7.448973199999999, "race": "Gurtenclassic, Wabern", "date": {"dim. 03.11.2013": {"year": 2013, "day": 3, "month": 11, "categories": {"DLM": {"distance": 17, "rank": 10, "pace": 259000000000, "time": 4356.1}}, "weekday": "sunday", "livingplace": "Innerberg"}}, "location": "Wabern"}, "Morat-Fribourg": {"latitude": 46.92922110000001, "longitude": 7.120184, "race": "Morat-Fribourg", "date": {"dim. 06.10.2002": {"year": 2002, "day": 6, "month": 10, "categories": {"M20": {"distance": 17, "rank": 742, "pace": 276000000000, "time": 4742.6}}, "weekday": "sunday", "livingplace": "Munchenbuchsee"}}, "location": "Murten"}, "Kerzerslauf": {"latitude": 46.97488999999999, "longitude": 7.1954365, "race": "Kerzerslauf", "date": {"sam. 21.03.2015": {"year": 2015, "day": 21, "month": 3, "categories": {"15-M50": {"distance": 15, "rank": 24, "pace": 242000000000, "time": 3633.7}}, "weekday": "saturday", "livingplace": "Innerberg"}}, "location": "Kerzers"}, "Bieler Lauftage, Biel Bienne": {"latitude": 47.1367785, "longitude": 7.2467909, "race": "Bieler Lauftage, Biel Bienne", "date": {"ven. 13.06.2008": {"year": 2008, "day": 13, "month": 6, "categories": {"H/M40": {"distance": 21, "rank": 17, "pace": 276000000000, "time": 5843.2}}, "weekday": "friday", "livingplace": "Innerberg"}, "ven. 12.06.2009": {"year": 2009, "day": 12, "month": 6, "categories": {"H/M45": {"distance": 21, "rank": 10, "pace": 274000000000, "time": 5781.5}}, "weekday": "friday", "livingplace": "Innerberg"}, "jeu. 11.06.2015": {"year": 2015, "day": 11, "month": 6, "categories": {"H-M50": {"distance": 21, "rank": 2, "pace": 244000000000, "time": 5154.9}}, "weekday": "thursday", "livingplace": "Innerberg"}}, "location": "Biel/Bienne"}}, "birth": 1964}