{"name": "Di Marco Magali", "sex": "F", "races": {"Kerzerslauf": {"latitude": 46.97488999999999, "longitude": 7.1954365, "race": "Kerzerslauf", "date": {"sam. 19.03.2011": {"year": 2011, "day": 19, "month": 3, "categories": {"15-F40": {"distance": 15, "rank": 1, "pace": 227000000000, "time": 3409.4}}, "weekday": "saturday", "livingplace": "Troistorrents"}}, "location": "Kerzers"}, "Tour du Chablais #6 Monthey": {"latitude": 46.3190253, "longitude": 6.970566, "race": "Tour du Chablais #6 Monthey", "date": {"mer. 08.05.2013": {"year": 2013, "day": 8, "month": 5, "categories": {"F-F40": {"distance": 9, "rank": 1, "pace": 210000000000, "time": 1965.6}}, "weekday": "wednesday", "livingplace": "Troistorrents"}}, "location": "Aigle"}, "Morat-Fribourg": {"latitude": 46.92922110000001, "longitude": 7.120184, "race": "Morat-Fribourg", "date": {"sam. 05.10.2013": {"year": 2013, "day": 5, "month": 10, "categories": {"17-W40": {"distance": 17, "rank": 4, "pace": 230000000000, "time": 4018.4}}, "weekday": "saturday", "livingplace": "Troistorrents"}, "sam. 06.10.2012": {"year": 2012, "day": 6, "month": 10, "categories": {"17-W40": {"distance": 17, "rank": 3, "pace": 229000000000, "time": 3997.3}}, "weekday": "saturday", "livingplace": "Troistorrents"}}, "location": "Murten"}, "Tour du Chablais #4 Morgins": {"latitude": NaN, "longitude": NaN, "race": "Tour du Chablais #4 Morgins", "date": {"mer. 18.05.2011": {"year": 2011, "day": 18, "month": 5, "categories": {"F-F40": {"distance": 8, "rank": 1, "pace": 243000000000, "time": 2036.2}}, "weekday": "wednesday", "livingplace": "Troistorrents"}}, "location": "Les Mosses"}, "Tour du Chablais #3 Le Bouveret": {"latitude": 46.1782231, "longitude": 7.0223787, "race": "Tour du Chablais #3 Le Bouveret", "date": {"mer. 11.05.2011": {"year": 2011, "day": 11, "month": 5, "categories": {"F-F40": {"distance": 10, "rank": 1, "pace": 222000000000, "time": 2226.9}}, "weekday": "wednesday", "livingplace": "Troistorrents"}}, "location": "Evionnaz"}, "20km de Lausanne": {"latitude": 46.5196535, "longitude": 6.6322734, "race": "20km de Lausanne", "date": {"sam. 27.04.2013": {"year": 2013, "day": 27, "month": 4, "categories": {"20-F40": {"distance": 20, "rank": 1, "pace": 218000000000, "time": 4377.6}}, "weekday": "saturday", "livingplace": "Troistorrents"}, "sam. 25.04.2015": {"year": 2015, "day": 25, "month": 4, "categories": {"20-F40": {"distance": 20, "rank": 2, "pace": 233000000000, "time": 4665.3}}, "weekday": "saturday", "livingplace": "Troistorrents"}}, "location": "Lausanne"}, "Tour du Chablais #2 St-Gingolph": {"latitude": 46.3835529, "longitude": 6.854975199999999, "race": "Tour du Chablais #2 St-Gingolph", "date": {"mer. 14.04.2010": {"year": 2010, "day": 14, "month": 4, "categories": {"F-F20": {"distance": 8, "rank": 2, "pace": 231000000000, "time": 1929.1}}, "weekday": "wednesday", "livingplace": "Troistorrents"}}, "location": "Bouveret"}, "Tour du Chablais #6 Mouthey": {"latitude": 46.3190253, "longitude": 6.970566, "race": "Tour du Chablais #6 Mouthey", "date": {"mer. 12.05.2010": {"year": 2010, "day": 12, "month": 5, "categories": {"F-F20": {"distance": 9, "rank": 2, "pace": 213000000000, "time": 1961.6}}, "weekday": "wednesday", "livingplace": "Troistorrents"}}, "location": "Aigle"}, "Tour du Chablais #3 Bouveret": {"latitude": 46.1782231, "longitude": 7.0223787, "race": "Tour du Chablais #3 Bouveret", "date": {"mer. 17.04.2013": {"year": 2013, "day": 17, "month": 4, "categories": {"F-F40": {"distance": 10, "rank": 1, "pace": 213000000000, "time": 2137.0}}, "weekday": "wednesday", "livingplace": "Troistorrents"}}, "location": "Evionnaz"}, "Tour du Chablais #4 St  Maurice": {"latitude": NaN, "longitude": NaN, "race": "Tour du Chablais #4 St  Maurice", "date": {"mer. 24.04.2013": {"year": 2013, "day": 24, "month": 4, "categories": {"F-F40": {"distance": 10, "rank": 9, "pace": 272000000000, "time": 2721.0}}, "weekday": "wednesday", "livingplace": "Troistorrents"}}, "location": "Les Mosses"}, "Tour du Chablais #5 Leysin": {"latitude": 46.3603257, "longitude": 6.931504599999999, "race": "Tour du Chablais #5 Leysin", "date": {"mer. 05.05.2010": {"year": 2010, "day": 5, "month": 5, "categories": {"F-F20": {"distance": 8, "rank": 23, "pace": 311000000000, "time": 2630.0}}, "weekday": "wednesday", "livingplace": "Troistorrents"}}, "location": "Roche VD"}, "Tour du Chablais #2 Bex": {"latitude": 46.3835529, "longitude": 6.854975199999999, "race": "Tour du Chablais #2 Bex", "date": {"mer. 18.04.2012": {"year": 2012, "day": 18, "month": 4, "categories": {"F-F40": {"distance": 8, "rank": 1, "pace": 228000000000, "time": 1828.1}}, "weekday": "wednesday", "livingplace": "Troistorrents"}}, "location": "Bouveret"}, "Tour du Chablais #3 Collombey-Muraz": {"latitude": 46.1782231, "longitude": 7.0223787, "race": "Tour du Chablais #3 Collombey-Muraz", "date": {"mer. 25.04.2012": {"year": 2012, "day": 25, "month": 4, "categories": {"F-F40": {"distance": 9, "rank": 11, "pace": 282000000000, "time": 2537.5}}, "weekday": "wednesday", "livingplace": "Troistorrents"}}, "location": "Evionnaz"}, "Semi-Marathon de la C\u00f4te, Allaman-Nyon": {"latitude": 46.3832683, "longitude": 6.2347852, "race": "Semi-Marathon de la C\u00f4te, Allaman-Nyon", "date": {"dim. 14.09.2014": {"year": 2014, "day": 14, "month": 9, "categories": {"21-F40": {"distance": 21, "rank": 1, "pace": 234000000000, "time": 4949.4}}, "weekday": "sunday", "livingplace": "Troistorrents"}}, "location": "Nyon"}}, "birth": 1971}