{"name": "Di Maggio Nicolas", "sex": "M", "races": {"Tour du Pays de Vaud #2 - Genolier": {"latitude": 46.5955273, "longitude": 6.7702883, "race": "Tour du Pays de Vaud #2 - Genolier", "date": {"mer. 15.08.2012": {"year": 2012, "day": 15, "month": 8, "categories": {"H-Hom": {"distance": 9, "rank": 46, "pace": 270000000000, "time": 2296.3}}, "weekday": "wednesday", "livingplace": "Prilly"}, "mer. 17.08.2011": {"year": 2011, "day": 17, "month": 8, "categories": {"H-Hom": {"distance": 9, "rank": 40, "pace": 288000000000, "time": 2454.2}}, "weekday": "wednesday", "livingplace": "Prilly"}, "mer. 18.08.2010": {"year": 2010, "day": 18, "month": 8, "categories": {"Hom": {"distance": 8, "rank": 47, "pace": 274000000000, "time": 2223.0}}, "weekday": "wednesday", "livingplace": "Prilly"}}, "location": "M\u00e9zi\u00e8res VD"}, "Tour du pays de Vaud #1 \u2013 St  Prex": {"latitude": 46.7784736, "longitude": 6.641183, "race": "Tour du pays de Vaud #1 \u2013 St  Prex", "date": {"mer. 11.08.2010": {"year": 2010, "day": 11, "month": 8, "categories": {"Hom": {"distance": 8, "rank": 65, "pace": 327000000000, "time": 2748.0}}, "weekday": "wednesday", "livingplace": "Prilly"}}, "location": "Yverdon-les-Bains"}, "Tour du Pays de Vaud #3 - Mezi\u00e8res": {"latitude": 46.7784736, "longitude": 6.641183, "race": "Tour du Pays de Vaud #3 - Mezi\u00e8res", "date": {"mer. 22.08.2012": {"year": 2012, "day": 22, "month": 8, "categories": {"H-Hom": {"distance": 8, "rank": 72, "pace": 336000000000, "time": 2827.9}}, "weekday": "wednesday", "livingplace": "Prilly"}}, "location": "Yverdon-les-Bains"}, "Tour du pays de Vaud #6 - St  Prex": {"latitude": 46.4829113, "longitude": 6.458343500000001, "race": "Tour du pays de Vaud #6 - St  Prex", "date": {"mer. 14.09.2011": {"year": 2011, "day": 14, "month": 9, "categories": {"H-Hom": {"distance": 9, "rank": 40, "pace": 269000000000, "time": 2316.7}}, "weekday": "wednesday", "livingplace": "Prilly"}}, "location": "St-Prex"}, "20km de Lausanne": {"latitude": 46.5196535, "longitude": 6.6322734, "race": "20km de Lausanne", "date": {"sam. 26.04.2014": {"year": 2014, "day": 26, "month": 4, "categories": {"10-H30": {"distance": 10, "rank": 485, "pace": 305000000000, "time": 3057.6}}, "weekday": "saturday", "livingplace": "Prilly"}}, "location": "Lausanne"}, "Tour du pays de Vaud #1 - Mezi\u00e8res": {"latitude": 46.7784736, "longitude": 6.641183, "race": "Tour du pays de Vaud #1 - Mezi\u00e8res", "date": {"mer. 10.08.2011": {"year": 2011, "day": 10, "month": 8, "categories": {"H-Hom": {"distance": 9, "rank": 41, "pace": 274000000000, "time": 2337.3}}, "weekday": "wednesday", "livingplace": "Prilly"}}, "location": "Yverdon-les-Bains"}, "Tour du pays de Vaud #5 - Penthaz": {"latitude": 46.5993131, "longitude": 6.539251200000001, "race": "Tour du pays de Vaud #5 - Penthaz", "date": {"mer. 07.09.2011": {"year": 2011, "day": 7, "month": 9, "categories": {"H-Hom": {"distance": 8, "rank": 41, "pace": 314000000000, "time": 2629.8}}, "weekday": "wednesday", "livingplace": "Prilly"}}, "location": "Penthaz"}, "Tour du Pays de Vaud #5 - La Sarraz": {"latitude": 46.5993131, "longitude": 6.539251200000001, "race": "Tour du Pays de Vaud #5 - La Sarraz", "date": {"mer. 08.09.2010": {"year": 2010, "day": 8, "month": 9, "categories": {"Hom": {"distance": 9, "rank": 41, "pace": 282000000000, "time": 2567.0}}, "weekday": "wednesday", "livingplace": "Prilly"}}, "location": "Penthaz"}, "Tour du Pays de Vaud #4 - La Sarraz": {"latitude": 46.7088129, "longitude": 6.5707689, "race": "Tour du Pays de Vaud #4 - La Sarraz", "date": {"mer. 29.08.2012": {"year": 2012, "day": 29, "month": 8, "categories": {"H-Hom": {"distance": 9, "rank": 47, "pace": 269000000000, "time": 2292.2}}, "weekday": "wednesday", "livingplace": "Prilly"}}, "location": "Chavornay"}, "Tour du Pays de Vaud #3 - Chavornay": {"latitude": 46.7784736, "longitude": 6.641183, "race": "Tour du Pays de Vaud #3 - Chavornay", "date": {"mer. 28.08.2013": {"year": 2013, "day": 28, "month": 8, "categories": {"H-Sen1": {"distance": 9, "rank": 92, "pace": 290000000000, "time": 2584.0}}, "weekday": "wednesday", "livingplace": "Prilly"}}, "location": "Yverdon-les-Bains"}, "Tour du pays de Vaud #1 - Penthaz": {"latitude": 46.5993131, "longitude": 6.539251200000001, "race": "Tour du pays de Vaud #1 - Penthaz", "date": {"mer. 08.08.2012": {"year": 2012, "day": 8, "month": 8, "categories": {"H-Hom": {"distance": 9, "rank": 55, "pace": 286000000000, "time": 2441.3}}, "weekday": "wednesday", "livingplace": "Prilly"}}, "location": "Penthaz"}}, "birth": 1983}