{"name": "Di Mantino Michel", "sex": "M", "races": {"BCN Tour Couvet": {"latitude": 47.0624261, "longitude": 6.9175754, "race": "BCN Tour Couvet", "date": {"mer. 02.05.2012": {"year": 2012, "day": 2, "month": 5, "categories": {"HS1": {"distance": 11, "rank": 9, "pace": 234000000000, "time": 2612.7}}, "weekday": "wednesday", "livingplace": "Geneve"}}, "location": "Ch\u00e9zard-St-Martin"}, "Morat-Fribourg": {"latitude": 46.92922110000001, "longitude": 7.120184, "race": "Morat-Fribourg", "date": {"sam. 03.10.2009": {"year": 2009, "day": 3, "month": 10, "categories": {"C-M20": {"distance": 17, "rank": 156, "pace": 252000000000, "time": 4339.6}}, "weekday": "saturday", "livingplace": "Geneve"}}, "location": "Murten"}, "BCN Tour La Br\u00e9vine": {"latitude": 46.999113, "longitude": 6.733554799999999, "race": "BCN Tour La Br\u00e9vine", "date": {"mer. 04.05.2011": {"year": 2011, "day": 4, "month": 5, "categories": {"HS1": {"distance": 10, "rank": 13, "pace": 241000000000, "time": 2417.0}}, "weekday": "wednesday", "livingplace": "Geneve"}}, "location": "Les Ponts-de-Martel"}, "BCN Tour Fontaine Cernier": {"latitude": 47.0624261, "longitude": 6.9175754, "race": "BCN Tour Fontaine Cernier", "date": {"mer. 27.04.2011": {"year": 2011, "day": 27, "month": 4, "categories": {"HS1": {"distance": 10, "rank": 10, "pace": 225000000000, "time": 2326.7}}, "weekday": "wednesday", "livingplace": "Geneve"}}, "location": "Ch\u00e9zard-St-Martin"}, "BCN Tour Le Landeron": {"latitude": 46.9668714, "longitude": 6.8589727, "race": "BCN Tour Le Landeron", "date": {"mer. 22.04.2009": {"year": 2009, "day": 22, "month": 4, "categories": {"HS1": {"distance": 11, "rank": 30, "pace": 247000000000, "time": 2746.1}}, "weekday": "wednesday", "livingplace": "Geneve"}}, "location": "Colombier NE"}, "BCN Tour Cornaux": {"latitude": 46.9668714, "longitude": 6.8589727, "race": "BCN Tour Cornaux", "date": {"mer. 25.04.2012": {"year": 2012, "day": 25, "month": 4, "categories": {"HS1": {"distance": 11, "rank": 10, "pace": 248000000000, "time": 2735.8}}, "weekday": "wednesday", "livingplace": "Geneve"}}, "location": "Colombier NE"}, "BCN Tour Le Locle": {"latitude": 46.999113, "longitude": 6.733554799999999, "race": "BCN Tour Le Locle", "date": {"mer. 05.05.2010": {"year": 2010, "day": 5, "month": 5, "categories": {"HS1": {"distance": 11, "rank": 17, "pace": 238000000000, "time": 2595.7}}, "weekday": "wednesday", "livingplace": "Geneve"}}, "location": "Les Ponts-de-Martel"}, "BCN Tour Neuch\u00e2tel": {"latitude": 46.9899874, "longitude": 6.9292732, "race": "BCN Tour Neuch\u00e2tel", "date": {"mer. 26.05.2010": {"year": 2010, "day": 26, "month": 5, "categories": {"HS1": {"distance": 10, "rank": 17, "pace": 249000000000, "time": 2419.6}}, "weekday": "wednesday", "livingplace": "Geneve"}, "mer. 30.05.2012": {"year": 2012, "day": 30, "month": 5, "categories": {"HS1": {"distance": 11, "rank": 10, "pace": 238000000000, "time": 2674.1}}, "weekday": "wednesday", "livingplace": "Geneve"}, "mer. 25.05.2011": {"year": 2011, "day": 25, "month": 5, "categories": {"HS1": {"distance": 11, "rank": 11, "pace": 237000000000, "time": 2709.5}}, "weekday": "wednesday", "livingplace": "Geneve"}}, "location": "Neuch\u00e2tel"}, "BCN Tour Auvernier": {"latitude": 46.9668714, "longitude": 6.8589727, "race": "BCN Tour Auvernier", "date": {"mer. 20.04.2011": {"year": 2011, "day": 20, "month": 4, "categories": {"HS1": {"distance": 11, "rank": 10, "pace": 240000000000, "time": 2593.7}}, "weekday": "wednesday", "livingplace": "Geneve"}}, "location": "Colombier NE"}, "Kerzerslauf": {"latitude": 46.97488999999999, "longitude": 7.1954365, "race": "Kerzerslauf", "date": {"sam. 17.03.2012": {"year": 2012, "day": 17, "month": 3, "categories": {"15-M35": {"distance": 15, "rank": 21, "pace": 226000000000, "time": 3403.9}}, "weekday": "saturday", "livingplace": "Geneve"}}, "location": "Kerzers"}, "Lausanne Marathon": {"latitude": 46.5196535, "longitude": 6.6322734, "race": "Lausanne Marathon", "date": {"dim. 30.10.2011": {"year": 2011, "day": 30, "month": 10, "categories": {"10-H2": {"distance": 10, "rank": 14, "pace": 208000000000, "time": 2089.8}}, "weekday": "sunday", "livingplace": "Geneve"}}, "location": "Lausanne"}, "BCN Tour Les Ponts-de-Martel": {"latitude": 46.999113, "longitude": 6.733554799999999, "race": "BCN Tour Les Ponts-de-Martel", "date": {"mer. 09.05.2012": {"year": 2012, "day": 9, "month": 5, "categories": {"HS1": {"distance": 10, "rank": 8, "pace": 231000000000, "time": 2387.0}}, "weekday": "wednesday", "livingplace": "Geneve"}}, "location": "Les Ponts-de-Martel"}, "BCN Tour La Chaux-de-Fonds": {"latitude": 47.1034892, "longitude": 6.832783800000001, "race": "BCN Tour La Chaux-de-Fonds", "date": {"mer. 23.05.2012": {"year": 2012, "day": 23, "month": 5, "categories": {"HS1": {"distance": 11, "rank": 11, "pace": 232000000000, "time": 2507.1}}, "weekday": "wednesday", "livingplace": "Geneve"}, "mer. 11.05.2011": {"year": 2011, "day": 11, "month": 5, "categories": {"HS1": {"distance": 11, "rank": 11, "pace": 272000000000, "time": 2912.6}}, "weekday": "wednesday", "livingplace": "Geneve"}}, "location": "La Chaux-de-Fonds"}, "D\u00e9fi Val-de-Travers, Couvet": {"latitude": 46.9262933, "longitude": 6.6324944, "race": "D\u00e9fi Val-de-Travers, Couvet", "date": {"sam. 20.06.2009": {"year": 2009, "day": 20, "month": 6, "categories": {"SHS1": {"distance": 20, "rank": 6, "pace": 272000000000, "time": 5369.5}}, "weekday": "saturday", "livingplace": "Geneve"}}, "location": "Couvet"}, "BCN Tour Ponts-de-Martel": {"latitude": 47.0624261, "longitude": 6.9175754, "race": "BCN Tour Ponts-de-Martel", "date": {"mer. 28.04.2010": {"year": 2010, "day": 28, "month": 4, "categories": {"HS1": {"distance": 11, "rank": 19, "pace": 248000000000, "time": 2780.6}}, "weekday": "wednesday", "livingplace": "Geneve"}}, "location": "Ch\u00e9zard-St-Martin"}, "BCN Tour Les Ponts de Martel": {"latitude": 46.9262933, "longitude": 6.6324944, "race": "BCN Tour Les Ponts de Martel", "date": {"mer. 18.05.2011": {"year": 2011, "day": 18, "month": 5, "categories": {"HS1": {"distance": 13, "rank": 11, "pace": 241000000000, "time": 3096.1}}, "weekday": "wednesday", "livingplace": "Geneve"}}, "location": "Couvet"}, "BCN Tour M\u00f4tier": {"latitude": 46.9262933, "longitude": 6.6324944, "race": "BCN Tour M\u00f4tier", "date": {"mer. 19.05.2010": {"year": 2010, "day": 19, "month": 5, "categories": {"HS1": {"distance": 10, "rank": 19, "pace": 232000000000, "time": 2302.9}}, "weekday": "wednesday", "livingplace": "Geneve"}}, "location": "Couvet"}, "10km Schweizer Meisterschaften Lyss": {"latitude": 47.0746504, "longitude": 7.3077022, "race": "10km Schweizer Meisterschaften Lyss", "date": {"sam. 31.03.2012": {"year": 2012, "day": 31, "month": 3, "categories": {"10-M35": {"distance": 10, "rank": 17, "pace": 218000000000, "time": 2189.8}}, "weekday": "saturday", "livingplace": "Geneve"}}, "location": "Lyss"}, "BCN Tour La Chaux-de-fonds": {"latitude": 47.1034892, "longitude": 6.832783800000001, "race": "BCN Tour La Chaux-de-fonds", "date": {"mer. 12.05.2010": {"year": 2010, "day": 12, "month": 5, "categories": {"HS1": {"distance": 11, "rank": 17, "pace": 293000000000, "time": 3141.5}}, "weekday": "wednesday", "livingplace": "Geneve"}}, "location": "La Chaux-de-Fonds"}, "BCN Tour Colombier": {"latitude": 46.9668714, "longitude": 6.8589727, "race": "BCN Tour Colombier", "date": {"mer. 16.05.2012": {"year": 2012, "day": 16, "month": 5, "categories": {"HS1": {"distance": 11, "rank": 6, "pace": 228000000000, "time": 2466.6}}, "weekday": "wednesday", "livingplace": "Geneve"}, "mer. 21.04.2010": {"year": 2010, "day": 21, "month": 4, "categories": {"HS1": {"distance": 10, "rank": 16, "pace": 259000000000, "time": 2594.4}}, "weekday": "wednesday", "livingplace": "Geneve"}}, "location": "Colombier NE"}}, "birth": 1973}