{"name": "Dimitriou Alexandre", "sex": "M", "races": {"Groupe E Tour Fribourg #1 Gurmels": {"latitude": 46.81832, "longitude": 6.977279999999999, "race": "Groupe E Tour Fribourg #1 Gurmels", "date": {"mer. 29.08.2012": {"year": 2012, "day": 29, "month": 8, "categories": {"HS1": {"distance": 8, "rank": 11, "pace": 247000000000, "time": 2082.3}}, "weekday": "wednesday", "livingplace": "Corcelles"}}, "location": "Cousset"}, "BCN Tour La Br\u00e9vine": {"latitude": 46.999113, "longitude": 6.733554799999999, "race": "BCN Tour La Br\u00e9vine", "date": {"mer. 04.05.2011": {"year": 2011, "day": 4, "month": 5, "categories": {"HS1": {"distance": 10, "rank": 27, "pace": 257000000000, "time": 2572.3}}, "weekday": "wednesday", "livingplace": "Les Loges"}}, "location": "Les Ponts-de-Martel"}, "Groupe E Tour Fribourg #2 Kerzers": {"latitude": 46.6175845, "longitude": 7.1654493, "race": "Groupe E Tour Fribourg #2 Kerzers", "date": {"mer. 28.08.2013": {"year": 2013, "day": 28, "month": 8, "categories": {"HS1": {"distance": 12, "rank": 10, "pace": 241000000000, "time": 2858.2}}, "weekday": "wednesday", "livingplace": "Corcelles"}}, "location": "Charmey (Gruy\u00e8re)"}, "BCN Tour #1 Corcelles": {"latitude": 46.9668714, "longitude": 6.8589727, "race": "BCN Tour #1 Corcelles", "date": {"mer. 24.04.2013": {"year": 2013, "day": 24, "month": 4, "categories": {"HS1": {"distance": 10, "rank": 9, "pace": 231000000000, "time": 2273.5}}, "weekday": "wednesday", "livingplace": "Corcelles"}}, "location": "Colombier NE"}, "BCN Tour Auvernier": {"latitude": 46.9668714, "longitude": 6.8589727, "race": "BCN Tour Auvernier", "date": {"mer. 20.04.2011": {"year": 2011, "day": 20, "month": 4, "categories": {"HS1": {"distance": 11, "rank": 272, "pace": 414000000000, "time": 4473.3}}, "weekday": "wednesday", "livingplace": "Les Loges"}}, "location": "Colombier NE"}, "BCN Tour #2 La Chaux-de-Fonds": {"latitude": 47.0624261, "longitude": 6.9175754, "race": "BCN Tour #2 La Chaux-de-Fonds", "date": {"mer. 01.05.2013": {"year": 2013, "day": 1, "month": 5, "categories": {"HS1": {"distance": 11, "rank": 16, "pace": 236000000000, "time": 2526.4}}, "weekday": "wednesday", "livingplace": "Corcelles"}}, "location": "Ch\u00e9zard-St-Martin"}, "BCN Tour Les Ponts de Martel": {"latitude": 46.9262933, "longitude": 6.6324944, "race": "BCN Tour Les Ponts de Martel", "date": {"mer. 18.05.2011": {"year": 2011, "day": 18, "month": 5, "categories": {"HS1": {"distance": 13, "rank": 31, "pace": 260000000000, "time": 3337.6}}, "weekday": "wednesday", "livingplace": "Les Loges"}}, "location": "Couvet"}, "BCN Tour La Chaux-de-Fonds": {"latitude": 47.1034892, "longitude": 6.832783800000001, "race": "BCN Tour La Chaux-de-Fonds", "date": {"mer. 11.05.2011": {"year": 2011, "day": 11, "month": 5, "categories": {"HS1": {"distance": 11, "rank": 26, "pace": 285000000000, "time": 3057.1}}, "weekday": "wednesday", "livingplace": "Les Loges"}}, "location": "La Chaux-de-Fonds"}, "BCN Tour Neuch\u00e2tel": {"latitude": 46.9899874, "longitude": 6.9292732, "race": "BCN Tour Neuch\u00e2tel", "date": {"mer. 26.05.2010": {"year": 2010, "day": 26, "month": 5, "categories": {"HS1": {"distance": 10, "rank": 120, "pace": 324000000000, "time": 3148.6}}, "weekday": "wednesday", "livingplace": "Les Moussieres"}, "mer. 25.05.2011": {"year": 2011, "day": 25, "month": 5, "categories": {"HS1": {"distance": 11, "rank": 23, "pace": 253000000000, "time": 2891.5}}, "weekday": "wednesday", "livingplace": "Les Loges"}}, "location": "Neuch\u00e2tel"}, "Groupe E Tour Fribourg #1 Siviriez": {"latitude": 46.81832, "longitude": 6.977279999999999, "race": "Groupe E Tour Fribourg #1 Siviriez", "date": {"mer. 21.08.2013": {"year": 2013, "day": 21, "month": 8, "categories": {"HS1": {"distance": 10, "rank": 7, "pace": 241000000000, "time": 2370.7}}, "weekday": "wednesday", "livingplace": "Corcelles"}}, "location": "Cousset"}, "Groupe E Tour Fribourg #3, Kerzers": {"latitude": 46.97488999999999, "longitude": 7.1954365, "race": "Groupe E Tour Fribourg #3, Kerzers", "date": {"mer. 03.09.2014": {"year": 2014, "day": 3, "month": 9, "categories": {"H-Sen1": {"distance": 10, "rank": 8, "pace": 239000000000, "time": 2431.6}}, "weekday": "wednesday", "livingplace": "Corcelles"}}, "location": "Kerzers"}, "Kerzerslauf": {"latitude": 46.97488999999999, "longitude": 7.1954365, "race": "Kerzerslauf", "date": {"sam. 17.03.2012": {"year": 2012, "day": 17, "month": 3, "categories": {"15-M20": {"distance": 15, "rank": 107, "pace": 243000000000, "time": 3656.9}}, "weekday": "saturday", "livingplace": "Corcelles"}}, "location": "Kerzers"}, "Course de l'Escalade, Gen\u00e8ve": {"latitude": 46.2043907, "longitude": 6.1431577, "race": "Course de l'Escalade, Gen\u00e8ve", "date": {"sam. 03.12.2011": {"year": 2011, "day": 3, "month": 12, "categories": {"H-H2": {"distance": 7, "rank": 45, "pace": 231000000000, "time": 1681.5}}, "weekday": "saturday", "livingplace": "La Vue des Alpes"}}, "location": "Gen\u00e8ve"}, "BCN Tour Fontaine Cernier": {"latitude": 47.0624261, "longitude": 6.9175754, "race": "BCN Tour Fontaine Cernier", "date": {"mer. 27.04.2011": {"year": 2011, "day": 27, "month": 4, "categories": {"HS1": {"distance": 10, "rank": 41, "pace": 249000000000, "time": 2573.2}}, "weekday": "wednesday", "livingplace": "Les Loges"}}, "location": "Ch\u00e9zard-St-Martin"}, "Groupe E Tour Fribourg #3 Estavayer-le-Lac": {"latitude": 46.97488999999999, "longitude": 7.1954365, "race": "Groupe E Tour Fribourg #3 Estavayer-le-Lac", "date": {"mer. 12.09.2012": {"year": 2012, "day": 12, "month": 9, "categories": {"HS1": {"distance": 10, "rank": 9, "pace": 229000000000, "time": 2260.3}}, "weekday": "wednesday", "livingplace": "Corcelles"}}, "location": "Kerzers"}, "Groupe E Tour Fribourg #4 Montagny": {"latitude": 46.6585092, "longitude": 6.877722, "race": "Groupe E Tour Fribourg #4 Montagny", "date": {"mer. 11.09.2013": {"year": 2013, "day": 11, "month": 9, "categories": {"HS1": {"distance": 10, "rank": 5, "pace": 231000000000, "time": 2273.2}}, "weekday": "wednesday", "livingplace": "Corcelles"}}, "location": "Siviriez"}, "BCN Tour #5 Colombier": {"latitude": 46.9262933, "longitude": 6.6324944, "race": "BCN Tour #5 Colombier", "date": {"mer. 22.05.2013": {"year": 2013, "day": 22, "month": 5, "categories": {"HS1": {"distance": 11, "rank": 21, "pace": 225000000000, "time": 2366.2}}, "weekday": "wednesday", "livingplace": "Corcelles"}}, "location": "Couvet"}, "Groupe E Tour Fribourg #4 Siviriez": {"latitude": 46.6585092, "longitude": 6.877722, "race": "Groupe E Tour Fribourg #4 Siviriez", "date": {"mer. 19.09.2012": {"year": 2012, "day": 19, "month": 9, "categories": {"HS1": {"distance": 9, "rank": 7, "pace": 245000000000, "time": 2308.9}}, "weekday": "wednesday", "livingplace": "Corcelles"}}, "location": "Siviriez"}, "Groupe E Tour Fribourg #1, Cousset": {"latitude": 46.81832, "longitude": 6.977279999999999, "race": "Groupe E Tour Fribourg #1, Cousset", "date": {"mer. 20.08.2014": {"year": 2014, "day": 20, "month": 8, "categories": {"H-Sen1": {"distance": 9, "rank": 9, "pace": 233000000000, "time": 2198.9}}, "weekday": "wednesday", "livingplace": "Corcelles"}}, "location": "Cousset"}, "Groupe E Tour Fribourg #2, Charmey": {"latitude": 46.6175845, "longitude": 7.1654493, "race": "Groupe E Tour Fribourg #2, Charmey", "date": {"mer. 27.08.2014": {"year": 2014, "day": 27, "month": 8, "categories": {"H-Sen1": {"distance": 10, "rank": 36, "pace": 301000000000, "time": 2907.5}}, "weekday": "wednesday", "livingplace": "Corcelles"}}, "location": "Charmey (Gruy\u00e8re)"}, "Groupe E Tour Fribourg #5 Fribourg": {"latitude": 46.8128615, "longitude": 7.131657799999999, "race": "Groupe E Tour Fribourg #5 Fribourg", "date": {"mer. 26.09.2012": {"year": 2012, "day": 26, "month": 9, "categories": {"HS1": {"distance": 11, "rank": 12, "pace": 241000000000, "time": 2588.9}}, "weekday": "wednesday", "livingplace": "Corcelles"}}, "location": "Givisiez"}, "Groupe E Tour Fribourg #3 Charmey": {"latitude": 46.97488999999999, "longitude": 7.1954365, "race": "Groupe E Tour Fribourg #3 Charmey", "date": {"mer. 04.09.2013": {"year": 2013, "day": 4, "month": 9, "categories": {"HS1": {"distance": 11, "rank": 6, "pace": 253000000000, "time": 2760.2}}, "weekday": "wednesday", "livingplace": "Corcelles"}}, "location": "Kerzers"}, "Groupe E Tour Fribourg #2 Plafayon": {"latitude": 46.6175845, "longitude": 7.1654493, "race": "Groupe E Tour Fribourg #2 Plafayon", "date": {"mer. 05.09.2012": {"year": 2012, "day": 5, "month": 9, "categories": {"HS1": {"distance": 9, "rank": 10, "pace": 230000000000, "time": 2154.4}}, "weekday": "wednesday", "livingplace": "Corcelles"}}, "location": "Charmey (Gruy\u00e8re)"}}, "birth": 1980}