{"name": "Diogo Marcio", "sex": "M", "races": {"Tour du Pays de Vaud printanier #2 Yverdon-les-Bains": {"latitude": 46.6698891, "longitude": 6.7975224, "race": "Tour du Pays de Vaud printanier #2 Yverdon-les-Bains", "date": {"mer. 11.06.2014": {"year": 2014, "day": 11, "month": 6, "categories": {"H-Hom": {"distance": 9, "rank": 54, "pace": 351000000000, "time": 3199.6}}, "weekday": "wednesday", "livingplace": "Preverenges"}}, "location": "Moudon"}, "20km de Lausanne": {"latitude": 46.5196535, "longitude": 6.6322734, "race": "20km de Lausanne", "date": {"sam. 25.04.2015": {"year": 2015, "day": 25, "month": 4, "categories": {"10-H20": {"distance": 10, "rank": 1004, "pace": 344000000000, "time": 3446.7}}, "weekday": "saturday", "livingplace": "Defi du vignoble"}, "sam. 26.04.2014": {"year": 2014, "day": 26, "month": 4, "categories": {"10-H20": {"distance": 10, "rank": 675, "pace": 332000000000, "time": 3329.4}}, "weekday": "saturday", "livingplace": "Preverenges"}}, "location": "Lausanne"}, "Tour du Pays de Vaud printanier #3 - Yens": {"latitude": 46.7829756, "longitude": 6.5728678, "race": "Tour du Pays de Vaud printanier #3 - Yens", "date": {"mer. 18.06.2014": {"year": 2014, "day": 18, "month": 6, "categories": {"H-Hom": {"distance": 9, "rank": 45, "pace": 310000000000, "time": 2821.6}}, "weekday": "wednesday", "livingplace": "Preverenges"}}, "location": "Champvent"}, "Les Traine-Savates, Cheseaux-sur-Lausanne": {"latitude": 46.585452, "longitude": 6.6047712, "race": "Les Traine-Savates, Cheseaux-sur-Lausanne", "date": {"sam. 18.04.2015": {"year": 2015, "day": 18, "month": 4, "categories": {"10-M20": {"distance": 10, "rank": 270, "pace": 351000000000, "time": 3622.1}}, "weekday": "saturday", "livingplace": "Preverenges"}, "sam. 12.04.2014": {"year": 2014, "day": 12, "month": 4, "categories": {"10-M20": {"distance": 10, "rank": 213, "pace": 312000000000, "time": 3221.4}}, "weekday": "saturday", "livingplace": "Preverenges"}}, "location": "Cheseaux-sur-Lausanne"}, "Tour du Pays de Vaud printanier #1 Moudon": {"latitude": 46.3832683, "longitude": 6.2347852, "race": "Tour du Pays de Vaud printanier #1 Moudon", "date": {"mer. 04.06.2014": {"year": 2014, "day": 4, "month": 6, "categories": {"H-Hom": {"distance": 8, "rank": 48, "pace": 315000000000, "time": 2647.5}}, "weekday": "wednesday", "livingplace": "Preverenges"}}, "location": "Nyon"}}, "birth": 1989}