{"name": "Divoux Jean-Noel", "sex": "M", "races": {"BCN Tour Couvet": {"latitude": 47.0624261, "longitude": 6.9175754, "race": "BCN Tour Couvet", "date": {"mer. 02.05.2012": {"year": 2012, "day": 2, "month": 5, "categories": {"HS2": {"distance": 11, "rank": 132, "pace": 311000000000, "time": 3471.5}}, "weekday": "wednesday", "livingplace": "La Chaux de Fonds"}}, "location": "Ch\u00e9zard-St-Martin"}, "BCN Tour M\u00f4tier": {"latitude": 46.9262933, "longitude": 6.6324944, "race": "BCN Tour M\u00f4tier", "date": {"mer. 19.05.2010": {"year": 2010, "day": 19, "month": 5, "categories": {"HS2": {"distance": 10, "rank": 137, "pace": 290000000000, "time": 2878.9}}, "weekday": "wednesday", "livingplace": "La Chaux de Fonds"}}, "location": "Couvet"}, "La Trotteuse-Tissot, La Chaux-de-Fonds": {"latitude": 47.1034892, "longitude": 6.832783800000001, "race": "La Trotteuse-Tissot, La Chaux-de-Fonds", "date": {"sam. 14.12.2013": {"year": 2013, "day": 14, "month": 12, "categories": {"GC-H40": {"distance": 8, "rank": 53, "pace": 274000000000, "time": 2196.4}}, "weekday": "saturday", "livingplace": "Fontaines"}, "sam. 17.12.2011": {"year": 2011, "day": 17, "month": 12, "categories": {"GC-H40": {"distance": 8, "rank": 57, "pace": 291000000000, "time": 2330.8}}, "weekday": "saturday", "livingplace": "La Chaux de Fonds"}, "sam. 08.12.2012": {"year": 2012, "day": 8, "month": 12, "categories": {"GC-H40": {"distance": 8, "rank": 74, "pace": 308000000000, "time": 2468.6}}, "weekday": "saturday", "livingplace": "Fontaines"}}, "location": "La Chaux-de-Fonds"}, "BCN Tour Fontaine Cernier": {"latitude": 47.0624261, "longitude": 6.9175754, "race": "BCN Tour Fontaine Cernier", "date": {"mer. 27.04.2011": {"year": 2011, "day": 27, "month": 4, "categories": {"HS2": {"distance": 10, "rank": 148, "pace": 294000000000, "time": 3030.4}}, "weekday": "wednesday", "livingplace": "La Chaux de Fonds"}}, "location": "Ch\u00e9zard-St-Martin"}, "BCN Tour Le Landeron": {"latitude": 46.9668714, "longitude": 6.8589727, "race": "BCN Tour Le Landeron", "date": {"mer. 22.04.2009": {"year": 2009, "day": 22, "month": 4, "categories": {"HS2": {"distance": 11, "rank": 166, "pace": 322000000000, "time": 3581.9}}, "weekday": "wednesday", "livingplace": "La Chaux de Fonds"}}, "location": "Colombier NE"}, "BCN Tour #2 La Chaux-de-Fonds": {"latitude": 47.0624261, "longitude": 6.9175754, "race": "BCN Tour #2 La Chaux-de-Fonds", "date": {"mer. 01.05.2013": {"year": 2013, "day": 1, "month": 5, "categories": {"HS2": {"distance": 11, "rank": 143, "pace": 289000000000, "time": 3096.5}}, "weekday": "wednesday", "livingplace": "Fontaines"}}, "location": "Ch\u00e9zard-St-Martin"}, "BCN Tour Neuch\u00e2tel": {"latitude": 46.9899874, "longitude": 6.9292732, "race": "BCN Tour Neuch\u00e2tel", "date": {"mer. 26.05.2010": {"year": 2010, "day": 26, "month": 5, "categories": {"HS2": {"distance": 10, "rank": 72, "pace": 299000000000, "time": 2903.0}}, "weekday": "wednesday", "livingplace": "La Chaux de Fonds"}, "mer. 30.05.2012": {"year": 2012, "day": 30, "month": 5, "categories": {"HS2": {"distance": 11, "rank": 116, "pace": 308000000000, "time": 3460.1}}, "weekday": "wednesday", "livingplace": "La Chaux de Fonds"}, "mer. 25.05.2011": {"year": 2011, "day": 25, "month": 5, "categories": {"HS2": {"distance": 11, "rank": 118, "pace": 307000000000, "time": 3507.2}}, "weekday": "wednesday", "livingplace": "La Chaux de Fonds"}}, "location": "Neuch\u00e2tel"}, "BCN Tour Auvernier": {"latitude": 46.9668714, "longitude": 6.8589727, "race": "BCN Tour Auvernier", "date": {"mer. 20.04.2011": {"year": 2011, "day": 20, "month": 4, "categories": {"HS2": {"distance": 11, "rank": 143, "pace": 314000000000, "time": 3399.2}}, "weekday": "wednesday", "livingplace": "La Chaux de Fonds"}}, "location": "Colombier NE"}, "BCN Tour Cornaux": {"latitude": 46.9668714, "longitude": 6.8589727, "race": "BCN Tour Cornaux", "date": {"mer. 25.04.2012": {"year": 2012, "day": 25, "month": 4, "categories": {"HS2": {"distance": 11, "rank": 171, "pace": 350000000000, "time": 3857.0}}, "weekday": "wednesday", "livingplace": "La Chaux de Fonds"}}, "location": "Colombier NE"}, "BCN Tour Les Ponts-de-Martel": {"latitude": 46.999113, "longitude": 6.733554799999999, "race": "BCN Tour Les Ponts-de-Martel", "date": {"mer. 09.05.2012": {"year": 2012, "day": 9, "month": 5, "categories": {"HS2": {"distance": 10, "rank": 119, "pace": 302000000000, "time": 3116.4}}, "weekday": "wednesday", "livingplace": "La Chaux de Fonds"}}, "location": "Les Ponts-de-Martel"}, "BCN Tour La Chaux-de-Fonds": {"latitude": 47.1034892, "longitude": 6.832783800000001, "race": "BCN Tour La Chaux-de-Fonds", "date": {"mer. 23.05.2012": {"year": 2012, "day": 23, "month": 5, "categories": {"HS2": {"distance": 11, "rank": 113, "pace": 295000000000, "time": 3192.5}}, "weekday": "wednesday", "livingplace": "La Chaux de Fonds"}, "mer. 11.05.2011": {"year": 2011, "day": 11, "month": 5, "categories": {"HS2": {"distance": 11, "rank": 143, "pace": 347000000000, "time": 3720.1}}, "weekday": "wednesday", "livingplace": "La Chaux de Fonds"}}, "location": "La Chaux-de-Fonds"}, "BCN Tour #6 Neuch\u00e2tel": {"latitude": 46.9899874, "longitude": 6.9292732, "race": "BCN Tour #6 Neuch\u00e2tel", "date": {"mer. 29.05.2013": {"year": 2013, "day": 29, "month": 5, "categories": {"HS2": {"distance": 11, "rank": 126, "pace": 304000000000, "time": 3344.7}}, "weekday": "wednesday", "livingplace": "Fontaines"}}, "location": "Neuch\u00e2tel"}, "BCN Tour La Br\u00e9vine": {"latitude": 46.999113, "longitude": 6.733554799999999, "race": "BCN Tour La Br\u00e9vine", "date": {"mer. 04.05.2011": {"year": 2011, "day": 4, "month": 5, "categories": {"HS2": {"distance": 10, "rank": 133, "pace": 306000000000, "time": 3068.9}}, "weekday": "wednesday", "livingplace": "La Chaux de Fonds"}}, "location": "Les Ponts-de-Martel"}, "BCN Tour Ponts-de-Martel": {"latitude": 47.0624261, "longitude": 6.9175754, "race": "BCN Tour Ponts-de-Martel", "date": {"mer. 28.04.2010": {"year": 2010, "day": 28, "month": 4, "categories": {"HS2": {"distance": 11, "rank": 129, "pace": 303000000000, "time": 3404.0}}, "weekday": "wednesday", "livingplace": "La Chaux de Fonds"}}, "location": "Ch\u00e9zard-St-Martin"}, "BCN Tour Les Ponts de Martel": {"latitude": 46.9262933, "longitude": 6.6324944, "race": "BCN Tour Les Ponts de Martel", "date": {"mer. 18.05.2011": {"year": 2011, "day": 18, "month": 5, "categories": {"HS2": {"distance": 13, "rank": 89, "pace": 291000000000, "time": 3725.1}}, "weekday": "wednesday", "livingplace": "La Chaux de Fonds"}}, "location": "Couvet"}, "BCN Tour #5 Colombier": {"latitude": 46.9262933, "longitude": 6.6324944, "race": "BCN Tour #5 Colombier", "date": {"mer. 22.05.2013": {"year": 2013, "day": 22, "month": 5, "categories": {"HS2": {"distance": 11, "rank": 153, "pace": 276000000000, "time": 2903.0}}, "weekday": "wednesday", "livingplace": "Fontaines"}}, "location": "Couvet"}, "BCN Tour #1 Corcelles": {"latitude": 46.9668714, "longitude": 6.8589727, "race": "BCN Tour #1 Corcelles", "date": {"mer. 24.04.2013": {"year": 2013, "day": 24, "month": 4, "categories": {"HS2": {"distance": 10, "rank": 117, "pace": 289000000000, "time": 2839.9}}, "weekday": "wednesday", "livingplace": "Fontaines"}}, "location": "Colombier NE"}, "BCN Tour La Chaux-de-fonds": {"latitude": 47.1034892, "longitude": 6.832783800000001, "race": "BCN Tour La Chaux-de-fonds", "date": {"mer. 12.05.2010": {"year": 2010, "day": 12, "month": 5, "categories": {"HS2": {"distance": 11, "rank": 145, "pace": 379000000000, "time": 4058.8}}, "weekday": "wednesday", "livingplace": "La Chaux de Fonds"}}, "location": "La Chaux-de-Fonds"}, "BCN Tour Colombier": {"latitude": 46.9668714, "longitude": 6.8589727, "race": "BCN Tour Colombier", "date": {"mer. 16.05.2012": {"year": 2012, "day": 16, "month": 5, "categories": {"HS2": {"distance": 11, "rank": 129, "pace": 293000000000, "time": 3168.0}}, "weekday": "wednesday", "livingplace": "La Chaux de Fonds"}, "mer. 23.04.2008": {"year": 2008, "day": 23, "month": 4, "categories": {"HS1": {"distance": 10, "rank": 65, "pace": 278000000000, "time": 2845.3}}, "weekday": "wednesday", "livingplace": "La Chaux de Fonds"}, "mer. 21.04.2010": {"year": 2010, "day": 21, "month": 4, "categories": {"HS2": {"distance": 10, "rank": 150, "pace": 334000000000, "time": 3346.7}}, "weekday": "wednesday", "livingplace": "La Chaux de Fonds"}}, "location": "Colombier NE"}, "BCN Tour #3 Dombresson": {"latitude": 46.999113, "longitude": 6.733554799999999, "race": "BCN Tour #3 Dombresson", "date": {"mer. 08.05.2013": {"year": 2013, "day": 8, "month": 5, "categories": {"HS2": {"distance": 10, "rank": 138, "pace": 286000000000, "time": 2839.6}}, "weekday": "wednesday", "livingplace": "Fontaines"}}, "location": "Les Ponts-de-Martel"}}, "birth": 1969}