{"name": "Divorne Didier", "sex": "M", "races": {"Tour du Pays de Vaud #2 - Genolier": {"latitude": 46.5955273, "longitude": 6.7702883, "race": "Tour du Pays de Vaud #2 - Genolier", "date": {"mer. 18.08.2010": {"year": 2010, "day": 18, "month": 8, "categories": {"HSen2": {"distance": 8, "rank": 123, "pace": 320000000000, "time": 2596.8}}, "weekday": "wednesday", "livingplace": "Renens"}}, "location": "M\u00e9zi\u00e8res VD"}, "Tour du pays de Vaud #1 \u2013 St  Prex": {"latitude": 46.7784736, "longitude": 6.641183, "race": "Tour du pays de Vaud #1 \u2013 St  Prex", "date": {"mer. 11.08.2010": {"year": 2010, "day": 11, "month": 8, "categories": {"HSen2": {"distance": 8, "rank": 105, "pace": 317000000000, "time": 2664.6}}, "weekday": "wednesday", "livingplace": "Renens"}}, "location": "Yverdon-les-Bains"}, "Morat-Fribourg": {"latitude": 46.92922110000001, "longitude": 7.120184, "race": "Morat-Fribourg", "date": {"sam. 02.10.2010": {"year": 2010, "day": 2, "month": 10, "categories": {"17-M45": {"distance": 17, "rank": 479, "pace": 338000000000, "time": 5820.1}}, "weekday": "saturday", "livingplace": "Renens"}, "sam. 01.10.2011": {"year": 2011, "day": 1, "month": 10, "categories": {"17-M45": {"distance": 17, "rank": 582, "pace": 352000000000, "time": 6051.9}}, "weekday": "saturday", "livingplace": "Renens"}}, "location": "Murten"}, "Tour du pays de Vaud #1 - Mezi\u00e8res": {"latitude": 46.7784736, "longitude": 6.641183, "race": "Tour du pays de Vaud #1 - Mezi\u00e8res", "date": {"mer. 10.08.2011": {"year": 2011, "day": 10, "month": 8, "categories": {"H-Sen2": {"distance": 9, "rank": 139, "pace": 308000000000, "time": 2625.8}}, "weekday": "wednesday", "livingplace": "Renens"}}, "location": "Yverdon-les-Bains"}, "Lausanne Marathon": {"latitude": 46.5196535, "longitude": 6.6322734, "race": "Lausanne Marathon", "date": {"dim. 31.10.2010": {"year": 2010, "day": 31, "month": 10, "categories": {"21-H3": {"distance": 21, "rank": 633, "pace": 325000000000, "time": 6878.0}}, "weekday": "sunday", "livingplace": "Renens"}, "dim. 30.10.2011": {"year": 2011, "day": 30, "month": 10, "categories": {"21-H3": {"distance": 21, "rank": 756, "pace": 344000000000, "time": 7270.2}}, "weekday": "sunday", "livingplace": "Renens"}}, "location": "Lausanne"}, "20km de Lausanne": {"latitude": 46.5196535, "longitude": 6.6322734, "race": "20km de Lausanne", "date": {"sam. 24.04.2010": {"year": 2010, "day": 24, "month": 4, "categories": {"10-H45": {"distance": 10, "rank": 287, "pace": 360000000000, "time": 3605.1}}, "weekday": "saturday", "livingplace": "Renens"}}, "location": "Lausanne"}, "Tour du Pays de Vaud #5 - La Sarraz": {"latitude": 46.5993131, "longitude": 6.539251200000001, "race": "Tour du Pays de Vaud #5 - La Sarraz", "date": {"mer. 08.09.2010": {"year": 2010, "day": 8, "month": 9, "categories": {"HSen2": {"distance": 9, "rank": 116, "pace": 322000000000, "time": 2933.1}}, "weekday": "wednesday", "livingplace": "Renens"}}, "location": "Penthaz"}}, "birth": 1964}