{"name": "Docourt Laurentin", "sex": "M", "races": {"BCN Tour #4 Fleurier": {"latitude": 47.1034892, "longitude": 6.832783800000001, "race": "BCN Tour #4 Fleurier", "date": {"mer. 15.05.2013": {"year": 2013, "day": 15, "month": 5, "categories": {"HJ": {"distance": 9, "rank": 27, "pace": 274000000000, "time": 2377.5}}, "weekday": "wednesday", "livingplace": "Courtelary"}}, "location": "La Chaux-de-Fonds"}, "BCN Tour #6 Neuch\u00e2tel": {"latitude": 46.9899874, "longitude": 6.9292732, "race": "BCN Tour #6 Neuch\u00e2tel", "date": {"mer. 29.05.2013": {"year": 2013, "day": 29, "month": 5, "categories": {"HJ": {"distance": 11, "rank": 30, "pace": 287000000000, "time": 3165.6}}, "weekday": "wednesday", "livingplace": "Courtelary"}}, "location": "Neuch\u00e2tel"}, "Bieler Lauftage, Biel Bienne": {"latitude": 47.1367785, "longitude": 7.2467909, "race": "Bieler Lauftage, Biel Bienne", "date": {"jeu. 11.06.2015": {"year": 2015, "day": 11, "month": 6, "categories": {"H-M20": {"distance": 21, "rank": 10, "pace": 279000000000, "time": 5895.7}}, "weekday": "thursday", "livingplace": "Courtelary"}}, "location": "Biel/Bienne"}, "BCN Tour #5 Colombier": {"latitude": 46.9262933, "longitude": 6.6324944, "race": "BCN Tour #5 Colombier", "date": {"mer. 22.05.2013": {"year": 2013, "day": 22, "month": 5, "categories": {"HJ": {"distance": 11, "rank": 33, "pace": 257000000000, "time": 2708.3}}, "weekday": "wednesday", "livingplace": "Courtelary"}}, "location": "Couvet"}, "BCN Tour #1 Corcelles": {"latitude": 46.9668714, "longitude": 6.8589727, "race": "BCN Tour #1 Corcelles", "date": {"mer. 24.04.2013": {"year": 2013, "day": 24, "month": 4, "categories": {"HJ": {"distance": 10, "rank": 25, "pace": 284000000000, "time": 2786.0}}, "weekday": "wednesday", "livingplace": "Courtelary"}}, "location": "Colombier NE"}, "BCN Tour #3 Dombresson": {"latitude": 46.999113, "longitude": 6.733554799999999, "race": "BCN Tour #3 Dombresson", "date": {"mer. 08.05.2013": {"year": 2013, "day": 8, "month": 5, "categories": {"HJ": {"distance": 10, "rank": 40, "pace": 280000000000, "time": 2778.0}}, "weekday": "wednesday", "livingplace": "Courtelary"}}, "location": "Les Ponts-de-Martel"}, "BCN Tour #2 La Chaux-de-Fonds": {"latitude": 47.0624261, "longitude": 6.9175754, "race": "BCN Tour #2 La Chaux-de-Fonds", "date": {"mer. 01.05.2013": {"year": 2013, "day": 1, "month": 5, "categories": {"HJ": {"distance": 11, "rank": 35, "pace": 284000000000, "time": 3045.3}}, "weekday": "wednesday", "livingplace": "Courtelary"}}, "location": "Ch\u00e9zard-St-Martin"}}, "birth": 1995}