{"name": "Doleyres Yann", "sex": "M", "races": {"Tour du Pays de Vaud printanier #2 Yverdon-les-Bains": {"latitude": 46.6698891, "longitude": 6.7975224, "race": "Tour du Pays de Vaud printanier #2 Yverdon-les-Bains", "date": {"mer. 11.06.2014": {"year": 2014, "day": 11, "month": 6, "categories": {"H-Sen1": {"distance": 9, "rank": 75, "pace": 335000000000, "time": 3052.4}}, "weekday": "wednesday", "livingplace": "Fiez"}}, "location": "Moudon"}, "Tour du Pays de Vaud #4, La Sarraz": {"latitude": 46.7088129, "longitude": 6.5707689, "race": "Tour du Pays de Vaud #4, La Sarraz", "date": {"mer. 03.09.2014": {"year": 2014, "day": 3, "month": 9, "categories": {"H-Sen1": {"distance": 9, "rank": 111, "pace": 310000000000, "time": 2635.9}}, "weekday": "wednesday", "livingplace": "Fiez"}}, "location": "Chavornay"}, "Morat-Fribourg": {"latitude": 46.92922110000001, "longitude": 7.120184, "race": "Morat-Fribourg", "date": {"sam. 03.10.2015": {"year": 2015, "day": 3, "month": 10, "categories": {"17-M40": {"distance": 17, "rank": 504, "pace": 335000000000, "time": 5764.1}}, "weekday": "saturday", "livingplace": "Fiez"}, "sam. 04.10.2014": {"year": 2014, "day": 4, "month": 10, "categories": {"17-M20": {"distance": 17, "rank": 1990, "pace": 365000000000, "time": 6271.9}}, "weekday": "saturday", "livingplace": "Fiez"}}, "location": "Murten"}, "Semi-Marathon de la C\u00f4te, Allaman-Nyon": {"latitude": 46.3832683, "longitude": 6.2347852, "race": "Semi-Marathon de la C\u00f4te, Allaman-Nyon", "date": {"dim. 14.09.2014": {"year": 2014, "day": 14, "month": 9, "categories": {"21-H30": {"distance": 21, "rank": 190, "pace": 331000000000, "time": 6987.2}}, "weekday": "sunday", "livingplace": "Fiez"}}, "location": "Nyon"}, "Lausanne Marathon": {"latitude": 46.5196535, "longitude": 6.6322734, "race": "Lausanne Marathon", "date": {"sam. 24.10.2015": {"year": 2015, "day": 24, "month": 10, "categories": {"42-H40": {"distance": 42, "rank": 302, "pace": 401000000000, "time": 16930.6}}, "weekday": "saturday", "livingplace": "Fiez"}}, "location": "Lausanne"}, "20km de Lausanne": {"latitude": 46.5196535, "longitude": 6.6322734, "race": "20km de Lausanne", "date": {"sam. 26.04.2014": {"year": 2014, "day": 26, "month": 4, "categories": {"20-H30": {"distance": 20, "rank": 806, "pace": 365000000000, "time": 7304.1}}, "weekday": "saturday", "livingplace": "Fiez"}}, "location": "Lausanne"}, "Les Traine-Savates, Cheseaux-sur-Lausanne": {"latitude": 46.585452, "longitude": 6.6047712, "race": "Les Traine-Savates, Cheseaux-sur-Lausanne", "date": {"sam. 12.04.2014": {"year": 2014, "day": 12, "month": 4, "categories": {"10-M20": {"distance": 10, "rank": 227, "pace": 318000000000, "time": 3283.3}}, "weekday": "saturday", "livingplace": "Fiez"}}, "location": "Cheseaux-sur-Lausanne"}, "Tour du Pays de Vaud #3, Chavornay": {"latitude": 46.7784736, "longitude": 6.641183, "race": "Tour du Pays de Vaud #3, Chavornay", "date": {"mer. 27.08.2014": {"year": 2014, "day": 27, "month": 8, "categories": {"H-Sen1": {"distance": 9, "rank": 121, "pace": 338000000000, "time": 2912.7}}, "weekday": "wednesday", "livingplace": "Fiez"}}, "location": "Yverdon-les-Bains"}, "Kerzerslauf": {"latitude": 46.97488999999999, "longitude": 7.1954365, "race": "Kerzerslauf", "date": {"sam. 21.03.2015": {"year": 2015, "day": 21, "month": 3, "categories": {"15-M40": {"distance": 15, "rank": 395, "pace": 312000000000, "time": 4688.6}}, "weekday": "saturday", "livingplace": "Fiez"}}, "location": "Kerzers"}}, "birth": 1975}