{"name": "Dond\u00e9naz Alain", "sex": "M", "races": {"Tour du Chablais #1 Roche": {"latitude": 46.2957462, "longitude": 6.9916269, "race": "Tour du Chablais #1 Roche", "date": {"mer. 07.04.2010": {"year": 2010, "day": 7, "month": 4, "categories": {"M-M50": {"distance": 9, "rank": 33, "pace": 279000000000, "time": 2505.2}}, "weekday": "wednesday", "livingplace": "Aigle"}}, "location": "Ollon VD"}, "Tour du Chablais #2 Rennaz": {"latitude": 46.3835529, "longitude": 6.854975199999999, "race": "Tour du Chablais #2 Rennaz", "date": {"mer. 04.05.2011": {"year": 2011, "day": 4, "month": 5, "categories": {"M-M50": {"distance": 9, "rank": 67, "pace": 300000000000, "time": 2806.3}}, "weekday": "wednesday", "livingplace": "Aigle"}}, "location": "Bouveret"}, "D\u00e9fi du vignoble, Cully": {"latitude": 45.565921, "longitude": -122.6066627, "race": "D\u00e9fi du vignoble, Cully", "date": {"mer. 14.05.2014": {"year": 2014, "day": 14, "month": 5, "categories": {"M50": {"distance": 4, "rank": 26, "pace": 596000000000, "time": 2172.2}}, "weekday": "wednesday", "livingplace": "Aigle"}}, "location": "Cully"}, "Morat-Fribourg": {"latitude": 46.92922110000001, "longitude": 7.120184, "race": "Morat-Fribourg", "date": {"sam. 04.10.2014": {"year": 2014, "day": 4, "month": 10, "categories": {"17-M55": {"distance": 17, "rank": 191, "pace": 338000000000, "time": 5814.2}}, "weekday": "saturday", "livingplace": "Aigle"}}, "location": "Murten"}, "Tour du Chablais #3 Le Bouveret": {"latitude": 46.1782231, "longitude": 7.0223787, "race": "Tour du Chablais #3 Le Bouveret", "date": {"mer. 11.05.2011": {"year": 2011, "day": 11, "month": 5, "categories": {"M-M50": {"distance": 10, "rank": 56, "pace": 295000000000, "time": 2956.9}}, "weekday": "wednesday", "livingplace": "Aigle"}}, "location": "Evionnaz"}, "20km de Lausanne": {"latitude": 46.5196535, "longitude": 6.6322734, "race": "20km de Lausanne", "date": {"sam. 30.04.2011": {"year": 2011, "day": 30, "month": 4, "categories": {"10-H50": {"distance": 10, "rank": 88, "pace": 300000000000, "time": 3005.9}}, "weekday": "saturday", "livingplace": "Aigle"}, "sam. 24.04.2010": {"year": 2010, "day": 24, "month": 4, "categories": {"20-H50": {"distance": 20, "rank": 103, "pace": 308000000000, "time": 6171.8}}, "weekday": "saturday", "livingplace": "Vaudoise Assurances"}, "sam. 27.04.2013": {"year": 2013, "day": 27, "month": 4, "categories": {"10-H55": {"distance": 10, "rank": 54, "pace": 309000000000, "time": 3094.3}}, "weekday": "saturday", "livingplace": "Aigle"}, "sam. 25.04.2015": {"year": 2015, "day": 25, "month": 4, "categories": {"20-H55": {"distance": 20, "rank": 78, "pace": 312000000000, "time": 6248.5}}, "weekday": "saturday", "livingplace": "Spiridon"}, "sam. 26.04.2014": {"year": 2014, "day": 26, "month": 4, "categories": {"20-H55": {"distance": 20, "rank": 73, "pace": 321000000000, "time": 6426.4}}, "weekday": "saturday", "livingplace": "Aigle"}}, "location": "Lausanne"}, "Tour du Chablais #1 Lavey": {"latitude": 46.2957462, "longitude": 6.9916269, "race": "Tour du Chablais #1 Lavey", "date": {"mer. 27.04.2011": {"year": 2011, "day": 27, "month": 4, "categories": {"M-M50": {"distance": 9, "rank": 65, "pace": 308000000000, "time": 2780.8}}, "weekday": "wednesday", "livingplace": "Aigle"}}, "location": "Ollon VD"}, "Tour du Chablais #2 Yvorne": {"latitude": 46.3835529, "longitude": 6.854975199999999, "race": "Tour du Chablais #2 Yvorne", "date": {"mer. 10.04.2013": {"year": 2013, "day": 10, "month": 4, "categories": {"M-M50": {"distance": 8, "rank": 45, "pace": 328000000000, "time": 2628.5}}, "weekday": "wednesday", "livingplace": "Aigle"}}, "location": "Bouveret"}, "Tour du Chablais #5 Leysin": {"latitude": 46.3603257, "longitude": 6.931504599999999, "race": "Tour du Chablais #5 Leysin", "date": {"mer. 05.05.2010": {"year": 2010, "day": 5, "month": 5, "categories": {"M-M50": {"distance": 8, "rank": 47, "pace": 331000000000, "time": 2801.0}}, "weekday": "wednesday", "livingplace": "Aigle"}}, "location": "Roche VD"}, "Tour du Chablais #5 Bex": {"latitude": 46.3603257, "longitude": 6.931504599999999, "race": "Tour du Chablais #5 Bex", "date": {"mer. 09.05.2012": {"year": 2012, "day": 9, "month": 5, "categories": {"M-M50": {"distance": 9, "rank": 43, "pace": 287000000000, "time": 2546.1}}, "weekday": "wednesday", "livingplace": "Aigle"}}, "location": "Roche VD"}, "Tour du Chablais #4 Champ\u00e9ry": {"latitude": NaN, "longitude": NaN, "race": "Tour du Chablais #4 Champ\u00e9ry", "date": {"mer. 02.05.2012": {"year": 2012, "day": 2, "month": 5, "categories": {"M-M50": {"distance": 8, "rank": 53, "pace": 296000000000, "time": 2459.9}}, "weekday": "wednesday", "livingplace": "Aigle"}}, "location": "Les Mosses"}, "Tour du Chablais #5 Les Mosses": {"latitude": 46.3603257, "longitude": 6.931504599999999, "race": "Tour du Chablais #5 Les Mosses", "date": {"mer. 25.05.2011": {"year": 2011, "day": 25, "month": 5, "categories": {"M-M50": {"distance": 8, "rank": 49, "pace": 329000000000, "time": 2634.8}}, "weekday": "wednesday", "livingplace": "Aigle"}}, "location": "Roche VD"}, "Lausanne Marathon": {"latitude": 46.5196535, "longitude": 6.6322734, "race": "Lausanne Marathon", "date": {"sam. 24.10.2015": {"year": 2015, "day": 24, "month": 10, "categories": {"21-H50": {"distance": 21, "rank": 207, "pace": 320000000000, "time": 6767.8}}, "weekday": "saturday", "livingplace": "Aigle"}, "dim. 26.10.2014": {"year": 2014, "day": 26, "month": 10, "categories": {"21-H50": {"distance": 21, "rank": 226, "pace": 315000000000, "time": 6655.3}}, "weekday": "sunday", "livingplace": "Aigle"}}, "location": "Lausanne"}, "Tour du Chablais #6 Aigle": {"latitude": 46.3190253, "longitude": 6.970566, "race": "Tour du Chablais #6 Aigle", "date": {"mer. 01.06.2011": {"year": 2011, "day": 1, "month": 6, "categories": {"M-M50": {"distance": 10, "rank": 50, "pace": 288000000000, "time": 2945.0}}, "weekday": "wednesday", "livingplace": "Aigle"}}, "location": "Aigle"}, "Tour du Chablais #4 St  Maurice": {"latitude": NaN, "longitude": NaN, "race": "Tour du Chablais #4 St  Maurice", "date": {"mer. 24.04.2013": {"year": 2013, "day": 24, "month": 4, "categories": {"M-M50": {"distance": 10, "rank": 38, "pace": 290000000000, "time": 2903.8}}, "weekday": "wednesday", "livingplace": "Aigle"}}, "location": "Les Mosses"}, "Kerzerslauf": {"latitude": 46.97488999999999, "longitude": 7.1954365, "race": "Kerzerslauf", "date": {"sam. 21.03.2015": {"year": 2015, "day": 21, "month": 3, "categories": {"15-M55": {"distance": 15, "rank": 204, "pace": 321000000000, "time": 4818.8}}, "weekday": "saturday", "livingplace": "Aigle"}, "sam. 15.03.2014": {"year": 2014, "day": 15, "month": 3, "categories": {"15-M55": {"distance": 15, "rank": 156, "pace": 305000000000, "time": 4588.6}}, "weekday": "saturday", "livingplace": "Aigle"}, "sam. 15.03.2008": {"year": 2008, "day": 15, "month": 3, "categories": {"15/M50": {"distance": 15, "rank": 206, "pace": 291000000000, "time": 4372.9}}, "weekday": "saturday", "livingplace": "Aigle"}}, "location": "Kerzers"}, "Course de l'Escalade, Gen\u00e8ve": {"latitude": 46.2043907, "longitude": 6.1431577, "race": "Course de l'Escalade, Gen\u00e8ve", "date": {"sam. 04.12.2010": {"year": 2010, "day": 4, "month": 12, "categories": {"H-H4": {"distance": 7, "rank": 501, "pace": 293000000000, "time": 2125.0}}, "weekday": "saturday", "livingplace": "Aigle"}}, "location": "Gen\u00e8ve"}, "Tour du Chablais #4 Morgins": {"latitude": NaN, "longitude": NaN, "race": "Tour du Chablais #4 Morgins", "date": {"mer. 18.05.2011": {"year": 2011, "day": 18, "month": 5, "categories": {"M-M50": {"distance": 8, "rank": 53, "pace": 316000000000, "time": 2639.9}}, "weekday": "wednesday", "livingplace": "Aigle"}}, "location": "Les Mosses"}, "Tour du Chablais #6 Mouthey": {"latitude": 46.3190253, "longitude": 6.970566, "race": "Tour du Chablais #6 Mouthey", "date": {"mer. 12.05.2010": {"year": 2010, "day": 12, "month": 5, "categories": {"M-M50": {"distance": 9, "rank": 50, "pace": 289000000000, "time": 2663.9}}, "weekday": "wednesday", "livingplace": "Aigle"}}, "location": "Aigle"}, "Montreux - Les Rochers de Naye": {"latitude": 46.4312213, "longitude": 6.9106799, "race": "Montreux - Les Rochers de Naye", "date": {"dim. 05.07.2015": {"year": 2015, "day": 5, "month": 7, "categories": {"M-HV\u00e9t2": {"distance": 19, "rank": 63, "pace": 601000000000, "time": 11309.0}}, "weekday": "sunday", "livingplace": "Aigle"}}, "location": "Montreux"}, "Tour du Chablais #2 St-Gingolph": {"latitude": 46.3835529, "longitude": 6.854975199999999, "race": "Tour du Chablais #2 St-Gingolph", "date": {"mer. 14.04.2010": {"year": 2010, "day": 14, "month": 4, "categories": {"M-M50": {"distance": 8, "rank": 43, "pace": 313000000000, "time": 2614.5}}, "weekday": "wednesday", "livingplace": "Aigle"}}, "location": "Bouveret"}, "Tour du Chablais #2 Bex": {"latitude": 46.3835529, "longitude": 6.854975199999999, "race": "Tour du Chablais #2 Bex", "date": {"mer. 18.04.2012": {"year": 2012, "day": 18, "month": 4, "categories": {"M-M50": {"distance": 8, "rank": 62, "pace": 314000000000, "time": 2516.1}}, "weekday": "wednesday", "livingplace": "Aigle"}}, "location": "Bouveret"}}, "birth": 1957}