{"name": "D\u00f6rfliger Claude", "sex": "M", "races": {"Kerzerslauf": {"latitude": 46.97488999999999, "longitude": 7.1954365, "race": "Kerzerslauf", "date": {"sam. 18.03.2000": {"year": 2000, "day": 18, "month": 3, "categories": {"M45": {"distance": 15, "rank": 33, "pace": 236000000000, "time": 3549.1}}, "weekday": "saturday", "livingplace": "Corcelles"}, "sam. 18.03.2006": {"year": 2006, "day": 18, "month": 3, "categories": {"M55": {"distance": 15, "rank": 3, "pace": 232000000000, "time": 3491.1}}, "weekday": "saturday", "livingplace": "Corcelles"}, "sam. 19.03.2005": {"year": 2005, "day": 19, "month": 3, "categories": {"M50": {"distance": 15, "rank": 5, "pace": 233000000000, "time": 3508.9}}, "weekday": "saturday", "livingplace": "Corcelles"}, "sam. 17.03.2007": {"year": 2007, "day": 17, "month": 3, "categories": {"M55": {"distance": 15, "rank": 7, "pace": 238000000000, "time": 3571.4}}, "weekday": "saturday", "livingplace": "Corcelles"}, "sam. 17.03.2001": {"year": 2001, "day": 17, "month": 3, "categories": {"M50": {"distance": 15, "rank": 9, "pace": 239000000000, "time": 3598.7}}, "weekday": "saturday", "livingplace": "Corcelles"}, "sam. 21.03.2015": {"year": 2015, "day": 21, "month": 3, "categories": {"15-M60": {"distance": 15, "rank": 5, "pace": 250000000000, "time": 3751.9}}, "weekday": "saturday", "livingplace": "Corcelles"}, "sam. 15.03.2014": {"year": 2014, "day": 15, "month": 3, "categories": {"15-M60": {"distance": 15, "rank": 4, "pace": 249000000000, "time": 3747.9}}, "weekday": "saturday", "livingplace": "Corcelles"}, "sam. 20.03.2004": {"year": 2004, "day": 20, "month": 3, "categories": {"M50": {"distance": 15, "rank": 4, "pace": 230000000000, "time": 3455.4}}, "weekday": "saturday", "livingplace": "Corcelles"}, "sam. 15.03.2008": {"year": 2008, "day": 15, "month": 3, "categories": {"15/M55": {"distance": 15, "rank": 6, "pace": 239000000000, "time": 3586.0}}, "weekday": "saturday", "livingplace": "Corcelles"}, "sam. 16.03.2013": {"year": 2013, "day": 16, "month": 3, "categories": {"15-M60": {"distance": 15, "rank": 4, "pace": 251000000000, "time": 3774.0}}, "weekday": "saturday", "livingplace": "Corcelles"}}, "location": "Kerzers"}, "BCN Tour #1 Corcelles": {"latitude": 46.9668714, "longitude": 6.8589727, "race": "BCN Tour #1 Corcelles", "date": {"mer. 24.04.2013": {"year": 2013, "day": 24, "month": 4, "categories": {"HV2": {"distance": 10, "rank": 2, "pace": 254000000000, "time": 2493.1}}, "weekday": "wednesday", "livingplace": "Corcelles"}}, "location": "Colombier NE"}, "BCN Tour La Br\u00e9vine": {"latitude": 46.999113, "longitude": 6.733554799999999, "race": "BCN Tour La Br\u00e9vine", "date": {"mer. 04.05.2011": {"year": 2011, "day": 4, "month": 5, "categories": {"HV2": {"distance": 10, "rank": 1, "pace": 264000000000, "time": 2647.8}}, "weekday": "wednesday", "livingplace": "Corcelles"}}, "location": "Les Ponts-de-Martel"}, "BCN Tour Fontaine Cernier": {"latitude": 47.0624261, "longitude": 6.9175754, "race": "BCN Tour Fontaine Cernier", "date": {"mer. 27.04.2011": {"year": 2011, "day": 27, "month": 4, "categories": {"HV2": {"distance": 10, "rank": 1, "pace": 245000000000, "time": 2526.2}}, "weekday": "wednesday", "livingplace": "Corcelles"}}, "location": "Ch\u00e9zard-St-Martin"}, "BCN Tour Couvet": {"latitude": 47.0624261, "longitude": 6.9175754, "race": "BCN Tour Couvet", "date": {"mer. 02.05.2012": {"year": 2012, "day": 2, "month": 5, "categories": {"HV2": {"distance": 11, "rank": 3, "pace": 265000000000, "time": 2957.3}}, "weekday": "wednesday", "livingplace": "Corcelles"}}, "location": "Ch\u00e9zard-St-Martin"}, "BCN Tour Auvernier": {"latitude": 46.9668714, "longitude": 6.8589727, "race": "BCN Tour Auvernier", "date": {"mer. 20.04.2011": {"year": 2011, "day": 20, "month": 4, "categories": {"HV2": {"distance": 11, "rank": 1, "pace": 256000000000, "time": 2766.2}}, "weekday": "wednesday", "livingplace": "Corcelles"}}, "location": "Colombier NE"}, "BCN Tour #4 Fleurier": {"latitude": 47.1034892, "longitude": 6.832783800000001, "race": "BCN Tour #4 Fleurier", "date": {"mer. 15.05.2013": {"year": 2013, "day": 15, "month": 5, "categories": {"HV2": {"distance": 9, "rank": 2, "pace": 253000000000, "time": 2191.8}}, "weekday": "wednesday", "livingplace": "Corcelles"}}, "location": "La Chaux-de-Fonds"}, "BCN Tour Colombier": {"latitude": 47.1034892, "longitude": 6.832783800000001, "race": "BCN Tour Colombier", "date": {"mer. 16.05.2012": {"year": 2012, "day": 16, "month": 5, "categories": {"HV2": {"distance": 11, "rank": 3, "pace": 254000000000, "time": 2745.4}}, "weekday": "wednesday", "livingplace": "Corcelles"}}, "location": "La Chaux-de-Fonds"}, "BCN Tour #2 La Chaux-de-Fonds": {"latitude": 47.0624261, "longitude": 6.9175754, "race": "BCN Tour #2 La Chaux-de-Fonds", "date": {"mer. 01.05.2013": {"year": 2013, "day": 1, "month": 5, "categories": {"HV2": {"distance": 11, "rank": 2, "pace": 252000000000, "time": 2703.3}}, "weekday": "wednesday", "livingplace": "Corcelles"}}, "location": "Ch\u00e9zard-St-Martin"}, "BCN Tour La Chaux-de-Fonds": {"latitude": 47.1034892, "longitude": 6.832783800000001, "race": "BCN Tour La Chaux-de-Fonds", "date": {"mer. 23.05.2012": {"year": 2012, "day": 23, "month": 5, "categories": {"HV2": {"distance": 11, "rank": 2, "pace": 258000000000, "time": 2790.8}}, "weekday": "wednesday", "livingplace": "Corcelles"}, "mer. 11.05.2011": {"year": 2011, "day": 11, "month": 5, "categories": {"HV2": {"distance": 11, "rank": 1, "pace": 296000000000, "time": 3168.1}}, "weekday": "wednesday", "livingplace": "Corcelles"}}, "location": "La Chaux-de-Fonds"}, "BCN Tour #6 Neuch\u00e2tel": {"latitude": 46.9899874, "longitude": 6.9292732, "race": "BCN Tour #6 Neuch\u00e2tel", "date": {"mer. 29.05.2013": {"year": 2013, "day": 29, "month": 5, "categories": {"HV2": {"distance": 11, "rank": 2, "pace": 265000000000, "time": 2922.1}}, "weekday": "wednesday", "livingplace": "Corcelles"}}, "location": "Neuch\u00e2tel"}, "BCN Tour Les Ponts-de-Martel": {"latitude": 46.999113, "longitude": 6.733554799999999, "race": "BCN Tour Les Ponts-de-Martel", "date": {"mer. 09.05.2012": {"year": 2012, "day": 9, "month": 5, "categories": {"HV2": {"distance": 10, "rank": 3, "pace": 262000000000, "time": 2704.1}}, "weekday": "wednesday", "livingplace": "Corcelles"}}, "location": "Les Ponts-de-Martel"}, "BCN Tour Neuch\u00e2tel": {"latitude": 46.9899874, "longitude": 6.9292732, "race": "BCN Tour Neuch\u00e2tel", "date": {"mer. 30.05.2012": {"year": 2012, "day": 30, "month": 5, "categories": {"HV2": {"distance": 11, "rank": 3, "pace": 270000000000, "time": 3024.0}}, "weekday": "wednesday", "livingplace": "Corcelles"}, "mer. 25.05.2011": {"year": 2011, "day": 25, "month": 5, "categories": {"HV2": {"distance": 11, "rank": 1, "pace": 267000000000, "time": 3047.8}}, "weekday": "wednesday", "livingplace": "Corcelles"}}, "location": "Neuch\u00e2tel"}, "BCN Tour Les Ponts de Martel": {"latitude": 46.9262933, "longitude": 6.6324944, "race": "BCN Tour Les Ponts de Martel", "date": {"mer. 18.05.2011": {"year": 2011, "day": 18, "month": 5, "categories": {"HV2": {"distance": 13, "rank": 1, "pace": 266000000000, "time": 3409.1}}, "weekday": "wednesday", "livingplace": "Corcelles"}}, "location": "Couvet"}, "BCN Tour #5 Colombier": {"latitude": 46.9262933, "longitude": 6.6324944, "race": "BCN Tour #5 Colombier", "date": {"mer. 22.05.2013": {"year": 2013, "day": 22, "month": 5, "categories": {"HV2": {"distance": 11, "rank": 2, "pace": 241000000000, "time": 2533.2}}, "weekday": "wednesday", "livingplace": "Corcelles"}}, "location": "Couvet"}, "Z\u00fcrich Marathon, Teamrun und Cityrun": {"latitude": 47.3768866, "longitude": 8.541694, "race": "Z\u00fcrich Marathon, Teamrun und Cityrun", "date": {"dim. 13.04.2003": {"year": 2003, "day": 13, "month": 4, "categories": {"M50": {"distance": 42, "rank": 10, "pace": 261000000000, "time": 11025.7}}, "weekday": "sunday", "livingplace": "Corcelles"}, "dim. 04.04.2004": {"year": 2004, "day": 4, "month": 4, "categories": {"M50": {"distance": 42, "rank": 10, "pace": 250000000000, "time": 10568.6}}, "weekday": "sunday", "livingplace": "Corcelles"}}, "location": "Z\u00fcrich"}, "BCN Tour Cornaux": {"latitude": 46.9668714, "longitude": 6.8589727, "race": "BCN Tour Cornaux", "date": {"mer. 25.04.2012": {"year": 2012, "day": 25, "month": 4, "categories": {"HV2": {"distance": 11, "rank": 3, "pace": 284000000000, "time": 3132.3}}, "weekday": "wednesday", "livingplace": "Corcelles"}}, "location": "Colombier NE"}, "BCN Tour #3 Dombresson": {"latitude": 46.999113, "longitude": 6.733554799999999, "race": "BCN Tour #3 Dombresson", "date": {"mer. 08.05.2013": {"year": 2013, "day": 8, "month": 5, "categories": {"HV2": {"distance": 10, "rank": 2, "pace": 250000000000, "time": 2476.3}}, "weekday": "wednesday", "livingplace": "Corcelles"}}, "location": "Les Ponts-de-Martel"}}, "birth": 1951}