{"name": "Dorthe Piere-Alain", "sex": "M", "races": {"Groupe E Tour Fribourg #3 Charmey": {"latitude": 46.97488999999999, "longitude": 7.1954365, "race": "Groupe E Tour Fribourg #3 Charmey", "date": {"mer. 04.09.2013": {"year": 2013, "day": 4, "month": 9, "categories": {"HS2": {"distance": 11, "rank": 39, "pace": 315000000000, "time": 3433.5}}, "weekday": "wednesday", "livingplace": "Matran"}}, "location": "Kerzers"}, "Groupe E Tour Fribourg #5 Fribourg": {"latitude": 46.8128615, "longitude": 7.131657799999999, "race": "Groupe E Tour Fribourg #5 Fribourg", "date": {"mer. 18.09.2013": {"year": 2013, "day": 18, "month": 9, "categories": {"HS2": {"distance": 10, "rank": 37, "pace": 284000000000, "time": 2843.2}}, "weekday": "wednesday", "livingplace": "Matran"}}, "location": "Givisiez"}, "Groupe E Tour Fribourg #1 Siviriez": {"latitude": 46.81832, "longitude": 6.977279999999999, "race": "Groupe E Tour Fribourg #1 Siviriez", "date": {"mer. 21.08.2013": {"year": 2013, "day": 21, "month": 8, "categories": {"HS2": {"distance": 10, "rank": 30, "pace": 292000000000, "time": 2861.9}}, "weekday": "wednesday", "livingplace": "Matran"}}, "location": "Cousset"}, "Groupe E Tour Fribourg #2 Kerzers": {"latitude": 46.6175845, "longitude": 7.1654493, "race": "Groupe E Tour Fribourg #2 Kerzers", "date": {"mer. 28.08.2013": {"year": 2013, "day": 28, "month": 8, "categories": {"HS2": {"distance": 12, "rank": 28, "pace": 281000000000, "time": 3338.8}}, "weekday": "wednesday", "livingplace": "Matran"}}, "location": "Charmey (Gruy\u00e8re)"}, "Groupe E Tour Fribourg #4 Montagny": {"latitude": 46.6585092, "longitude": 6.877722, "race": "Groupe E Tour Fribourg #4 Montagny", "date": {"mer. 11.09.2013": {"year": 2013, "day": 11, "month": 9, "categories": {"HS2": {"distance": 10, "rank": 33, "pace": 286000000000, "time": 2809.9}}, "weekday": "wednesday", "livingplace": "Matran"}}, "location": "Siviriez"}, "Groupe E Tour Fribourg #4 Siviriez": {"latitude": 46.6585092, "longitude": 6.877722, "race": "Groupe E Tour Fribourg #4 Siviriez", "date": {"mer. 19.09.2012": {"year": 2012, "day": 19, "month": 9, "categories": {"HS2": {"distance": 9, "rank": 32, "pace": 309000000000, "time": 2913.2}}, "weekday": "wednesday", "livingplace": "Matran"}}, "location": "Siviriez"}}, "birth": 1964}