{"name": "Dosch Damian", "sex": "M", "races": {"Lucerne Marathon, Luzern": {"latitude": 47.05016819999999, "longitude": 8.3093072, "race": "Lucerne Marathon, Luzern", "date": {"dim. 30.10.2011": {"year": 2011, "day": 30, "month": 10, "categories": {"M-M30": {"distance": 42, "rank": 276, "pace": 345000000000, "time": 14562.1}}, "weekday": "sunday", "livingplace": "Savognin"}}, "location": "Luzern"}, "Swiss IRONTRAIL, Davos": {"latitude": 46.8507835, "longitude": 9.5319859, "race": "Swiss IRONTRAIL, Davos", "date": {"jeu. 13.08.2015": {"year": 2015, "day": 13, "month": 8, "categories": {"T201-M30": {"distance": 200, "rank": 9, "pace": 848000000000, "time": 169724.7}}, "weekday": "thursday", "livingplace": "Savognin"}}, "location": "Chur"}, "Eiger Ultra Trail, Grindelwald": {"latitude": 46.624164, "longitude": 8.0413962, "race": "Eiger Ultra Trail, Grindelwald", "date": {"sam. 19.07.2014": {"year": 2014, "day": 19, "month": 7, "categories": {"A-H": {"distance": 101, "rank": 35, "pace": 637000000000, "time": 64407.7}}, "weekday": "saturday", "livingplace": "Savognin"}}, "location": "Grindelwald"}, "Sihltaler Fr\u00fchlingslauf, Gattikon": {"latitude": 47.2949282, "longitude": 8.5644799, "race": "Sihltaler Fr\u00fchlingslauf, Gattikon", "date": {"mer. 01.05.2013": {"year": 2013, "day": 1, "month": 5, "categories": {"10-M30": {"distance": 10, "rank": 24, "pace": 261000000000, "time": 2614.0}}, "weekday": "wednesday", "livingplace": "Savognin"}, "mar. 01.05.2012": {"year": 2012, "day": 1, "month": 5, "categories": {"10-M30": {"distance": 10, "rank": 15, "pace": 256000000000, "time": 2566.9}}, "weekday": "tuesday", "livingplace": "Savognin"}, "jeu. 01.05.2014": {"year": 2014, "day": 1, "month": 5, "categories": {"10-M30": {"distance": 10, "rank": 31, "pace": 266000000000, "time": 2662.3}}, "weekday": "thursday", "livingplace": "Savognin"}}, "location": "Gattikon"}, "Z\u00fcrich Marathon, Teamrun und Cityrun": {"latitude": 47.3768866, "longitude": 8.541694, "race": "Z\u00fcrich Marathon, Teamrun und Cityrun", "date": {"dim. 26.04.2009": {"year": 2009, "day": 26, "month": 4, "categories": {"M30": {"distance": 42, "rank": 707, "pace": 336000000000, "time": 14218.8}}, "weekday": "sunday", "livingplace": "Cunter"}}, "location": "Z\u00fcrich"}}, "birth": 1978}