{"name": "Dougoud Alexandre", "sex": "M", "races": {"Tour du Pays de Vaud printanier #2 Yverdon-les-Bains": {"latitude": 46.6698891, "longitude": 6.7975224, "race": "Tour du Pays de Vaud printanier #2 Yverdon-les-Bains", "date": {"mer. 11.06.2014": {"year": 2014, "day": 11, "month": 6, "categories": {"H-Sen1": {"distance": 9, "rank": 94, "pace": 363000000000, "time": 3307.7}}, "weekday": "wednesday", "livingplace": "Chapelle Glane"}}, "location": "Moudon"}, "Montreux - Les Rochers de Naye": {"latitude": 46.4312213, "longitude": 6.9106799, "race": "Montreux - Les Rochers de Naye", "date": {"dim. 05.07.2015": {"year": 2015, "day": 5, "month": 7, "categories": {"M-HV\u00e9t1": {"distance": 19, "rank": 97, "pace": 538000000000, "time": 10118.5}}, "weekday": "sunday", "livingplace": "Chapelle Glane"}}, "location": "Montreux"}, "Corrida Bulloise, Bulle": {"latitude": 46.6154512, "longitude": 7.057726799999999, "race": "Corrida Bulloise, Bulle", "date": {"sam. 21.11.2015": {"year": 2015, "day": 21, "month": 11, "categories": {"Pop-Hom": {"distance": 6, "rank": 297, "pace": 303000000000, "time": 1864.8}}, "weekday": "saturday", "livingplace": "Chapelle Glane"}}, "location": "Bulle"}, "Tour du Pays de Vaud printanier #1 Moudon": {"latitude": 46.3832683, "longitude": 6.2347852, "race": "Tour du Pays de Vaud printanier #1 Moudon", "date": {"mer. 04.06.2014": {"year": 2014, "day": 4, "month": 6, "categories": {"H-Sen1": {"distance": 8, "rank": 99, "pace": 355000000000, "time": 2989.3}}, "weekday": "wednesday", "livingplace": "Chapelle Glane"}}, "location": "Nyon"}, "Lausanne Marathon": {"latitude": 46.5196535, "longitude": 6.6322734, "race": "Lausanne Marathon", "date": {"dim. 26.10.2014": {"year": 2014, "day": 26, "month": 10, "categories": {"10-H30": {"distance": 10, "rank": 481, "pace": 309000000000, "time": 3099.7}}, "weekday": "sunday", "livingplace": "Chapelle Glane"}}, "location": "Lausanne"}, "20km de Lausanne": {"latitude": 46.5196535, "longitude": 6.6322734, "race": "20km de Lausanne", "date": {"sam. 26.04.2014": {"year": 2014, "day": 26, "month": 4, "categories": {"10-H30": {"distance": 10, "rank": 1075, "pace": 376000000000, "time": 3764.1}}, "weekday": "saturday", "livingplace": "Les Amis de la Course"}}, "location": "Lausanne"}}, "birth": 1975}