{"name": "Dousse Quentin", "sex": "M", "races": {"Tour du Chablais #4 Champ\u00e9ry": {"latitude": NaN, "longitude": NaN, "race": "Tour du Chablais #4 Champ\u00e9ry", "date": {"mer. 02.05.2012": {"year": 2012, "day": 2, "month": 5, "categories": {"M-Jun": {"distance": 8, "rank": 12, "pace": 275000000000, "time": 2288.1}}, "weekday": "wednesday", "livingplace": "Neyruz"}}, "location": "Les Mosses"}, "Morat-Fribourg": {"latitude": 46.92922110000001, "longitude": 7.120184, "race": "Morat-Fribourg", "date": {"sam. 05.10.2013": {"year": 2013, "day": 5, "month": 10, "categories": {"17-JunH": {"distance": 17, "rank": 68, "pace": 313000000000, "time": 5463.1}}, "weekday": "saturday", "livingplace": "Neyruz"}}, "location": "Murten"}, "Corrida Bulloise, Bulle": {"latitude": 46.6154512, "longitude": 7.057726799999999, "race": "Corrida Bulloise, Bulle", "date": {"sam. 16.11.2013": {"year": 2013, "day": 16, "month": 11, "categories": {"PopHomm": {"distance": 6, "rank": 78, "pace": 247000000000, "time": 1524.4}}, "weekday": "saturday", "livingplace": "Neyruz"}, "sam. 20.11.2010": {"year": 2010, "day": 20, "month": 11, "categories": {"PH": {"distance": 6, "rank": 106, "pace": 262000000000, "time": 1612.1}}, "weekday": "saturday", "livingplace": "Neyruz"}}, "location": "Bulle"}, "Groupe E Tour Fribourg #3, Kerzers": {"latitude": 46.97488999999999, "longitude": 7.1954365, "race": "Groupe E Tour Fribourg #3, Kerzers", "date": {"mer. 03.09.2014": {"year": 2014, "day": 3, "month": 9, "categories": {"H-Ellite": {"distance": 10, "rank": 61, "pace": 337000000000, "time": 3429.2}}, "weekday": "wednesday", "livingplace": "Neyruz"}}, "location": "Kerzers"}, "Groupe E Tour Fribourg #3 Charmey": {"latitude": 46.97488999999999, "longitude": 7.1954365, "race": "Groupe E Tour Fribourg #3 Charmey", "date": {"mer. 04.09.2013": {"year": 2013, "day": 4, "month": 9, "categories": {"HJ": {"distance": 11, "rank": 8, "pace": 312000000000, "time": 3399.7}}, "weekday": "wednesday", "livingplace": "Neyruz"}}, "location": "Kerzers"}, "Groupe E Tour Fribourg #4 Montagny": {"latitude": 46.6585092, "longitude": 6.877722, "race": "Groupe E Tour Fribourg #4 Montagny", "date": {"mer. 11.09.2013": {"year": 2013, "day": 11, "month": 9, "categories": {"HJ": {"distance": 10, "rank": 4, "pace": 267000000000, "time": 2623.9}}, "weekday": "wednesday", "livingplace": "Neyruz"}}, "location": "Siviriez"}, "Tour du Chablais #5 Morgins": {"latitude": 46.3603257, "longitude": 6.931504599999999, "race": "Tour du Chablais #5 Morgins", "date": {"mer. 01.05.2013": {"year": 2013, "day": 1, "month": 5, "categories": {"M-Jun": {"distance": 8, "rank": 13, "pace": 294000000000, "time": 2241.0}}, "weekday": "wednesday", "livingplace": "Neyruz"}}, "location": "Roche VD"}, "Kerzerslauf": {"latitude": 46.97488999999999, "longitude": 7.1954365, "race": "Kerzerslauf", "date": {"sam. 15.03.2014": {"year": 2014, "day": 15, "month": 3, "categories": {"15-M20": {"distance": 15, "rank": 159, "pace": 254000000000, "time": 3817.7}}, "weekday": "saturday", "livingplace": "Neyruz"}}, "location": "Kerzers"}}, "birth": 1994}