{"name": "Drouin Isabelle", "sex": "F", "races": {"Tour du Pays de Vaud #1, Penthaz": {"latitude": 46.5993131, "longitude": 6.539251200000001, "race": "Tour du Pays de Vaud #1, Penthaz", "date": {"mer. 13.08.2014": {"year": 2014, "day": 13, "month": 8, "categories": {"D-Sen2": {"distance": 9, "rank": 46, "pace": 384000000000, "time": 3281.0}}, "weekday": "wednesday", "livingplace": "Lausanne"}}, "location": "Penthaz"}, "Course de l'Avent, Fribourg": {"latitude": 46.8064773, "longitude": 7.161971899999999, "race": "Course de l'Avent, Fribourg", "date": {"dim. 24.11.2013": {"year": 2013, "day": 24, "month": 11, "categories": {"E-F40": {"distance": 7, "rank": 10, "pace": 366000000000, "time": 2715.0}}, "weekday": "sunday", "livingplace": "Lausanne"}}, "location": "Fribourg"}, "Tour du Pays de Vaud #4, La Sarraz": {"latitude": 46.7088129, "longitude": 6.5707689, "race": "Tour du Pays de Vaud #4, La Sarraz", "date": {"mer. 03.09.2014": {"year": 2014, "day": 3, "month": 9, "categories": {"D-Sen2": {"distance": 9, "rank": 57, "pace": 398000000000, "time": 3388.5}}, "weekday": "wednesday", "livingplace": "Lausanne"}}, "location": "Chavornay"}, "20km de Lausanne": {"latitude": 46.5196535, "longitude": 6.6322734, "race": "20km de Lausanne", "date": {"sam. 25.04.2015": {"year": 2015, "day": 25, "month": 4, "categories": {"10-F45": {"distance": 10, "rank": 93, "pace": 339000000000, "time": 3396.2}}, "weekday": "saturday", "livingplace": "Se bouger pour sa sante 1"}, "sam. 26.04.2014": {"year": 2014, "day": 26, "month": 4, "categories": {"10-F45": {"distance": 10, "rank": 225, "pace": 384000000000, "time": 3847.3}}, "weekday": "saturday", "livingplace": "Se bouger pour sa sante 4"}}, "location": "Lausanne"}, "Les Traine-Savates, Cheseaux-sur-Lausanne": {"latitude": 46.585452, "longitude": 6.6047712, "race": "Les Traine-Savates, Cheseaux-sur-Lausanne", "date": {"sam. 18.04.2015": {"year": 2015, "day": 18, "month": 4, "categories": {"10-W40": {"distance": 10, "rank": 58, "pace": 353000000000, "time": 3640.6}}, "weekday": "saturday", "livingplace": "Lausanne"}}, "location": "Cheseaux-sur-Lausanne"}}, "birth": 1967}