{"name": "Droz Claire", "sex": "F", "races": {"20km de Lausanne": {"latitude": 46.5196535, "longitude": 6.6322734, "race": "20km de Lausanne", "date": {"sam. 27.04.2013": {"year": 2013, "day": 27, "month": 4, "categories": {"10-F45": {"distance": 10, "rank": 86, "pace": 336000000000, "time": 3361.1}}, "weekday": "saturday", "livingplace": "Apples"}, "sam. 25.04.2015": {"year": 2015, "day": 25, "month": 4, "categories": {"10-F50": {"distance": 10, "rank": 45, "pace": 343000000000, "time": 3436.6}}, "weekday": "saturday", "livingplace": "Apples"}}, "location": "Lausanne"}, "Tour du Pays de Vaud #4 - La Sarraz": {"latitude": 46.7088129, "longitude": 6.5707689, "race": "Tour du Pays de Vaud #4 - La Sarraz", "date": {"mer. 04.09.2013": {"year": 2013, "day": 4, "month": 9, "categories": {"D-Sen2": {"distance": 9, "rank": 49, "pace": 379000000000, "time": 3226.5}}, "weekday": "wednesday", "livingplace": "Apples"}}, "location": "Chavornay"}, "Tour du Pays de Vaud printanier #3 - Yens": {"latitude": 46.7829756, "longitude": 6.5728678, "race": "Tour du Pays de Vaud printanier #3 - Yens", "date": {"mer. 18.06.2014": {"year": 2014, "day": 18, "month": 6, "categories": {"D-Sen2": {"distance": 9, "rank": 19, "pace": 364000000000, "time": 3315.7}}, "weekday": "wednesday", "livingplace": "Apples"}}, "location": "Champvent"}, "Tour du Pays de Vaud #1, Penthaz": {"latitude": 46.5993131, "longitude": 6.539251200000001, "race": "Tour du Pays de Vaud #1, Penthaz", "date": {"mer. 13.08.2014": {"year": 2014, "day": 13, "month": 8, "categories": {"D-Sen2": {"distance": 9, "rank": 33, "pace": 350000000000, "time": 2991.1}}, "weekday": "wednesday", "livingplace": "Apples"}}, "location": "Penthaz"}, "Tour du Pays de Vaud #2, Mezi\u00e8res": {"latitude": 46.5955273, "longitude": 6.7702883, "race": "Tour du Pays de Vaud #2, Mezi\u00e8res", "date": {"mer. 20.08.2014": {"year": 2014, "day": 20, "month": 8, "categories": {"D-Sen2": {"distance": 8, "rank": 37, "pace": 387000000000, "time": 3137.4}}, "weekday": "wednesday", "livingplace": "Apples"}}, "location": "M\u00e9zi\u00e8res VD"}}, "birth": 1965}