{"name": "Droz Lo\u00efc", "sex": "M", "races": {"BCN Tour M\u00f4tier": {"latitude": 46.9262933, "longitude": 6.6324944, "race": "BCN Tour M\u00f4tier", "date": {"mer. 19.05.2010": {"year": 2010, "day": 19, "month": 5, "categories": {"HE": {"distance": 10, "rank": 3, "pace": 214000000000, "time": 2122.9}}, "weekday": "wednesday", "livingplace": "Courtelary"}}, "location": "Couvet"}, "Corrida Bulloise, Bulle": {"latitude": 46.6154512, "longitude": 7.057726799999999, "race": "Corrida Bulloise, Bulle", "date": {"sam. 16.11.2013": {"year": 2013, "day": 16, "month": 11, "categories": {"M20": {"distance": 8, "rank": 10, "pace": 209000000000, "time": 1707.2}}, "weekday": "saturday", "livingplace": "Agarone"}, "sam. 21.11.2015": {"year": 2015, "day": 21, "month": 11, "categories": {"8-M20": {"distance": 8, "rank": 1, "pace": 201000000000, "time": 1639.0}}, "weekday": "saturday", "livingplace": "Giffers"}}, "location": "Bulle"}, "La Trotteuse-Tissot, La Chaux-de-Fonds": {"latitude": 47.1034892, "longitude": 6.832783800000001, "race": "La Trotteuse-Tissot, La Chaux-de-Fonds", "date": {"sam. 14.12.2013": {"year": 2013, "day": 14, "month": 12, "categories": {"GC-H20": {"distance": 8, "rank": 5, "pace": 208000000000, "time": 1671.0}}, "weekday": "saturday", "livingplace": "Agarone"}, "sam. 08.12.2012": {"year": 2012, "day": 8, "month": 12, "categories": {"GC-H20": {"distance": 8, "rank": 4, "pace": 225000000000, "time": 1801.3}}, "weekday": "saturday", "livingplace": "Agarone"}, "sam. 12.12.2015": {"year": 2015, "day": 12, "month": 12, "categories": {"GC-H20": {"distance": 8, "rank": 5, "pace": 206000000000, "time": 1648.9}}, "weekday": "saturday", "livingplace": "Giffers"}}, "location": "La Chaux-de-Fonds"}, "BCN Tour Neuch\u00e2tel": {"latitude": 46.9899874, "longitude": 6.9292732, "race": "BCN Tour Neuch\u00e2tel", "date": {"mer. 26.05.2010": {"year": 2010, "day": 26, "month": 5, "categories": {"HE": {"distance": 10, "rank": 4, "pace": 232000000000, "time": 2251.4}}, "weekday": "wednesday", "livingplace": "Courtelary"}}, "location": "Neuch\u00e2tel"}, "BCN Tour Le Locle": {"latitude": 46.999113, "longitude": 6.733554799999999, "race": "BCN Tour Le Locle", "date": {"mer. 05.05.2010": {"year": 2010, "day": 5, "month": 5, "categories": {"HE": {"distance": 11, "rank": 3, "pace": 220000000000, "time": 2402.3}}, "weekday": "wednesday", "livingplace": "Courtelary"}}, "location": "Les Ponts-de-Martel"}, "BCN Tour La Chaux-de-fonds": {"latitude": 47.1034892, "longitude": 6.832783800000001, "race": "BCN Tour La Chaux-de-fonds", "date": {"mer. 12.05.2010": {"year": 2010, "day": 12, "month": 5, "categories": {"HE": {"distance": 11, "rank": 3, "pace": 269000000000, "time": 2885.1}}, "weekday": "wednesday", "livingplace": "Courtelary"}}, "location": "La Chaux-de-Fonds"}, "Kerzerslauf": {"latitude": 46.97488999999999, "longitude": 7.1954365, "race": "Kerzerslauf", "date": {"sam. 15.03.2014": {"year": 2014, "day": 15, "month": 3, "categories": {"15-M20": {"distance": 15, "rank": 49, "pace": 220000000000, "time": 3311.4}}, "weekday": "saturday", "livingplace": "Agarone"}, "sam. 18.03.2006": {"year": 2006, "day": 18, "month": 3, "categories": {"M19": {"distance": 15, "rank": 8, "pace": 234000000000, "time": 3521.1}}, "weekday": "saturday", "livingplace": "Courtelary"}}, "location": "Kerzers"}, "BCN Tour Colombier": {"latitude": 46.9668714, "longitude": 6.8589727, "race": "BCN Tour Colombier", "date": {"mer. 21.04.2010": {"year": 2010, "day": 21, "month": 4, "categories": {"HE": {"distance": 10, "rank": 16, "pace": 262000000000, "time": 2629.1}}, "weekday": "wednesday", "livingplace": "Courtelary"}}, "location": "Colombier NE"}}, "birth": 1988}