{"name": "Druey Patricia", "sex": "F", "races": {"Tour du Chablais #2 Rennaz": {"latitude": 46.3835529, "longitude": 6.854975199999999, "race": "Tour du Chablais #2 Rennaz", "date": {"mer. 04.05.2011": {"year": 2011, "day": 4, "month": 5, "categories": {"F-F40": {"distance": 9, "rank": 80, "pace": 365000000000, "time": 3413.8}}, "weekday": "wednesday", "livingplace": "Montreux"}}, "location": "Bouveret"}, "Morat-Fribourg": {"latitude": 46.92922110000001, "longitude": 7.120184, "race": "Morat-Fribourg", "date": {"sam. 02.10.2010": {"year": 2010, "day": 2, "month": 10, "categories": {"17-W45": {"distance": 17, "rank": 243, "pace": 450000000000, "time": 7743.3}}, "weekday": "saturday", "livingplace": "Montreux"}, "sam. 01.10.2011": {"year": 2011, "day": 1, "month": 10, "categories": {"17-W45": {"distance": 17, "rank": 200, "pace": 410000000000, "time": 7041.3}}, "weekday": "saturday", "livingplace": "Montreux"}}, "location": "Murten"}, "Tour du Chablais #5 Les Mosses": {"latitude": 46.3603257, "longitude": 6.931504599999999, "race": "Tour du Chablais #5 Les Mosses", "date": {"mer. 25.05.2011": {"year": 2011, "day": 25, "month": 5, "categories": {"F-F40": {"distance": 8, "rank": 67, "pace": 398000000000, "time": 3185.9}}, "weekday": "wednesday", "livingplace": "Montreux"}}, "location": "Roche VD"}, "Tour du Chablais #4 Morgins": {"latitude": NaN, "longitude": NaN, "race": "Tour du Chablais #4 Morgins", "date": {"mer. 18.05.2011": {"year": 2011, "day": 18, "month": 5, "categories": {"F-F40": {"distance": 8, "rank": 74, "pace": 385000000000, "time": 3217.9}}, "weekday": "wednesday", "livingplace": "Montreux"}}, "location": "Les Mosses"}, "Tour du Chablais #6 Aigle": {"latitude": 46.3190253, "longitude": 6.970566, "race": "Tour du Chablais #6 Aigle", "date": {"mer. 01.06.2011": {"year": 2011, "day": 1, "month": 6, "categories": {"F-F40": {"distance": 10, "rank": 62, "pace": 346000000000, "time": 3532.8}}, "weekday": "wednesday", "livingplace": "Montreux"}}, "location": "Aigle"}, "Tour du Chablais #1 Lavey": {"latitude": 46.2957462, "longitude": 6.9916269, "race": "Tour du Chablais #1 Lavey", "date": {"mer. 27.04.2011": {"year": 2011, "day": 27, "month": 4, "categories": {"F-F40": {"distance": 9, "rank": 71, "pace": 368000000000, "time": 3314.9}}, "weekday": "wednesday", "livingplace": "Montreux"}}, "location": "Ollon VD"}}, "birth": 1962}