{"name": "Dubail Joris", "sex": "M", "races": {"BCN Tour #1 Corcelles": {"latitude": 46.9668714, "longitude": 6.8589727, "race": "BCN Tour #1 Corcelles", "date": {"mer. 24.04.2013": {"year": 2013, "day": 24, "month": 4, "categories": {"HE": {"distance": 10, "rank": 11, "pace": 230000000000, "time": 2260.7}}, "weekday": "wednesday", "livingplace": "Saignelegier"}}, "location": "Colombier NE"}, "Morat-Fribourg": {"latitude": 46.92922110000001, "longitude": 7.120184, "race": "Morat-Fribourg", "date": {"sam. 05.10.2013": {"year": 2013, "day": 5, "month": 10, "categories": {"17-M20": {"distance": 17, "rank": 64, "pace": 227000000000, "time": 3973.4}}, "weekday": "saturday", "livingplace": "Saignelegier"}, "sam. 03.10.2015": {"year": 2015, "day": 3, "month": 10, "categories": {"17-M20": {"distance": 17, "rank": 83, "pace": 239000000000, "time": 4104.4}}, "weekday": "saturday", "livingplace": "Saignelegier"}}, "location": "Murten"}, "La Trotteuse-Tissot, La Chaux-de-Fonds": {"latitude": 47.1034892, "longitude": 6.832783800000001, "race": "La Trotteuse-Tissot, La Chaux-de-Fonds", "date": {"sam. 12.12.2015": {"year": 2015, "day": 12, "month": 12, "categories": {"GC-H20": {"distance": 8, "rank": 18, "pace": 225000000000, "time": 1804.3}}, "weekday": "saturday", "livingplace": "Saignelegier"}, "sam. 18.12.2010": {"year": 2010, "day": 18, "month": 12, "categories": {"GC-H20": {"distance": 8, "rank": 7, "pace": 236000000000, "time": 1892.0}}, "weekday": "saturday", "livingplace": "Saignelegier"}, "sam. 17.12.2011": {"year": 2011, "day": 17, "month": 12, "categories": {"GC-H20": {"distance": 8, "rank": 11, "pace": 242000000000, "time": 1938.3}}, "weekday": "saturday", "livingplace": "Saignelegier"}, "sam. 14.12.2013": {"year": 2013, "day": 14, "month": 12, "categories": {"GC-H20": {"distance": 8, "rank": 11, "pace": 226000000000, "time": 1810.3}}, "weekday": "saturday", "livingplace": "Saignelegier"}}, "location": "La Chaux-de-Fonds"}, "Basler Stadtlauf": {"latitude": 47.5595986, "longitude": 7.5885761, "race": "Basler Stadtlauf", "date": {"sam. 29.11.2014": {"year": 2014, "day": 29, "month": 11, "categories": {"M20": {"distance": 6, "rank": 44, "pace": 215000000000, "time": 1185.5}}, "weekday": "saturday", "livingplace": "Saignelegier"}, "sam. 27.11.2010": {"year": 2010, "day": 27, "month": 11, "categories": {"M": {"distance": 6, "rank": 37, "pace": 212000000000, "time": 1166.0}}, "weekday": "saturday", "livingplace": "Saignelegier"}, "sam. 28.11.2009": {"year": 2009, "day": 28, "month": 11, "categories": {"M": {"distance": 6, "rank": 68, "pace": 223000000000, "time": 1230.0}}, "weekday": "saturday", "livingplace": "Saignelegier"}, "sam. 30.11.2013": {"year": 2013, "day": 30, "month": 11, "categories": {"M20": {"distance": 6, "rank": 44, "pace": 210000000000, "time": 1158.3}}, "weekday": "saturday", "livingplace": "Saignelegier"}, "sam. 26.11.2011": {"year": 2011, "day": 26, "month": 11, "categories": {"M": {"distance": 6, "rank": 42, "pace": 213000000000, "time": 1175.8}}, "weekday": "saturday", "livingplace": "Saignelegier"}, "sam. 28.11.2015": {"year": 2015, "day": 28, "month": 11, "categories": {"M20": {"distance": 6, "rank": 48, "pace": 211000000000, "time": 1163.1}}, "weekday": "saturday", "livingplace": "Saignelegier"}}, "location": "Basel"}, "BCN Tour Neuch\u00e2tel": {"latitude": 46.9899874, "longitude": 6.9292732, "race": "BCN Tour Neuch\u00e2tel", "date": {"mer. 26.05.2010": {"year": 2010, "day": 26, "month": 5, "categories": {"HE": {"distance": 10, "rank": 16, "pace": 251000000000, "time": 2443.8}}, "weekday": "wednesday", "livingplace": "Saignelegier"}, "mer. 30.05.2012": {"year": 2012, "day": 30, "month": 5, "categories": {"HE": {"distance": 11, "rank": 4, "pace": 234000000000, "time": 2623.0}}, "weekday": "wednesday", "livingplace": "Saignelegier"}, "mer. 25.05.2011": {"year": 2011, "day": 25, "month": 5, "categories": {"HE": {"distance": 11, "rank": 4, "pace": 235000000000, "time": 2682.2}}, "weekday": "wednesday", "livingplace": "Saignelegier"}}, "location": "Neuch\u00e2tel"}, "BCN Tour Auvernier": {"latitude": 46.9668714, "longitude": 6.8589727, "race": "BCN Tour Auvernier", "date": {"mer. 20.04.2011": {"year": 2011, "day": 20, "month": 4, "categories": {"HE": {"distance": 11, "rank": 12, "pace": 244000000000, "time": 2642.0}}, "weekday": "wednesday", "livingplace": "Saignelegier"}}, "location": "Colombier NE"}, "BCN Tour #4 Fleurier": {"latitude": 47.1034892, "longitude": 6.832783800000001, "race": "BCN Tour #4 Fleurier", "date": {"mer. 15.05.2013": {"year": 2013, "day": 15, "month": 5, "categories": {"HE": {"distance": 9, "rank": 7, "pace": 227000000000, "time": 1972.1}}, "weekday": "wednesday", "livingplace": "Saignelegier"}}, "location": "La Chaux-de-Fonds"}, "BCN Tour #2 La Chaux-de-Fonds": {"latitude": 47.0624261, "longitude": 6.9175754, "race": "BCN Tour #2 La Chaux-de-Fonds", "date": {"mer. 01.05.2013": {"year": 2013, "day": 1, "month": 5, "categories": {"HE": {"distance": 11, "rank": 10, "pace": 224000000000, "time": 2400.5}}, "weekday": "wednesday", "livingplace": "Saignelegier"}}, "location": "Ch\u00e9zard-St-Martin"}, "BCN Tour La Chaux-de-Fonds": {"latitude": 47.1034892, "longitude": 6.832783800000001, "race": "BCN Tour La Chaux-de-Fonds", "date": {"mer. 23.05.2012": {"year": 2012, "day": 23, "month": 5, "categories": {"HE": {"distance": 11, "rank": 5, "pace": 229000000000, "time": 2475.4}}, "weekday": "wednesday", "livingplace": "Saignelegier"}, "mer. 11.05.2011": {"year": 2011, "day": 11, "month": 5, "categories": {"HE": {"distance": 11, "rank": 13, "pace": 279000000000, "time": 2994.1}}, "weekday": "wednesday", "livingplace": "Saignelegier"}}, "location": "La Chaux-de-Fonds"}, "BCN Tour Les Ponts-de-Martel": {"latitude": 46.999113, "longitude": 6.733554799999999, "race": "BCN Tour Les Ponts-de-Martel", "date": {"mer. 09.05.2012": {"year": 2012, "day": 9, "month": 5, "categories": {"HE": {"distance": 10, "rank": 6, "pace": 233000000000, "time": 2409.2}}, "weekday": "wednesday", "livingplace": "Saignelegier"}}, "location": "Les Ponts-de-Martel"}, "BCN Tour Ponts-de-Martel": {"latitude": 47.0624261, "longitude": 6.9175754, "race": "BCN Tour Ponts-de-Martel", "date": {"mer. 28.04.2010": {"year": 2010, "day": 28, "month": 4, "categories": {"HE": {"distance": 11, "rank": 11, "pace": 249000000000, "time": 2793.5}}, "weekday": "wednesday", "livingplace": "Saignelegier"}}, "location": "Ch\u00e9zard-St-Martin"}, "BCN Tour #5 Colombier": {"latitude": 46.9262933, "longitude": 6.6324944, "race": "BCN Tour #5 Colombier", "date": {"mer. 22.05.2013": {"year": 2013, "day": 22, "month": 5, "categories": {"HE": {"distance": 11, "rank": 7, "pace": 215000000000, "time": 2260.3}}, "weekday": "wednesday", "livingplace": "Saignelegier"}}, "location": "Couvet"}, "BCN Tour Cornaux": {"latitude": 46.9668714, "longitude": 6.8589727, "race": "BCN Tour Cornaux", "date": {"mer. 25.04.2012": {"year": 2012, "day": 25, "month": 4, "categories": {"HE": {"distance": 11, "rank": 8, "pace": 249000000000, "time": 2745.9}}, "weekday": "wednesday", "livingplace": "Saignelegier"}}, "location": "Colombier NE"}, "BCN Tour #3 Dombresson": {"latitude": 46.999113, "longitude": 6.733554799999999, "race": "BCN Tour #3 Dombresson", "date": {"mer. 08.05.2013": {"year": 2013, "day": 8, "month": 5, "categories": {"HE": {"distance": 10, "rank": 11, "pace": 225000000000, "time": 2236.5}}, "weekday": "wednesday", "livingplace": "Saignelegier"}}, "location": "Les Ponts-de-Martel"}, "BCN Tour M\u00f4tier": {"latitude": 46.9262933, "longitude": 6.6324944, "race": "BCN Tour M\u00f4tier", "date": {"mer. 19.05.2010": {"year": 2010, "day": 19, "month": 5, "categories": {"HE": {"distance": 10, "rank": 16, "pace": 233000000000, "time": 2309.6}}, "weekday": "wednesday", "livingplace": "Saignelegier"}}, "location": "Couvet"}, "Corrida Bulloise, Bulle": {"latitude": 46.6154512, "longitude": 7.057726799999999, "race": "Corrida Bulloise, Bulle", "date": {"sam. 20.11.2010": {"year": 2010, "day": 20, "month": 11, "categories": {"M20": {"distance": 8, "rank": 28, "pace": 220000000000, "time": 1797.2}}, "weekday": "saturday", "livingplace": "Saignelegier"}, "sam. 15.11.2014": {"year": 2014, "day": 15, "month": 11, "categories": {"8-M20": {"distance": 8, "rank": 20, "pace": 225000000000, "time": 1838.1}}, "weekday": "saturday", "livingplace": "Saignelegier"}}, "location": "Bulle"}, "BCN Tour Fontaine Cernier": {"latitude": 47.0624261, "longitude": 6.9175754, "race": "BCN Tour Fontaine Cernier", "date": {"mer. 27.04.2011": {"year": 2011, "day": 27, "month": 4, "categories": {"HE": {"distance": 10, "rank": 11, "pace": 228000000000, "time": 2354.7}}, "weekday": "wednesday", "livingplace": "Saignelegier"}}, "location": "Ch\u00e9zard-St-Martin"}, "BCN Tour Le Locle": {"latitude": 46.999113, "longitude": 6.733554799999999, "race": "BCN Tour Le Locle", "date": {"mer. 05.05.2010": {"year": 2010, "day": 5, "month": 5, "categories": {"HE": {"distance": 11, "rank": 24, "pace": 255000000000, "time": 2783.2}}, "weekday": "wednesday", "livingplace": "Saignelegier"}}, "location": "Les Ponts-de-Martel"}, "BCN Tour Couvet": {"latitude": 47.0624261, "longitude": 6.9175754, "race": "BCN Tour Couvet", "date": {"mer. 02.05.2012": {"year": 2012, "day": 2, "month": 5, "categories": {"HE": {"distance": 11, "rank": 6, "pace": 236000000000, "time": 2637.3}}, "weekday": "wednesday", "livingplace": "Saignelegier"}}, "location": "Ch\u00e9zard-St-Martin"}, "Kerzerslauf": {"latitude": 46.97488999999999, "longitude": 7.1954365, "race": "Kerzerslauf", "date": {"sam. 19.03.2011": {"year": 2011, "day": 19, "month": 3, "categories": {"15-M20": {"distance": 15, "rank": 69, "pace": 231000000000, "time": 3465.5}}, "weekday": "saturday", "livingplace": "Saignelegier"}, "sam. 15.03.2014": {"year": 2014, "day": 15, "month": 3, "categories": {"15-M20": {"distance": 15, "rank": 59, "pace": 223000000000, "time": 3357.3}}, "weekday": "saturday", "livingplace": "Saignelegier"}, "sam. 17.03.2012": {"year": 2012, "day": 17, "month": 3, "categories": {"15-M20": {"distance": 15, "rank": 37, "pace": 223000000000, "time": 3348.3}}, "weekday": "saturday", "livingplace": "Saignelegier"}, "sam. 16.03.2013": {"year": 2013, "day": 16, "month": 3, "categories": {"15-M20": {"distance": 15, "rank": 60, "pace": 225000000000, "time": 3375.3}}, "weekday": "saturday", "livingplace": "Saignelegier"}}, "location": "Kerzers"}, "BCN Tour #6 Neuch\u00e2tel": {"latitude": 46.9899874, "longitude": 6.9292732, "race": "BCN Tour #6 Neuch\u00e2tel", "date": {"mer. 29.05.2013": {"year": 2013, "day": 29, "month": 5, "categories": {"HE": {"distance": 11, "rank": 10, "pace": 233000000000, "time": 2566.9}}, "weekday": "wednesday", "livingplace": "Saignelegier"}}, "location": "Neuch\u00e2tel"}, "BCN Tour La Br\u00e9vine": {"latitude": 46.999113, "longitude": 6.733554799999999, "race": "BCN Tour La Br\u00e9vine", "date": {"mer. 04.05.2011": {"year": 2011, "day": 4, "month": 5, "categories": {"HE": {"distance": 10, "rank": 16, "pace": 247000000000, "time": 2478.3}}, "weekday": "wednesday", "livingplace": "Saignelegier"}}, "location": "Les Ponts-de-Martel"}, "BCN Tour Les Ponts de Martel": {"latitude": 46.9262933, "longitude": 6.6324944, "race": "BCN Tour Les Ponts de Martel", "date": {"mer. 18.05.2011": {"year": 2011, "day": 18, "month": 5, "categories": {"HE": {"distance": 13, "rank": 8, "pace": 240000000000, "time": 3084.1}}, "weekday": "wednesday", "livingplace": "Saignelegier"}}, "location": "Couvet"}, "BCN Tour La Chaux-de-fonds": {"latitude": 47.1034892, "longitude": 6.832783800000001, "race": "BCN Tour La Chaux-de-fonds", "date": {"mer. 12.05.2010": {"year": 2010, "day": 12, "month": 5, "categories": {"HE": {"distance": 11, "rank": 13, "pace": 293000000000, "time": 3143.0}}, "weekday": "wednesday", "livingplace": "Saignelegier"}}, "location": "La Chaux-de-Fonds"}, "BCN Tour Colombier": {"latitude": 46.9668714, "longitude": 6.8589727, "race": "BCN Tour Colombier", "date": {"mer. 16.05.2012": {"year": 2012, "day": 16, "month": 5, "categories": {"HE": {"distance": 11, "rank": 4, "pace": 227000000000, "time": 2457.4}}, "weekday": "wednesday", "livingplace": "Saignelegier"}, "mer. 21.04.2010": {"year": 2010, "day": 21, "month": 4, "categories": {"HE": {"distance": 10, "rank": 11, "pace": 261000000000, "time": 2611.0}}, "weekday": "wednesday", "livingplace": "Saignelegier"}}, "location": "Colombier NE"}}, "birth": 1986}