{"name": "Dubois Baptiste", "sex": "M", "races": {"Morat-Fribourg": {"latitude": 46.92922110000001, "longitude": 7.120184, "race": "Morat-Fribourg", "date": {"sam. 02.10.2010": {"year": 2010, "day": 2, "month": 10, "categories": {"17-M20": {"distance": 17, "rank": 10, "pace": 220000000000, "time": 3780.8}}, "weekday": "saturday", "livingplace": "Le Locle"}, "sam. 01.10.2011": {"year": 2011, "day": 1, "month": 10, "categories": {"17-M20": {"distance": 17, "rank": 37, "pace": 217000000000, "time": 3741.6}}, "weekday": "saturday", "livingplace": "La Sagne"}}, "location": "Murten"}, "La Trotteuse-Tissot, La Chaux-de-Fonds": {"latitude": 47.1034892, "longitude": 6.832783800000001, "race": "La Trotteuse-Tissot, La Chaux-de-Fonds", "date": {"sam. 18.12.2010": {"year": 2010, "day": 18, "month": 12, "categories": {"GC-H30": {"distance": 8, "rank": 6, "pace": 228000000000, "time": 1825.2}}, "weekday": "saturday", "livingplace": "Greubel Forsey"}, "sam. 17.12.2011": {"year": 2011, "day": 17, "month": 12, "categories": {"GC-H30": {"distance": 8, "rank": 1, "pace": 215000000000, "time": 1722.7}}, "weekday": "saturday", "livingplace": "La Sagne"}, "sam. 12.12.2015": {"year": 2015, "day": 12, "month": 12, "categories": {"GC-H30": {"distance": 8, "rank": 8, "pace": 212000000000, "time": 1702.5}}, "weekday": "saturday", "livingplace": "La Sagne"}, "sam. 14.12.2013": {"year": 2013, "day": 14, "month": 12, "categories": {"GC-H30": {"distance": 8, "rank": 5, "pace": 210000000000, "time": 1681.2}}, "weekday": "saturday", "livingplace": "La Sagne"}, "sam. 08.12.2012": {"year": 2012, "day": 8, "month": 12, "categories": {"GC-H30": {"distance": 8, "rank": 2, "pace": 219000000000, "time": 1753.6}}, "weekday": "saturday", "livingplace": "La Sagne"}, "sam. 13.12.2014": {"year": 2014, "day": 13, "month": 12, "categories": {"GC-H30": {"distance": 8, "rank": 6, "pace": 208000000000, "time": 1664.4}}, "weekday": "saturday", "livingplace": "La Sagne"}}, "location": "La Chaux-de-Fonds"}, "BCN Tour #1 Corcelles": {"latitude": 46.9668714, "longitude": 6.8589727, "race": "BCN Tour #1 Corcelles", "date": {"mer. 24.04.2013": {"year": 2013, "day": 24, "month": 4, "categories": {"HS1": {"distance": 10, "rank": 3, "pace": 215000000000, "time": 2110.0}}, "weekday": "wednesday", "livingplace": "La Sagne"}}, "location": "Colombier NE"}, "BCN Tour Auvernier": {"latitude": 46.9668714, "longitude": 6.8589727, "race": "BCN Tour Auvernier", "date": {"mer. 20.04.2011": {"year": 2011, "day": 20, "month": 4, "categories": {"HS1": {"distance": 11, "rank": 4, "pace": 229000000000, "time": 2475.7}}, "weekday": "wednesday", "livingplace": "Les Ponts de Martel"}}, "location": "Colombier NE"}, "BCN Tour #4 Fleurier": {"latitude": 47.1034892, "longitude": 6.832783800000001, "race": "BCN Tour #4 Fleurier", "date": {"mer. 15.05.2013": {"year": 2013, "day": 15, "month": 5, "categories": {"HS1": {"distance": 9, "rank": 2, "pace": 216000000000, "time": 1868.8}}, "weekday": "wednesday", "livingplace": "La Sagne"}}, "location": "La Chaux-de-Fonds"}, "BCN Tour #2 La Chaux-de-Fonds": {"latitude": 47.0624261, "longitude": 6.9175754, "race": "BCN Tour #2 La Chaux-de-Fonds", "date": {"mer. 01.05.2013": {"year": 2013, "day": 1, "month": 5, "categories": {"HS1": {"distance": 11, "rank": 6, "pace": 217000000000, "time": 2324.2}}, "weekday": "wednesday", "livingplace": "La Sagne"}}, "location": "Ch\u00e9zard-St-Martin"}, "Montreux - Les Rochers de Naye": {"latitude": 46.4312213, "longitude": 6.9106799, "race": "Montreux - Les Rochers de Naye", "date": {"dim. 11.07.2010": {"year": 2010, "day": 11, "month": 7, "categories": {"M-Hom": {"distance": 19, "rank": 14, "pace": 338000000000, "time": 6354.7}}, "weekday": "sunday", "livingplace": "Le Locle"}}, "location": "Montreux"}, "BCN Tour La Chaux-de-Fonds": {"latitude": 47.1034892, "longitude": 6.832783800000001, "race": "BCN Tour La Chaux-de-Fonds", "date": {"mer. 23.05.2012": {"year": 2012, "day": 23, "month": 5, "categories": {"HS1": {"distance": 11, "rank": 7, "pace": 222000000000, "time": 2399.4}}, "weekday": "wednesday", "livingplace": "La Sagne"}, "mer. 11.05.2011": {"year": 2011, "day": 11, "month": 5, "categories": {"HS1": {"distance": 11, "rank": 1, "pace": 252000000000, "time": 2697.6}}, "weekday": "wednesday", "livingplace": "Les Ponts de Martel"}}, "location": "La Chaux-de-Fonds"}, "Jungfrau-Marathon, Interlaken": {"latitude": NaN, "longitude": NaN, "race": "Jungfrau-Marathon, Interlaken", "date": {"sam. 08.09.2012": {"year": 2012, "day": 8, "month": 9, "categories": {"SO-M20": {"distance": 42, "rank": 52, "pace": 312000000000, "time": 13177.3}}, "weekday": "saturday", "livingplace": "Les Ponts de Martel"}, "sam. 10.09.2011": {"year": 2011, "day": 10, "month": 9, "categories": {"M20": {"distance": 42, "rank": 40, "pace": 328000000000, "time": 13853.0}}, "weekday": "saturday", "livingplace": "Les Ponts de Martel"}}, "location": "Interlaken"}, "BCN Tour Les Ponts-de-Martel": {"latitude": 46.999113, "longitude": 6.733554799999999, "race": "BCN Tour Les Ponts-de-Martel", "date": {"mer. 09.05.2012": {"year": 2012, "day": 9, "month": 5, "categories": {"HS1": {"distance": 10, "rank": 4, "pace": 223000000000, "time": 2300.5}}, "weekday": "wednesday", "livingplace": "La Sagne"}}, "location": "Les Ponts-de-Martel"}, "BCN Tour Neuch\u00e2tel": {"latitude": 46.9899874, "longitude": 6.9292732, "race": "BCN Tour Neuch\u00e2tel", "date": {"mer. 30.05.2012": {"year": 2012, "day": 30, "month": 5, "categories": {"HS1": {"distance": 11, "rank": 6, "pace": 230000000000, "time": 2579.6}}, "weekday": "wednesday", "livingplace": "La Sagne"}, "mer. 25.05.2011": {"year": 2011, "day": 25, "month": 5, "categories": {"HS1": {"distance": 11, "rank": 4, "pace": 224000000000, "time": 2554.2}}, "weekday": "wednesday", "livingplace": "Les Ponts de Martel"}}, "location": "Neuch\u00e2tel"}, "BCN Tour #5 Colombier": {"latitude": 46.9262933, "longitude": 6.6324944, "race": "BCN Tour #5 Colombier", "date": {"mer. 22.05.2013": {"year": 2013, "day": 22, "month": 5, "categories": {"HS1": {"distance": 11, "rank": 6, "pace": 204000000000, "time": 2152.2}}, "weekday": "wednesday", "livingplace": "La Sagne"}}, "location": "Couvet"}, "Internationaler Matterhornlauf, Zermatt": {"latitude": NaN, "longitude": NaN, "race": "Internationaler Matterhornlauf, Zermatt", "date": {"sam. 19.08.2006": {"year": 2006, "day": 19, "month": 8, "categories": {"MHL/M20": {"distance": 12, "rank": 4, "pace": 315000000000, "time": 3878.6}}, "weekday": "saturday", "livingplace": "Lignieres"}, "dim. 21.08.2005": {"year": 2005, "day": 21, "month": 8, "categories": {"MHL/M20": {"distance": 14, "rank": 12, "pace": 322000000000, "time": 4630.9}}, "weekday": "sunday", "livingplace": "Lignieres"}}, "location": "Zermatt"}, "BCN Tour #3 Dombresson": {"latitude": 46.999113, "longitude": 6.733554799999999, "race": "BCN Tour #3 Dombresson", "date": {"mer. 08.05.2013": {"year": 2013, "day": 8, "month": 5, "categories": {"HS1": {"distance": 10, "rank": 7, "pace": 218000000000, "time": 2162.9}}, "weekday": "wednesday", "livingplace": "La Sagne"}}, "location": "Les Ponts-de-Martel"}, "Course de l'Escalade, Gen\u00e8ve": {"latitude": 46.2043907, "longitude": 6.1431577, "race": "Course de l'Escalade, Gen\u00e8ve", "date": {"sam. 02.12.2006": {"year": 2006, "day": 2, "month": 12, "categories": {"Elite H": {"distance": 7, "rank": 103, "pace": 206000000000, "time": 1493.7}}, "weekday": "saturday", "livingplace": "Lignieres"}}, "location": "Gen\u00e8ve"}, "BCN Tour Fontaine Cernier": {"latitude": 47.0624261, "longitude": 6.9175754, "race": "BCN Tour Fontaine Cernier", "date": {"mer. 27.04.2011": {"year": 2011, "day": 27, "month": 4, "categories": {"HS1": {"distance": 10, "rank": 1, "pace": 215000000000, "time": 2217.7}}, "weekday": "wednesday", "livingplace": "Les Ponts de Martel"}}, "location": "Ch\u00e9zard-St-Martin"}, "Sierre-Zinal, Sierre": {"latitude": 46.29413110000001, "longitude": 7.533536199999999, "race": "Sierre-Zinal, Sierre", "date": {"dim. 11.08.2013": {"year": 2013, "day": 11, "month": 8, "categories": {"Elites": {"distance": 31, "rank": 27, "pace": 336000000000, "time": 10425.3}}, "weekday": "sunday", "livingplace": "La Sagne"}}, "location": "Sierre"}, "Les Traine-Savates, Cheseaux-sur-Lausanne": {"latitude": 46.585452, "longitude": 6.6047712, "race": "Les Traine-Savates, Cheseaux-sur-Lausanne", "date": {"sam. 12.04.2008": {"year": 2008, "day": 12, "month": 4, "categories": {"MS": {"distance": 10, "rank": 5, "pace": 204000000000, "time": 2123.8}}, "weekday": "saturday", "livingplace": "Lignieres"}}, "location": "Cheseaux-sur-Lausanne"}, "BCN Tour Couvet": {"latitude": 47.0624261, "longitude": 6.9175754, "race": "BCN Tour Couvet", "date": {"mer. 02.05.2012": {"year": 2012, "day": 2, "month": 5, "categories": {"HS1": {"distance": 11, "rank": 4, "pace": 220000000000, "time": 2461.1}}, "weekday": "wednesday", "livingplace": "La Sagne"}}, "location": "Ch\u00e9zard-St-Martin"}, "Aletsch-Halbmarathon, Bettmeralp": {"latitude": NaN, "longitude": NaN, "race": "Aletsch-Halbmarathon, Bettmeralp", "date": {"dim. 29.06.2014": {"year": 2014, "day": 29, "month": 6, "categories": {"M35": {"distance": 13, "rank": 3, "pace": 259000000000, "time": 3454.2}}, "weekday": "sunday", "livingplace": "La Sagne"}}, "location": "Bettmeralp"}, "Kerzerslauf": {"latitude": 46.97488999999999, "longitude": 7.1954365, "race": "Kerzerslauf", "date": {"sam. 17.03.2007": {"year": 2007, "day": 17, "month": 3, "categories": {"M20": {"distance": 15, "rank": 57, "pace": 215000000000, "time": 3238.9}}, "weekday": "saturday", "livingplace": "Lignieres"}}, "location": "Kerzers"}, "M\u00e4nnlichen Halbmarathon, Grindelwald": {"latitude": 46.624164, "longitude": 8.0413962, "race": "M\u00e4nnlichen Halbmarathon, Grindelwald", "date": {"dim. 09.06.2013": {"year": 2013, "day": 9, "month": 6, "categories": {"M30": {"distance": 21, "rank": 3, "pace": 322000000000, "time": 6812.0}}, "weekday": "sunday", "livingplace": "La Sagne"}}, "location": "Grindelwald"}, "Eiger Ultra Trail, Grindelwald": {"latitude": 46.624164, "longitude": 8.0413962, "race": "Eiger Ultra Trail, Grindelwald", "date": {"sam. 18.07.2015": {"year": 2015, "day": 18, "month": 7, "categories": {"C-H": {"distance": 16, "rank": 1, "pace": 315000000000, "time": 5044.7}}, "weekday": "saturday", "livingplace": "La Sagne"}}, "location": "Grindelwald"}, "BCN Tour #6 Neuch\u00e2tel": {"latitude": 46.9899874, "longitude": 6.9292732, "race": "BCN Tour #6 Neuch\u00e2tel", "date": {"mer. 29.05.2013": {"year": 2013, "day": 29, "month": 5, "categories": {"HS1": {"distance": 11, "rank": 3, "pace": 221000000000, "time": 2433.9}}, "weekday": "wednesday", "livingplace": "La Sagne"}}, "location": "Neuch\u00e2tel"}, "BCN Tour La Br\u00e9vine": {"latitude": 46.999113, "longitude": 6.733554799999999, "race": "BCN Tour La Br\u00e9vine", "date": {"mer. 04.05.2011": {"year": 2011, "day": 4, "month": 5, "categories": {"HS1": {"distance": 10, "rank": 1, "pace": 225000000000, "time": 2254.5}}, "weekday": "wednesday", "livingplace": "Les Ponts de Martel"}}, "location": "Les Ponts-de-Martel"}, "BCN Tour Les Ponts de Martel": {"latitude": 46.9262933, "longitude": 6.6324944, "race": "BCN Tour Les Ponts de Martel", "date": {"mer. 18.05.2011": {"year": 2011, "day": 18, "month": 5, "categories": {"HS1": {"distance": 13, "rank": 3, "pace": 230000000000, "time": 2950.9}}, "weekday": "wednesday", "livingplace": "Les Ponts de Martel"}}, "location": "Couvet"}, "BCN Tour Boudry": {"latitude": 46.9668714, "longitude": 6.8589727, "race": "BCN Tour Boudry", "date": {"mer. 26.04.2006": {"year": 2006, "day": 26, "month": 4, "categories": {"HE": {"distance": 10, "rank": 6, "pace": 222000000000, "time": 2273.9}}, "weekday": "wednesday", "livingplace": "Lignieres"}}, "location": "Colombier NE"}, "BCN Tour Colombier": {"latitude": 46.9668714, "longitude": 6.8589727, "race": "BCN Tour Colombier", "date": {"mer. 23.04.2008": {"year": 2008, "day": 23, "month": 4, "categories": {"HS1": {"distance": 10, "rank": 9, "pace": 228000000000, "time": 2332.9}}, "weekday": "wednesday", "livingplace": "Lignieres"}}, "location": "Colombier NE"}}, "birth": 1977}