{"name": "Duca Giovanni", "sex": "M", "races": {"Tour du Pays de Vaud etape 5 - La Sarraz": {"latitude": 46.5993131, "longitude": 6.539251200000001, "race": "Tour du Pays de Vaud etape 5 - La Sarraz", "date": {"mer. 10.09.2008": {"year": 2008, "day": 10, "month": 9, "categories": {"HomSen3": {"distance": 9, "rank": 19, "pace": 258000000000, "time": 2226.9}}, "weekday": "wednesday", "livingplace": "Lausanne"}}, "location": "Penthaz"}, "Glacier 3000 Run, Gstaad": {"latitude": 46.4717588, "longitude": 7.2865728, "race": "Glacier 3000 Run, Gstaad", "date": {"sam. 09.08.2008": {"year": 2008, "day": 9, "month": 8, "categories": {"M50": {"distance": 26, "rank": 52, "pace": 584000000000, "time": 15198.6}}, "weekday": "saturday", "livingplace": "Lausanne"}}, "location": "Gstaad"}, "Morat-Fribourg": {"latitude": 46.92922110000001, "longitude": 7.120184, "race": "Morat-Fribourg", "date": {"sam. 04.10.2008": {"year": 2008, "day": 4, "month": 10, "categories": {"C-M55": {"distance": 17, "rank": 91, "pace": 300000000000, "time": 5152.6}}, "weekday": "saturday", "livingplace": "Lausanne"}, "dim. 05.10.2003": {"year": 2003, "day": 5, "month": 10, "categories": {"M50": {"distance": 17, "rank": 47, "pace": 265000000000, "time": 4559.1}}, "weekday": "sunday", "livingplace": "Lausanne"}, "dim. 06.10.2002": {"year": 2002, "day": 6, "month": 10, "categories": {"M45": {"distance": 17, "rank": 107, "pace": 272000000000, "time": 4675.5}}, "weekday": "sunday", "livingplace": "Lausanne"}}, "location": "Murten"}, "Corrida Bulloise, Bulle": {"latitude": 46.6154512, "longitude": 7.057726799999999, "race": "Corrida Bulloise, Bulle", "date": {"sam. 15.11.2008": {"year": 2008, "day": 15, "month": 11, "categories": {"M50": {"distance": 8, "rank": 27, "pace": 259000000000, "time": 2075.1}}, "weekday": "saturday", "livingplace": "Lausanne"}}, "location": "Bulle"}, "Tour du Pays de Vaud etape 2 - Genolier": {"latitude": 46.5955273, "longitude": 6.7702883, "race": "Tour du Pays de Vaud etape 2 - Genolier", "date": {"mer. 20.08.2008": {"year": 2008, "day": 20, "month": 8, "categories": {"HomSen3": {"distance": 8, "rank": 12, "pace": 258000000000, "time": 2149.4}}, "weekday": "wednesday", "livingplace": "Lausanne"}}, "location": "M\u00e9zi\u00e8res VD"}, "Tour du Pays de Vaud etape 3 - Aubonne": {"latitude": 46.7829756, "longitude": 6.5728678, "race": "Tour du Pays de Vaud etape 3 - Aubonne", "date": {"mer. 27.08.2008": {"year": 2008, "day": 27, "month": 8, "categories": {"HomSen3": {"distance": 8, "rank": 21, "pace": 287000000000, "time": 2246.0}}, "weekday": "wednesday", "livingplace": "Lausanne"}}, "location": "Champvent"}, "Tour du Pays de Vaud etape 1 - Le Mont sur Lausanne": {"latitude": 46.7784736, "longitude": 6.641183, "race": "Tour du Pays de Vaud etape 1 - Le Mont sur Lausanne", "date": {"mer. 13.08.2008": {"year": 2008, "day": 13, "month": 8, "categories": {"HomSen3": {"distance": 8, "rank": 14, "pace": 260000000000, "time": 2190.2}}, "weekday": "wednesday", "livingplace": "Lausanne"}}, "location": "Yverdon-les-Bains"}}, "birth": 1953}