{"name": "Ducommun Luc", "sex": "M", "races": {"Course de l'Escalade, Gen\u00e8ve": {"latitude": 46.2043907, "longitude": 6.1431577, "race": "Course de l'Escalade, Gen\u00e8ve", "date": {"sam. 01.12.2007": {"year": 2007, "day": 1, "month": 12, "categories": {"Hommes2": {"distance": 7, "rank": 33, "pace": 218000000000, "time": 1586.4}}, "weekday": "saturday", "livingplace": "Areuse"}, "sam. 02.12.2006": {"year": 2006, "day": 2, "month": 12, "categories": {"Hommes2": {"distance": 7, "rank": 65, "pace": 228000000000, "time": 1653.9}}, "weekday": "saturday", "livingplace": "Lausanne"}, "sam. 06.12.2008": {"year": 2008, "day": 6, "month": 12, "categories": {"Hommes2": {"distance": 7, "rank": 51, "pace": 229000000000, "time": 1665.6}}, "weekday": "saturday", "livingplace": "Neuchatel"}}, "location": "Gen\u00e8ve"}, "La Trotteuse-Tissot, La Chaux-de-Fonds": {"latitude": 47.1034892, "longitude": 6.832783800000001, "race": "La Trotteuse-Tissot, La Chaux-de-Fonds", "date": {"sam. 12.12.2015": {"year": 2015, "day": 12, "month": 12, "categories": {"GC-H40": {"distance": 8, "rank": 6, "pace": 227000000000, "time": 1820.3}}, "weekday": "saturday", "livingplace": "Savagnier"}}, "location": "La Chaux-de-Fonds"}, "Lausanne Marathon": {"latitude": 46.5196535, "longitude": 6.6322734, "race": "Lausanne Marathon", "date": {"sam. 24.10.2015": {"year": 2015, "day": 24, "month": 10, "categories": {"10-H40": {"distance": 10, "rank": 13, "pace": 216000000000, "time": 2160.9}}, "weekday": "saturday", "livingplace": "Savagnier"}}, "location": "Lausanne"}, "Morat-Fribourg": {"latitude": 46.92922110000001, "longitude": 7.120184, "race": "Morat-Fribourg", "date": {"sam. 03.10.2015": {"year": 2015, "day": 3, "month": 10, "categories": {"17-M40": {"distance": 17, "rank": 34, "pace": 243000000000, "time": 4186.5}}, "weekday": "saturday", "livingplace": "Savagnier"}}, "location": "Murten"}, "BCN Tour Boudry": {"latitude": 46.9668714, "longitude": 6.8589727, "race": "BCN Tour Boudry", "date": {"mer. 26.04.2006": {"year": 2006, "day": 26, "month": 4, "categories": {"HS1": {"distance": 10, "rank": 41, "pace": 258000000000, "time": 2637.6}}, "weekday": "wednesday", "livingplace": "Lausanne"}}, "location": "Colombier NE"}, "20km de Lausanne": {"latitude": 46.5196535, "longitude": 6.6322734, "race": "20km de Lausanne", "date": {"sam. 28.04.2007": {"year": 2007, "day": 28, "month": 4, "categories": {"10H30": {"distance": 10, "rank": 16, "pace": 225000000000, "time": 2256.1}}, "weekday": "saturday", "livingplace": "Areuse"}, "sam. 25.04.2015": {"year": 2015, "day": 25, "month": 4, "categories": {"10-H40": {"distance": 10, "rank": 10, "pace": 230000000000, "time": 2302.5}}, "weekday": "saturday", "livingplace": "Au"}, "sam. 22.04.2006": {"year": 2006, "day": 22, "month": 4, "categories": {"10/H30": {"distance": 10, "rank": 41, "pace": 248000000000, "time": 2484.4}}, "weekday": "saturday", "livingplace": "Lausanne"}}, "location": "Lausanne"}, "BCN Tour Colombier": {"latitude": 46.9668714, "longitude": 6.8589727, "race": "BCN Tour Colombier", "date": {"mer. 23.04.2008": {"year": 2008, "day": 23, "month": 4, "categories": {"HS1": {"distance": 10, "rank": 16, "pace": 243000000000, "time": 2480.4}}, "weekday": "wednesday", "livingplace": "Fyne"}}, "location": "Colombier NE"}}, "birth": 1975}