{"name": "Dufaux Laurent", "sex": "M", "races": {"Tour du Chablais #1 Roche": {"latitude": 46.2957462, "longitude": 6.9916269, "race": "Tour du Chablais #1 Roche", "date": {"mer. 07.04.2010": {"year": 2010, "day": 7, "month": 4, "categories": {"M-M40": {"distance": 9, "rank": 2, "pace": 204000000000, "time": 1826.7}}, "weekday": "wednesday", "livingplace": "Ollon"}}, "location": "Ollon VD"}, "Stralugano, Lugano": {"latitude": 46.0036778, "longitude": 8.951051999999999, "race": "Stralugano, Lugano", "date": {"dim. 20.09.2009": {"year": 2009, "day": 20, "month": 9, "categories": {"10-M40": {"distance": 10, "rank": 2, "pace": 202000000000, "time": 2026.2}}, "weekday": "sunday", "livingplace": "Ch"}}, "location": "Lugano"}, "Tour du Chablais #4 Yvorne": {"latitude": NaN, "longitude": NaN, "race": "Tour du Chablais #4 Yvorne", "date": {"mer. 28.04.2010": {"year": 2010, "day": 28, "month": 4, "categories": {"M-M40": {"distance": 8, "rank": 3, "pace": 218000000000, "time": 1808.9}}, "weekday": "wednesday", "livingplace": "Ollon"}}, "location": "Les Mosses"}, "Morat-Fribourg": {"latitude": 46.92922110000001, "longitude": 7.120184, "race": "Morat-Fribourg", "date": {"sam. 03.10.2009": {"year": 2009, "day": 3, "month": 10, "categories": {"C-M40": {"distance": 17, "rank": 1, "pace": 218000000000, "time": 3759.4}}, "weekday": "saturday", "livingplace": "Ollon"}, "sam. 04.10.2008": {"year": 2008, "day": 4, "month": 10, "categories": {"C-M20": {"distance": 17, "rank": 5, "pace": 214000000000, "time": 3690.8}}, "weekday": "saturday", "livingplace": "Ollon"}}, "location": "Murten"}, "20km de Lausanne": {"latitude": 46.5196535, "longitude": 6.6322734, "race": "20km de Lausanne", "date": {"sam. 25.04.2009": {"year": 2009, "day": 25, "month": 4, "categories": {"20-H40": {"distance": 20, "rank": 3, "pace": 214000000000, "time": 4283.9}}, "weekday": "saturday", "livingplace": "Ollon"}}, "location": "Lausanne"}, "Z\u00fcrich Marathon, Teamrun und Cityrun": {"latitude": 47.3768866, "longitude": 8.541694, "race": "Z\u00fcrich Marathon, Teamrun und Cityrun", "date": {"dim. 17.04.2011": {"year": 2011, "day": 17, "month": 4, "categories": {"42-MElit": {"distance": 42, "rank": 25, "pace": 232000000000, "time": 9828.8}}, "weekday": "sunday", "livingplace": "Ollon"}}, "location": "Z\u00fcrich"}, "Tour du Chablais #2 St-Gingolph": {"latitude": 46.3835529, "longitude": 6.854975199999999, "race": "Tour du Chablais #2 St-Gingolph", "date": {"mer. 14.04.2010": {"year": 2010, "day": 14, "month": 4, "categories": {"M-M40": {"distance": 8, "rank": 4, "pace": 220000000000, "time": 1844.0}}, "weekday": "wednesday", "livingplace": "Ollon"}}, "location": "Bouveret"}, "Tour du Chablais #6 Mouthey": {"latitude": 46.3190253, "longitude": 6.970566, "race": "Tour du Chablais #6 Mouthey", "date": {"mer. 12.05.2010": {"year": 2010, "day": 12, "month": 5, "categories": {"M-M40": {"distance": 9, "rank": 5, "pace": 211000000000, "time": 1948.0}}, "weekday": "wednesday", "livingplace": "Ollon"}}, "location": "Aigle"}, "BCN Tour Neuch\u00e2tel": {"latitude": 46.9899874, "longitude": 6.9292732, "race": "BCN Tour Neuch\u00e2tel", "date": {"mer. 26.05.2010": {"year": 2010, "day": 26, "month": 5, "categories": {"HS2": {"distance": 10, "rank": 4, "pace": 237000000000, "time": 2305.6}}, "weekday": "wednesday", "livingplace": "Ollon"}}, "location": "Neuch\u00e2tel"}, "Montreux - Les Rochers de Naye": {"latitude": 46.4312213, "longitude": 6.9106799, "race": "Montreux - Les Rochers de Naye", "date": {"dim. 10.07.2011": {"year": 2011, "day": 10, "month": 7, "categories": {"M-HV\u00e9t1": {"distance": 19, "rank": 3, "pace": 335000000000, "time": 6299.9}}, "weekday": "sunday", "livingplace": "Ollon"}}, "location": "Montreux"}, "Tour du Chablais #3 Bex": {"latitude": 46.1782231, "longitude": 7.0223787, "race": "Tour du Chablais #3 Bex", "date": {"mer. 21.04.2010": {"year": 2010, "day": 21, "month": 4, "categories": {"M-M40": {"distance": 10, "rank": 4, "pace": 211000000000, "time": 2119.0}}, "weekday": "wednesday", "livingplace": "Ollon"}}, "location": "Evionnaz"}, "Les Traine-Savates, Cheseaux-sur-Lausanne": {"latitude": 46.585452, "longitude": 6.6047712, "race": "Les Traine-Savates, Cheseaux-sur-Lausanne", "date": {"sam. 04.04.2009": {"year": 2009, "day": 4, "month": 4, "categories": {"Hom V1": {"distance": 10, "rank": 4, "pace": 209000000000, "time": 2176.1}}, "weekday": "saturday", "livingplace": "Ollon"}}, "location": "Cheseaux-sur-Lausanne"}, "10km de Payerne": {"latitude": 46.8220266, "longitude": 6.9405663, "race": "10km de Payerne", "date": {"sam. 27.03.2010": {"year": 2010, "day": 27, "month": 3, "categories": {"M40": {"distance": 10, "rank": 7, "pace": 209000000000, "time": 2090.7}}, "weekday": "saturday", "livingplace": "Ollon"}}, "location": "Payerne"}}, "birth": 1969}