{"name": "Duperrut Christopher", "sex": "M", "races": {"Montreux - Les Rochers de Naye": {"latitude": 46.4312213, "longitude": 6.9106799, "race": "Montreux - Les Rochers de Naye", "date": {"dim. 06.07.2014": {"year": 2014, "day": 6, "month": 7, "categories": {"M-HElite": {"distance": 19, "rank": 39, "pace": 378000000000, "time": 7117.8}}, "weekday": "sunday", "livingplace": "Lausanne"}}, "location": "Montreux"}, "Course de l'Escalade, Gen\u00e8ve": {"latitude": 46.2043907, "longitude": 6.1431577, "race": "Course de l'Escalade, Gen\u00e8ve", "date": {"sam. 07.12.2013": {"year": 2013, "day": 7, "month": 12, "categories": {"Elite-M": {"distance": 7, "rank": 150, "pace": 223000000000, "time": 1620.8}}, "weekday": "saturday", "livingplace": "Lausanne"}, "sam. 05.12.2015": {"year": 2015, "day": 5, "month": 12, "categories": {"Elite-M": {"distance": 7, "rank": 226, "pace": 225000000000, "time": 1652.0}}, "weekday": "saturday", "livingplace": "Lausanne"}}, "location": "Gen\u00e8ve"}, "Lausanne Marathon": {"latitude": 46.5196535, "longitude": 6.6322734, "race": "Lausanne Marathon", "date": {"dim. 31.10.2010": {"year": 2010, "day": 31, "month": 10, "categories": {"21-H1": {"distance": 21, "rank": 19, "pace": 230000000000, "time": 4867.1}}, "weekday": "sunday", "livingplace": "Sullens"}}, "location": "Lausanne"}, "Sierre-Zinal, Sierre": {"latitude": 46.29413110000001, "longitude": 7.533536199999999, "race": "Sierre-Zinal, Sierre", "date": {"dim. 10.08.2014": {"year": 2014, "day": 10, "month": 8, "categories": {"ElitesHo": {"distance": 31, "rank": 120, "pace": 402000000000, "time": 12473.7}}, "weekday": "sunday", "livingplace": "Lausanne"}}, "location": "Sierre"}, "20km de Lausanne": {"latitude": 46.5196535, "longitude": 6.6322734, "race": "20km de Lausanne", "date": {"sam. 24.04.2010": {"year": 2010, "day": 24, "month": 4, "categories": {"10-H20": {"distance": 10, "rank": 12, "pace": 224000000000, "time": 2248.6}}, "weekday": "saturday", "livingplace": "Eracom 2"}}, "location": "Lausanne"}, "Les Traine-Savates, Cheseaux-sur-Lausanne": {"latitude": 46.585452, "longitude": 6.6047712, "race": "Les Traine-Savates, Cheseaux-sur-Lausanne", "date": {"sam. 13.04.2013": {"year": 2013, "day": 13, "month": 4, "categories": {"10-M20": {"distance": 10, "rank": 19, "pace": 227000000000, "time": 2345.0}}, "weekday": "saturday", "livingplace": "Sullens"}}, "location": "Cheseaux-sur-Lausanne"}}, "birth": 1988}