{"name": "Dupertuis M-Claude", "sex": "F", "races": {"Tour du Chablais #2 Rennaz": {"latitude": 46.3835529, "longitude": 6.854975199999999, "race": "Tour du Chablais #2 Rennaz", "date": {"mer. 04.05.2011": {"year": 2011, "day": 4, "month": 5, "categories": {"F-F40": {"distance": 9, "rank": 20, "pace": 289000000000, "time": 2704.0}}, "weekday": "wednesday", "livingplace": "Ollon"}}, "location": "Bouveret"}, "Morat-Fribourg": {"latitude": 46.92922110000001, "longitude": 7.120184, "race": "Morat-Fribourg", "date": {"sam. 02.10.2010": {"year": 2010, "day": 2, "month": 10, "categories": {"17-W40": {"distance": 17, "rank": 84, "pace": 339000000000, "time": 5826.3}}, "weekday": "saturday", "livingplace": "Ollon"}, "sam. 04.10.2008": {"year": 2008, "day": 4, "month": 10, "categories": {"C-W35": {"distance": 17, "rank": 100, "pace": 335000000000, "time": 5762.0}}, "weekday": "saturday", "livingplace": "Ollon"}}, "location": "Murten"}, "Tour du Chablais #3 Le Bouveret": {"latitude": 46.1782231, "longitude": 7.0223787, "race": "Tour du Chablais #3 Le Bouveret", "date": {"mer. 11.05.2011": {"year": 2011, "day": 11, "month": 5, "categories": {"F-F40": {"distance": 10, "rank": 17, "pace": 292000000000, "time": 2920.9}}, "weekday": "wednesday", "livingplace": "Ollon"}}, "location": "Evionnaz"}, "Schweizer Frauenlauf Bern": {"latitude": 46.9479739, "longitude": 7.4474468, "race": "Schweizer Frauenlauf Bern", "date": {"dim. 01.06.2008": {"year": 2008, "day": 1, "month": 6, "categories": {"W35-10": {"distance": 10, "rank": 125, "pace": 312000000000, "time": 3128.8}}, "weekday": "sunday", "livingplace": "Ollon"}, "dim. 13.06.2010": {"year": 2010, "day": 13, "month": 6, "categories": {"10-W40": {"distance": 10, "rank": 97, "pace": 303000000000, "time": 3036.3}}, "weekday": "sunday", "livingplace": "Ollon"}, "dim. 14.06.2009": {"year": 2009, "day": 14, "month": 6, "categories": {"10-W40": {"distance": 10, "rank": 201, "pace": 327000000000, "time": 3278.5}}, "weekday": "sunday", "livingplace": "Ollon"}}, "location": "Bern"}, "20km de Lausanne": {"latitude": 46.5196535, "longitude": 6.6322734, "race": "20km de Lausanne", "date": {"sam. 30.04.2011": {"year": 2011, "day": 30, "month": 4, "categories": {"20-F40": {"distance": 20, "rank": 40, "pace": 319000000000, "time": 6381.0}}, "weekday": "saturday", "livingplace": "Ollon"}, "sam. 24.04.2010": {"year": 2010, "day": 24, "month": 4, "categories": {"20-F40": {"distance": 20, "rank": 47, "pace": 331000000000, "time": 6627.5}}, "weekday": "saturday", "livingplace": "Ollon"}}, "location": "Lausanne"}, "Tour du Chablais #1 Lavey": {"latitude": 46.2957462, "longitude": 6.9916269, "race": "Tour du Chablais #1 Lavey", "date": {"mer. 27.04.2011": {"year": 2011, "day": 27, "month": 4, "categories": {"F-F40": {"distance": 9, "rank": 20, "pace": 295000000000, "time": 2655.6}}, "weekday": "wednesday", "livingplace": "Ollon"}}, "location": "Ollon VD"}, "Kerzerslauf": {"latitude": 46.97488999999999, "longitude": 7.1954365, "race": "Kerzerslauf", "date": {"sam. 20.03.2010": {"year": 2010, "day": 20, "month": 3, "categories": {"15-F40": {"distance": 15, "rank": 127, "pace": 334000000000, "time": 5020.5}}, "weekday": "saturday", "livingplace": "Ollon"}}, "location": "Kerzers"}}, "birth": 1969}