{"name": "D\u00fcrhammer Ursula", "sex": "F", "races": {"Morat-Fribourg": {"latitude": 46.92922110000001, "longitude": 7.120184, "race": "Morat-Fribourg", "date": {"sam. 04.10.2014": {"year": 2014, "day": 4, "month": 10, "categories": {"17-W45": {"distance": 17, "rank": 158, "pace": 365000000000, "time": 6270.8}}, "weekday": "saturday", "livingplace": "Schmitten"}}, "location": "Murten"}, "Basler Stadtlauf": {"latitude": 47.5595986, "longitude": 7.5885761, "race": "Basler Stadtlauf", "date": {"sam. 29.11.2014": {"year": 2014, "day": 29, "month": 11, "categories": {"F45": {"distance": 6, "rank": 80, "pace": 312000000000, "time": 1719.4}}, "weekday": "saturday", "livingplace": "Schmitten"}}, "location": "Basel"}, "Schweizer Frauenlauf Bern": {"latitude": 46.9479739, "longitude": 7.4474468, "race": "Schweizer Frauenlauf Bern", "date": {"dim. 10.06.2012": {"year": 2012, "day": 10, "month": 6, "categories": {"5-W45": {"distance": 5, "rank": 176, "pace": 323000000000, "time": 1616.3}}, "weekday": "sunday", "livingplace": "Dudingen"}, "dim. 15.06.2014": {"year": 2014, "day": 15, "month": 6, "categories": {"10-W45": {"distance": 10, "rank": 263, "pace": 340000000000, "time": 3409.5}}, "weekday": "sunday", "livingplace": "Schmitten"}, "dim. 13.06.2010": {"year": 2010, "day": 13, "month": 6, "categories": {"5-W40": {"distance": 5, "rank": 146, "pace": 322000000000, "time": 1611.2}}, "weekday": "sunday", "livingplace": "Dudingen"}, "dim. 09.06.2013": {"year": 2013, "day": 9, "month": 6, "categories": {"5-W45": {"distance": 5, "rank": 193, "pace": 336000000000, "time": 1680.3}}, "weekday": "sunday", "livingplace": "Schmitten"}, "dim. 19.06.2011": {"year": 2011, "day": 19, "month": 6, "categories": {"5-W45": {"distance": 5, "rank": 166, "pace": 320000000000, "time": 1604.2}}, "weekday": "sunday", "livingplace": "Dudingen"}}, "location": "Bern"}, "Groupe E Tour Fribourg #5, Givisiez": {"latitude": 46.8128615, "longitude": 7.131657799999999, "race": "Groupe E Tour Fribourg #5, Givisiez", "date": {"mer. 17.09.2014": {"year": 2014, "day": 17, "month": 9, "categories": {"D-Dam3": {"distance": 10, "rank": 32, "pace": 370000000000, "time": 3804.4}}, "weekday": "wednesday", "livingplace": "Schmitten"}}, "location": "Givisiez"}, "Kerzerslauf": {"latitude": 46.97488999999999, "longitude": 7.1954365, "race": "Kerzerslauf", "date": {"sam. 20.03.2010": {"year": 2010, "day": 20, "month": 3, "categories": {"5-F05": {"distance": 5, "rank": 140, "pace": 353000000000, "time": 1769.3}}, "weekday": "saturday", "livingplace": "Dudingen"}}, "location": "Kerzers"}, "Groupe E Tour Fribourg #1, Cousset": {"latitude": 46.81832, "longitude": 6.977279999999999, "race": "Groupe E Tour Fribourg #1, Cousset", "date": {"mer. 20.08.2014": {"year": 2014, "day": 20, "month": 8, "categories": {"D-Dam3": {"distance": 9, "rank": 21, "pace": 346000000000, "time": 3252.7}}, "weekday": "wednesday", "livingplace": "Schmitten"}}, "location": "Cousset"}}, "birth": 1966}