{"name": "D\u00fcrst Marisa", "sex": "F", "races": {"Tour du Pays de Vaud #1, Penthaz": {"latitude": 46.5993131, "longitude": 6.539251200000001, "race": "Tour du Pays de Vaud #1, Penthaz", "date": {"mer. 13.08.2014": {"year": 2014, "day": 13, "month": 8, "categories": {"D-Sen2": {"distance": 9, "rank": 36, "pace": 361000000000, "time": 3083.6}}, "weekday": "wednesday", "livingplace": "Epalinges"}}, "location": "Penthaz"}, "Tour du Pays de Vaud #2 - Mezi\u00e8res": {"latitude": 46.5955273, "longitude": 6.7702883, "race": "Tour du Pays de Vaud #2 - Mezi\u00e8res", "date": {"mer. 21.08.2013": {"year": 2013, "day": 21, "month": 8, "categories": {"D-Sen2": {"distance": 8, "rank": 56, "pace": 401000000000, "time": 3255.2}}, "weekday": "wednesday", "livingplace": "Epalinges"}}, "location": "M\u00e9zi\u00e8res VD"}, "Tour du Pays de Vaud #2, Mezi\u00e8res": {"latitude": 46.5955273, "longitude": 6.7702883, "race": "Tour du Pays de Vaud #2, Mezi\u00e8res", "date": {"mer. 20.08.2014": {"year": 2014, "day": 20, "month": 8, "categories": {"D-Sen2": {"distance": 8, "rank": 45, "pace": 396000000000, "time": 3211.2}}, "weekday": "wednesday", "livingplace": "Epalinges"}}, "location": "M\u00e9zi\u00e8res VD"}, "Tour du Pays de Vaud printanier #1 Moudon": {"latitude": 46.3832683, "longitude": 6.2347852, "race": "Tour du Pays de Vaud printanier #1 Moudon", "date": {"mer. 29.05.2013": {"year": 2013, "day": 29, "month": 5, "categories": {"D-Sen2": {"distance": 8, "rank": 18, "pace": 371000000000, "time": 3178.4}}, "weekday": "wednesday", "livingplace": "Epalinges"}, "mer. 04.06.2014": {"year": 2014, "day": 4, "month": 6, "categories": {"D-Sen2": {"distance": 8, "rank": 16, "pace": 373000000000, "time": 3135.7}}, "weekday": "wednesday", "livingplace": "Epalinges"}}, "location": "Nyon"}, "Tour du Pays de Vaud #3 - Mezi\u00e8res": {"latitude": 46.7784736, "longitude": 6.641183, "race": "Tour du Pays de Vaud #3 - Mezi\u00e8res", "date": {"mer. 22.08.2012": {"year": 2012, "day": 22, "month": 8, "categories": {"D-Sen2": {"distance": 8, "rank": 50, "pace": 403000000000, "time": 3385.2}}, "weekday": "wednesday", "livingplace": "Epalinges"}}, "location": "Yverdon-les-Bains"}, "Tour du pays de Vaud #1 - Penthaz": {"latitude": 46.5993131, "longitude": 6.539251200000001, "race": "Tour du pays de Vaud #1 - Penthaz", "date": {"mer. 08.08.2012": {"year": 2012, "day": 8, "month": 8, "categories": {"D-Sen2": {"distance": 9, "rank": 40, "pace": 357000000000, "time": 3048.9}}, "weekday": "wednesday", "livingplace": "Epalinges"}}, "location": "Penthaz"}, "Tour du Pays de Vaud #4 - La Sarraz": {"latitude": 46.7088129, "longitude": 6.5707689, "race": "Tour du Pays de Vaud #4 - La Sarraz", "date": {"mer. 29.08.2012": {"year": 2012, "day": 29, "month": 8, "categories": {"D-Sen2": {"distance": 9, "rank": 57, "pace": 352000000000, "time": 2995.3}}, "weekday": "wednesday", "livingplace": "Epalinges"}}, "location": "Chavornay"}, "Tour du Pays de Vaud #4, La Sarraz": {"latitude": 46.7088129, "longitude": 6.5707689, "race": "Tour du Pays de Vaud #4, La Sarraz", "date": {"mer. 03.09.2014": {"year": 2014, "day": 3, "month": 9, "categories": {"D-Sen2": {"distance": 9, "rank": 41, "pace": 356000000000, "time": 3029.0}}, "weekday": "wednesday", "livingplace": "Epalinges"}}, "location": "Chavornay"}, "20km de Lausanne": {"latitude": 46.5196535, "longitude": 6.6322734, "race": "20km de Lausanne", "date": {"sam. 27.04.2013": {"year": 2013, "day": 27, "month": 4, "categories": {"10-F45": {"distance": 10, "rank": 170, "pace": 365000000000, "time": 3658.6}}, "weekday": "saturday", "livingplace": "Epalinges"}, "sam. 25.04.2015": {"year": 2015, "day": 25, "month": 4, "categories": {"10-F45": {"distance": 10, "rank": 119, "pace": 346000000000, "time": 3469.9}}, "weekday": "saturday", "livingplace": "Epalinges"}, "sam. 26.04.2014": {"year": 2014, "day": 26, "month": 4, "categories": {"10-F45": {"distance": 10, "rank": 126, "pace": 354000000000, "time": 3542.4}}, "weekday": "saturday", "livingplace": "Epalinges"}}, "location": "Lausanne"}, "Schweizer Frauenlauf Bern": {"latitude": 46.9479739, "longitude": 7.4474468, "race": "Schweizer Frauenlauf Bern", "date": {"dim. 09.06.2013": {"year": 2013, "day": 9, "month": 6, "categories": {"10-W45": {"distance": 10, "rank": 362, "pace": 359000000000, "time": 3590.2}}, "weekday": "sunday", "livingplace": "Epalinges"}}, "location": "Bern"}}, "birth": 1968}