{"name": "Duvanel Patrick", "sex": "M", "races": {"Glacier 3000 Run, Gstaad": {"latitude": 46.4717588, "longitude": 7.2865728, "race": "Glacier 3000 Run, Gstaad", "date": {"sam. 06.08.2011": {"year": 2011, "day": 6, "month": 8, "categories": {"M30": {"distance": 26, "rank": 53, "pace": 506000000000, "time": 13158.7}}, "weekday": "saturday", "livingplace": "Le Locle"}, "sam. 08.08.2015": {"year": 2015, "day": 8, "month": 8, "categories": {"M40": {"distance": 26, "rank": 94, "pace": 540000000000, "time": 14064.4}}, "weekday": "saturday", "livingplace": "Le Locle"}}, "location": "Gstaad"}, "Morat-Fribourg": {"latitude": 46.92922110000001, "longitude": 7.120184, "race": "Morat-Fribourg", "date": {"sam. 03.10.2009": {"year": 2009, "day": 3, "month": 10, "categories": {"C-M20": {"distance": 17, "rank": 460, "pace": 275000000000, "time": 4732.8}}, "weekday": "saturday", "livingplace": "Le Locle"}}, "location": "Murten"}, "La Trotteuse-Tissot, La Chaux-de-Fonds": {"latitude": 47.1034892, "longitude": 6.832783800000001, "race": "La Trotteuse-Tissot, La Chaux-de-Fonds", "date": {"sam. 12.12.2015": {"year": 2015, "day": 12, "month": 12, "categories": {"GC-H40": {"distance": 8, "rank": 54, "pace": 259000000000, "time": 2074.5}}, "weekday": "saturday", "livingplace": "Le Locle"}, "sam. 08.12.2012": {"year": 2012, "day": 8, "month": 12, "categories": {"GC-H30": {"distance": 8, "rank": 50, "pace": 288000000000, "time": 2308.5}}, "weekday": "saturday", "livingplace": "Pelouse bros. And co"}}, "location": "La Chaux-de-Fonds"}, "BCN Tour Le Landeron": {"latitude": 46.9668714, "longitude": 6.8589727, "race": "BCN Tour Le Landeron", "date": {"mer. 22.04.2009": {"year": 2009, "day": 22, "month": 4, "categories": {"HS1": {"distance": 11, "rank": 132, "pace": 313000000000, "time": 3476.7}}, "weekday": "wednesday", "livingplace": "Le Locle"}}, "location": "Colombier NE"}, "Sierre-Zinal, Sierre": {"latitude": 46.29413110000001, "longitude": 7.533536199999999, "race": "Sierre-Zinal, Sierre", "date": {"dim. 12.08.2012": {"year": 2012, "day": 12, "month": 8, "categories": {"Elites": {"distance": 31, "rank": 258, "pace": 506000000000, "time": 15691.6}}, "weekday": "sunday", "livingplace": "Le Locle"}}, "location": "Sierre"}, "20km de Lausanne": {"latitude": 46.5196535, "longitude": 6.6322734, "race": "20km de Lausanne", "date": {"sam. 24.04.2010": {"year": 2010, "day": 24, "month": 4, "categories": {"20-H30": {"distance": 20, "rank": 179, "pace": 275000000000, "time": 5512.3}}, "weekday": "saturday", "livingplace": "Le Locle"}, "sam. 26.04.2014": {"year": 2014, "day": 26, "month": 4, "categories": {"20-H30": {"distance": 20, "rank": 201, "pace": 269000000000, "time": 5396.1}}, "weekday": "saturday", "livingplace": "Le Locle"}}, "location": "Lausanne"}, "BCN Tour Le Locle": {"latitude": 46.999113, "longitude": 6.733554799999999, "race": "BCN Tour Le Locle", "date": {"mer. 05.05.2010": {"year": 2010, "day": 5, "month": 5, "categories": {"HS1": {"distance": 11, "rank": 87, "pace": 289000000000, "time": 3158.6}}, "weekday": "wednesday", "livingplace": "Le Locle"}}, "location": "Les Ponts-de-Martel"}, "Zermatt Marathon, Zermatt": {"latitude": NaN, "longitude": NaN, "race": "Zermatt Marathon, Zermatt", "date": {"sam. 10.07.2010": {"year": 2010, "day": 10, "month": 7, "categories": {"M30": {"distance": 42, "rank": 89, "pace": 454000000000, "time": 19160.9}}, "weekday": "saturday", "livingplace": "Le Locle"}}, "location": "Zermatt"}, "Jungfrau-Marathon, Interlaken": {"latitude": NaN, "longitude": NaN, "race": "Jungfrau-Marathon, Interlaken", "date": {"sam. 10.09.2011": {"year": 2011, "day": 10, "month": 9, "categories": {"M20": {"distance": 42, "rank": 399, "pace": 428000000000, "time": 18069.3}}, "weekday": "saturday", "livingplace": "Le Locle"}}, "location": "Interlaken"}, "D\u00e9fi Val-de-Travers, Couvet": {"latitude": 46.9262933, "longitude": 6.6324944, "race": "D\u00e9fi Val-de-Travers, Couvet", "date": {"sam. 21.06.2008": {"year": 2008, "day": 21, "month": 6, "categories": {"SHS1": {"distance": 20, "rank": 9, "pace": 320000000000, "time": 6311.9}}, "weekday": "saturday", "livingplace": "Le Locle"}, "sam. 19.06.2010": {"year": 2010, "day": 19, "month": 6, "categories": {"21-HSen1": {"distance": 20, "rank": 6, "pace": 295000000000, "time": 5824.8}}, "weekday": "saturday", "livingplace": "Le Locle"}}, "location": "Couvet"}, "BCN Tour Ponts-de-Martel": {"latitude": 47.0624261, "longitude": 6.9175754, "race": "BCN Tour Ponts-de-Martel", "date": {"mer. 28.04.2010": {"year": 2010, "day": 28, "month": 4, "categories": {"HS1": {"distance": 11, "rank": 53, "pace": 273000000000, "time": 3064.5}}, "weekday": "wednesday", "livingplace": "Le Locle"}}, "location": "Ch\u00e9zard-St-Martin"}, "BCN Tour Les Ponts de Martel": {"latitude": 46.9262933, "longitude": 6.6324944, "race": "BCN Tour Les Ponts de Martel", "date": {"mer. 18.05.2011": {"year": 2011, "day": 18, "month": 5, "categories": {"HS1": {"distance": 13, "rank": 77, "pace": 282000000000, "time": 3612.1}}, "weekday": "wednesday", "livingplace": "Le Locle"}}, "location": "Couvet"}, "BCN Tour La Chaux-de-fonds": {"latitude": 47.1034892, "longitude": 6.832783800000001, "race": "BCN Tour La Chaux-de-fonds", "date": {"mer. 12.05.2010": {"year": 2010, "day": 12, "month": 5, "categories": {"HS1": {"distance": 11, "rank": 53, "pace": 325000000000, "time": 3484.5}}, "weekday": "wednesday", "livingplace": "Le Locle"}}, "location": "La Chaux-de-Fonds"}, "BCN Tour Colombier": {"latitude": 46.9668714, "longitude": 6.8589727, "race": "BCN Tour Colombier", "date": {"mer. 23.04.2008": {"year": 2008, "day": 23, "month": 4, "categories": {"HS1": {"distance": 10, "rank": 55, "pace": 274000000000, "time": 2804.1}}, "weekday": "wednesday", "livingplace": "Le Locle"}}, "location": "Colombier NE"}}, "birth": 1975}