{"name": "Egger Pierre-Alain", "sex": "M", "races": {"Tour du Chablais #1 Roche": {"latitude": 46.2957462, "longitude": 6.9916269, "race": "Tour du Chablais #1 Roche", "date": {"mer. 07.04.2010": {"year": 2010, "day": 7, "month": 4, "categories": {"M-M50": {"distance": 9, "rank": 80, "pace": 339000000000, "time": 3036.8}}, "weekday": "wednesday", "livingplace": "Blonay"}, "mer. 03.04.2013": {"year": 2013, "day": 3, "month": 4, "categories": {"M-M50": {"distance": 9, "rank": 82, "pace": 322000000000, "time": 2861.2}}, "weekday": "wednesday", "livingplace": "Blonay"}}, "location": "Ollon VD"}, "Tour du Chablais #2 Rennaz": {"latitude": 46.3835529, "longitude": 6.854975199999999, "race": "Tour du Chablais #2 Rennaz", "date": {"mer. 04.05.2011": {"year": 2011, "day": 4, "month": 5, "categories": {"M-M50": {"distance": 9, "rank": 91, "pace": 328000000000, "time": 3071.8}}, "weekday": "wednesday", "livingplace": "Blonay"}}, "location": "Bouveret"}, "Morat-Fribourg": {"latitude": 46.92922110000001, "longitude": 7.120184, "race": "Morat-Fribourg", "date": {"sam. 05.10.2013": {"year": 2013, "day": 5, "month": 10, "categories": {"17-M55": {"distance": 17, "rank": 259, "pace": 354000000000, "time": 6180.8}}, "weekday": "saturday", "livingplace": "Blonay"}, "sam. 02.10.2010": {"year": 2010, "day": 2, "month": 10, "categories": {"17-M50": {"distance": 17, "rank": 413, "pace": 362000000000, "time": 6221.6}}, "weekday": "saturday", "livingplace": "Blonay"}, "sam. 01.10.2011": {"year": 2011, "day": 1, "month": 10, "categories": {"17-M50": {"distance": 17, "rank": 443, "pace": 368000000000, "time": 6334.2}}, "weekday": "saturday", "livingplace": "Blonay"}, "sam. 06.10.2012": {"year": 2012, "day": 6, "month": 10, "categories": {"17-M55": {"distance": 17, "rank": 194, "pace": 342000000000, "time": 5974.1}}, "weekday": "saturday", "livingplace": "Blonay"}}, "location": "Murten"}, "Tour du Chablais #3 Le Bouveret": {"latitude": 46.1782231, "longitude": 7.0223787, "race": "Tour du Chablais #3 Le Bouveret", "date": {"mer. 11.05.2011": {"year": 2011, "day": 11, "month": 5, "categories": {"M-M50": {"distance": 10, "rank": 79, "pace": 317000000000, "time": 3179.4}}, "weekday": "wednesday", "livingplace": "Blonay"}}, "location": "Evionnaz"}, "Tour du pays de Vaud #1 - Mezi\u00e8res": {"latitude": 46.7784736, "longitude": 6.641183, "race": "Tour du pays de Vaud #1 - Mezi\u00e8res", "date": {"mer. 10.08.2011": {"year": 2011, "day": 10, "month": 8, "categories": {"H-Sen3": {"distance": 9, "rank": 78, "pace": 329000000000, "time": 2797.3}}, "weekday": "wednesday", "livingplace": "Blonay"}}, "location": "Yverdon-les-Bains"}, "Tour du Chablais #6 Monthey": {"latitude": 46.3190253, "longitude": 6.970566, "race": "Tour du Chablais #6 Monthey", "date": {"mer. 08.05.2013": {"year": 2013, "day": 8, "month": 5, "categories": {"M-M50": {"distance": 9, "rank": 77, "pace": 324000000000, "time": 3023.6}}, "weekday": "wednesday", "livingplace": "Blonay"}}, "location": "Aigle"}, "Sierre-Zinal, Sierre": {"latitude": 46.29413110000001, "longitude": 7.533536199999999, "race": "Sierre-Zinal, Sierre", "date": {"dim. 12.08.2012": {"year": 2012, "day": 12, "month": 8, "categories": {"V\u00e9t_II": {"distance": 31, "rank": 107, "pace": 643000000000, "time": 19963.8}}, "weekday": "sunday", "livingplace": "Blonay"}}, "location": "Sierre"}, "20km de Lausanne": {"latitude": 46.5196535, "longitude": 6.6322734, "race": "20km de Lausanne", "date": {"sam. 28.04.2012": {"year": 2012, "day": 28, "month": 4, "categories": {"20-H55": {"distance": 20, "rank": 90, "pace": 364000000000, "time": 7288.3}}, "weekday": "saturday", "livingplace": "Blonay"}}, "location": "Lausanne"}, "Tour du Chablais #2 Yvorne": {"latitude": 46.3835529, "longitude": 6.854975199999999, "race": "Tour du Chablais #2 Yvorne", "date": {"mer. 10.04.2013": {"year": 2013, "day": 10, "month": 4, "categories": {"M-M50": {"distance": 8, "rank": 48, "pace": 332000000000, "time": 2656.9}}, "weekday": "wednesday", "livingplace": "Blonay"}}, "location": "Bouveret"}, "Tour du Chablais #2 St-Gingolph": {"latitude": 46.3835529, "longitude": 6.854975199999999, "race": "Tour du Chablais #2 St-Gingolph", "date": {"mer. 14.04.2010": {"year": 2010, "day": 14, "month": 4, "categories": {"M-M50": {"distance": 8, "rank": 68, "pace": 353000000000, "time": 2952.1}}, "weekday": "wednesday", "livingplace": "Blonay"}}, "location": "Bouveret"}, "Tour du Chablais #4 Champ\u00e9ry": {"latitude": NaN, "longitude": NaN, "race": "Tour du Chablais #4 Champ\u00e9ry", "date": {"mer. 02.05.2012": {"year": 2012, "day": 2, "month": 5, "categories": {"M-M50": {"distance": 8, "rank": 58, "pace": 309000000000, "time": 2567.6}}, "weekday": "wednesday", "livingplace": "Blonay"}}, "location": "Les Mosses"}, "Tour du Chablais #1 Montreux": {"latitude": 46.2957462, "longitude": 6.9916269, "race": "Tour du Chablais #1 Montreux", "date": {"mer. 11.04.2012": {"year": 2012, "day": 11, "month": 4, "categories": {"M-M50": {"distance": 8, "rank": 73, "pace": 330000000000, "time": 2511.5}}, "weekday": "wednesday", "livingplace": "Blonay"}}, "location": "Ollon VD"}, "Tour du Chablais #3 Bouveret": {"latitude": 46.1782231, "longitude": 7.0223787, "race": "Tour du Chablais #3 Bouveret", "date": {"mer. 17.04.2013": {"year": 2013, "day": 17, "month": 4, "categories": {"M-M50": {"distance": 10, "rank": 60, "pace": 317000000000, "time": 3175.7}}, "weekday": "wednesday", "livingplace": "Blonay"}}, "location": "Evionnaz"}, "Tour du pays de Vaud #5 - Penthaz": {"latitude": 46.5993131, "longitude": 6.539251200000001, "race": "Tour du pays de Vaud #5 - Penthaz", "date": {"mer. 07.09.2011": {"year": 2011, "day": 7, "month": 9, "categories": {"H-Sen3": {"distance": 8, "rank": 70, "pace": 360000000000, "time": 3012.5}}, "weekday": "wednesday", "livingplace": "Blonay"}}, "location": "Penthaz"}, "Tour du Chablais #4 Yvorne": {"latitude": NaN, "longitude": NaN, "race": "Tour du Chablais #4 Yvorne", "date": {"mer. 28.04.2010": {"year": 2010, "day": 28, "month": 4, "categories": {"M-M50": {"distance": 8, "rank": 63, "pace": 349000000000, "time": 2891.8}}, "weekday": "wednesday", "livingplace": "Blonay"}}, "location": "Les Mosses"}, "Tour du Chablais #3 Collombey-Muraz": {"latitude": 46.1782231, "longitude": 7.0223787, "race": "Tour du Chablais #3 Collombey-Muraz", "date": {"mer. 25.04.2012": {"year": 2012, "day": 25, "month": 4, "categories": {"M-M50": {"distance": 9, "rank": 77, "pace": 336000000000, "time": 3022.0}}, "weekday": "wednesday", "livingplace": "Blonay"}}, "location": "Evionnaz"}}, "birth": 1957}