{"name": "Egli Martin", "sex": "M", "races": {"Montreux - Les Rochers de Naye": {"latitude": 46.4312213, "longitude": 6.9106799, "race": "Montreux - Les Rochers de Naye", "date": {"dim. 05.07.2015": {"year": 2015, "day": 5, "month": 7, "categories": {"M-HV\u00e9t1": {"distance": 19, "rank": 94, "pace": 530000000000, "time": 9974.7}}, "weekday": "sunday", "livingplace": "Freiburg"}}, "location": "Montreux"}, "Morat-Fribourg": {"latitude": 46.92922110000001, "longitude": 7.120184, "race": "Morat-Fribourg", "date": {"sam. 03.10.2015": {"year": 2015, "day": 3, "month": 10, "categories": {"17-M40": {"distance": 17, "rank": 143, "pace": 277000000000, "time": 4760.3}}, "weekday": "saturday", "livingplace": "Freiburg"}, "sam. 04.10.2014": {"year": 2014, "day": 4, "month": 10, "categories": {"17-M20": {"distance": 17, "rank": 355, "pace": 267000000000, "time": 4593.0}}, "weekday": "saturday", "livingplace": "Freiburg"}}, "location": "Murten"}, "Winterthur Marathon": {"latitude": 39.8088766, "longitude": -75.6037351, "race": "Winterthur Marathon", "date": {"dim. 29.05.2011": {"year": 2011, "day": 29, "month": 5, "categories": {"5-SLM": {"distance": 5, "rank": 4, "pace": 282000000000, "time": 1468.9}}, "weekday": "sunday", "livingplace": "Fribourg"}}, "location": "Winterthur"}, "Eiger Ultra Trail, Grindelwald": {"latitude": 46.624164, "longitude": 8.0413962, "race": "Eiger Ultra Trail, Grindelwald", "date": {"sam. 19.07.2014": {"year": 2014, "day": 19, "month": 7, "categories": {"C-H": {"distance": 16, "rank": 61, "pace": 449000000000, "time": 7185.2}}, "weekday": "saturday", "livingplace": "Freiburg"}}, "location": "Grindelwald"}, "Aletsch-Halbmarathon, Bettmeralp": {"latitude": NaN, "longitude": NaN, "race": "Aletsch-Halbmarathon, Bettmeralp", "date": {"dim. 28.06.2015": {"year": 2015, "day": 28, "month": 6, "categories": {"M40": {"distance": 21, "rank": 188, "pace": 572000000000, "time": 12071.1}}, "weekday": "sunday", "livingplace": "Freiburg"}}, "location": "Bettmeralp"}, "Z\u00fcrcher Silvesterlauf, Z\u00fcrich": {"latitude": 47.3768866, "longitude": 8.541694, "race": "Z\u00fcrcher Silvesterlauf, Z\u00fcrich", "date": {"dim. 12.12.2010": {"year": 2010, "day": 12, "month": 12, "categories": {"4-MenAK1": {"distance": 4, "rank": 5, "pace": 245000000000, "time": 1078.3}}, "weekday": "sunday", "livingplace": "Fribourg"}}, "location": "Z\u00fcrich"}, "Z\u00fcrich Marathon, Teamrun und Cityrun": {"latitude": 47.3768866, "longitude": 8.541694, "race": "Z\u00fcrich Marathon, Teamrun und Cityrun", "date": {"dim. 22.04.2012": {"year": 2012, "day": 22, "month": 4, "categories": {"42-M30": {"distance": 42, "rank": 551, "pace": 424000000000, "time": 17897.8}}, "weekday": "sunday", "livingplace": "Fribourg"}}, "location": "Z\u00fcrich"}}, "birth": 1975}