{"name": "Einpaul J\u00fcrgen", "sex": "M", "races": {"Tour du Pays de Vaud #3 - Chavornay": {"latitude": 46.7784736, "longitude": 6.641183, "race": "Tour du Pays de Vaud #3 - Chavornay", "date": {"mer. 28.08.2013": {"year": 2013, "day": 28, "month": 8, "categories": {"H-Sen1": {"distance": 9, "rank": 5, "pace": 214000000000, "time": 1909.4}}, "weekday": "wednesday", "livingplace": "Lausanne"}}, "location": "Yverdon-les-Bains"}, "Glacier 3000 Run, Gstaad": {"latitude": 46.4717588, "longitude": 7.2865728, "race": "Glacier 3000 Run, Gstaad", "date": {"sam. 08.08.2015": {"year": 2015, "day": 8, "month": 8, "categories": {"M30": {"distance": 26, "rank": 12, "pace": 413000000000, "time": 10756.6}}, "weekday": "saturday", "livingplace": "Renens"}}, "location": "Gstaad"}, "D\u00e9fi du vignoble, Cully": {"latitude": 45.565921, "longitude": -122.6066627, "race": "D\u00e9fi du vignoble, Cully", "date": {"mer. 14.05.2014": {"year": 2014, "day": 14, "month": 5, "categories": {"M30": {"distance": 4, "rank": 5, "pace": 408000000000, "time": 1488.1}}, "weekday": "wednesday", "livingplace": "Renens"}}, "location": "Cully"}, "Morat-Fribourg": {"latitude": 46.92922110000001, "longitude": 7.120184, "race": "Morat-Fribourg", "date": {"sam. 05.10.2013": {"year": 2013, "day": 5, "month": 10, "categories": {"17-M20": {"distance": 17, "rank": 60, "pace": 226000000000, "time": 3959.2}}, "weekday": "saturday", "livingplace": "Lausanne"}}, "location": "Murten"}, "Tour du Pays de Vaud #3 - Mezi\u00e8res": {"latitude": 46.7784736, "longitude": 6.641183, "race": "Tour du Pays de Vaud #3 - Mezi\u00e8res", "date": {"mer. 22.08.2012": {"year": 2012, "day": 22, "month": 8, "categories": {"H-Hom": {"distance": 8, "rank": 3, "pace": 229000000000, "time": 1923.7}}, "weekday": "wednesday", "livingplace": "Lausanne"}}, "location": "Yverdon-les-Bains"}, "20km de Lausanne": {"latitude": 46.5196535, "longitude": 6.6322734, "race": "20km de Lausanne", "date": {"sam. 25.04.2015": {"year": 2015, "day": 25, "month": 4, "categories": {"20-H30": {"distance": 20, "rank": 9, "pace": 216000000000, "time": 4337.7}}, "weekday": "saturday", "livingplace": "Renens"}, "sam. 27.04.2013": {"year": 2013, "day": 27, "month": 4, "categories": {"20-H30": {"distance": 20, "rank": 18, "pace": 223000000000, "time": 4471.7}}, "weekday": "saturday", "livingplace": "Lausanne"}, "sam. 28.04.2012": {"year": 2012, "day": 28, "month": 4, "categories": {"20-H20": {"distance": 20, "rank": 17, "pace": 232000000000, "time": 4649.9}}, "weekday": "saturday", "livingplace": "Lausanne"}, "sam. 26.04.2014": {"year": 2014, "day": 26, "month": 4, "categories": {"20-H30": {"distance": 20, "rank": 21, "pace": 228000000000, "time": 4566.0}}, "weekday": "saturday", "livingplace": "Renens"}}, "location": "Lausanne"}, "Humani'Trail, Les Diablerets": {"latitude": 46.351389, "longitude": 7.158055999999999, "race": "Humani'Trail, Les Diablerets", "date": {"sam. 21.09.2013": {"year": 2013, "day": 21, "month": 9, "categories": {"25-HS": {"distance": 25, "rank": 4, "pace": 415000000000, "time": 10380.3}}, "weekday": "saturday", "livingplace": "Lausanne"}}, "location": "Les Diablerets"}, "Tour du Pays de Vaud #4, La Sarraz": {"latitude": 46.7088129, "longitude": 6.5707689, "race": "Tour du Pays de Vaud #4, La Sarraz", "date": {"mer. 03.09.2014": {"year": 2014, "day": 3, "month": 9, "categories": {"H-Sen1": {"distance": 9, "rank": 4, "pace": 219000000000, "time": 1863.3}}, "weekday": "wednesday", "livingplace": "Renens"}}, "location": "Chavornay"}, "Tour du Pays de Vaud #3, Chavornay": {"latitude": 46.7784736, "longitude": 6.641183, "race": "Tour du Pays de Vaud #3, Chavornay", "date": {"mer. 27.08.2014": {"year": 2014, "day": 27, "month": 8, "categories": {"H-Sen1": {"distance": 9, "rank": 3, "pace": 226000000000, "time": 1946.5}}, "weekday": "wednesday", "livingplace": "Renens"}}, "location": "Yverdon-les-Bains"}, "Tour du Pays de Vaud #2 - Genolier": {"latitude": 46.5955273, "longitude": 6.7702883, "race": "Tour du Pays de Vaud #2 - Genolier", "date": {"mer. 15.08.2012": {"year": 2012, "day": 15, "month": 8, "categories": {"H-Hom": {"distance": 9, "rank": 7, "pace": 215000000000, "time": 1828.4}}, "weekday": "wednesday", "livingplace": "Lausanne"}}, "location": "M\u00e9zi\u00e8res VD"}, "Montreux - Les Rochers de Naye": {"latitude": 46.4312213, "longitude": 6.9106799, "race": "Montreux - Les Rochers de Naye", "date": {"dim. 06.07.2014": {"year": 2014, "day": 6, "month": 7, "categories": {"M-HElite": {"distance": 19, "rank": 31, "pace": 372000000000, "time": 7005.0}}, "weekday": "sunday", "livingplace": "Renens"}, "dim. 05.07.2015": {"year": 2015, "day": 5, "month": 7, "categories": {"M-HElite": {"distance": 19, "rank": 21, "pace": 364000000000, "time": 6849.9}}, "weekday": "sunday", "livingplace": "Renens"}}, "location": "Montreux"}, "Tour du Pays de Vaud #1, Penthaz": {"latitude": 46.5993131, "longitude": 6.539251200000001, "race": "Tour du Pays de Vaud #1, Penthaz", "date": {"mer. 13.08.2014": {"year": 2014, "day": 13, "month": 8, "categories": {"H-Sen1": {"distance": 9, "rank": 5, "pace": 217000000000, "time": 1855.8}}, "weekday": "wednesday", "livingplace": "Renens"}}, "location": "Penthaz"}, "Course p\u00e9destre Thyon-Dixence, Thyon": {"latitude": NaN, "longitude": NaN, "race": "Course p\u00e9destre Thyon-Dixence, Thyon", "date": {"dim. 02.08.2015": {"year": 2015, "day": 2, "month": 8, "categories": {"HomElite": {"distance": 16, "rank": 23, "pace": 327000000000, "time": 5347.6}}, "weekday": "sunday", "livingplace": "Renens"}}, "location": "Thyon-Les Collons"}, "Tour du Pays de Vaud #2, Mezi\u00e8res": {"latitude": 46.5955273, "longitude": 6.7702883, "race": "Tour du Pays de Vaud #2, Mezi\u00e8res", "date": {"mer. 20.08.2014": {"year": 2014, "day": 20, "month": 8, "categories": {"H-Sen1": {"distance": 8, "rank": 4, "pace": 236000000000, "time": 1912.4}}, "weekday": "wednesday", "livingplace": "Renens"}}, "location": "M\u00e9zi\u00e8res VD"}, "Tour du Pays de Vaud #2 - Mezi\u00e8res": {"latitude": 46.5955273, "longitude": 6.7702883, "race": "Tour du Pays de Vaud #2 - Mezi\u00e8res", "date": {"mer. 21.08.2013": {"year": 2013, "day": 21, "month": 8, "categories": {"H-Sen1": {"distance": 8, "rank": 5, "pace": 233000000000, "time": 1890.6}}, "weekday": "wednesday", "livingplace": "Lausanne"}}, "location": "M\u00e9zi\u00e8res VD"}, "Lausanne Marathon": {"latitude": 46.5196535, "longitude": 6.6322734, "race": "Lausanne Marathon", "date": {"sam. 24.10.2015": {"year": 2015, "day": 24, "month": 10, "categories": {"42-H30": {"distance": 42, "rank": 16, "pace": 242000000000, "time": 10253.0}}, "weekday": "saturday", "livingplace": "Renens"}, "dim. 30.10.2011": {"year": 2011, "day": 30, "month": 10, "categories": {"42-H1": {"distance": 42, "rank": 6, "pace": 249000000000, "time": 10546.1}}, "weekday": "sunday", "livingplace": "Lausanne"}, "dim. 27.10.2013": {"year": 2013, "day": 27, "month": 10, "categories": {"42-H2": {"distance": 42, "rank": 13, "pace": 246000000000, "time": 10416.9}}, "weekday": "sunday", "livingplace": "Lausanne"}}, "location": "Lausanne"}, "Tour du Pays de Vaud #4 - La Sarraz": {"latitude": 46.7088129, "longitude": 6.5707689, "race": "Tour du Pays de Vaud #4 - La Sarraz", "date": {"mer. 29.08.2012": {"year": 2012, "day": 29, "month": 8, "categories": {"H-Hom": {"distance": 9, "rank": 5, "pace": 215000000000, "time": 1827.8}}, "weekday": "wednesday", "livingplace": "Lausanne"}, "mer. 04.09.2013": {"year": 2013, "day": 4, "month": 9, "categories": {"H-Sen1": {"distance": 9, "rank": 6, "pace": 220000000000, "time": 1873.7}}, "weekday": "wednesday", "livingplace": "Lausanne"}}, "location": "Chavornay"}, "Tour du pays de Vaud #1 - Penthaz": {"latitude": 46.5993131, "longitude": 6.539251200000001, "race": "Tour du pays de Vaud #1 - Penthaz", "date": {"mer. 14.08.2013": {"year": 2013, "day": 14, "month": 8, "categories": {"H-Sen1": {"distance": 9, "rank": 8, "pace": 219000000000, "time": 1872.4}}, "weekday": "wednesday", "livingplace": "Lausanne"}}, "location": "Penthaz"}, "Les Traine-Savates, Cheseaux-sur-Lausanne": {"latitude": 46.585452, "longitude": 6.6047712, "race": "Les Traine-Savates, Cheseaux-sur-Lausanne", "date": {"sam. 18.04.2015": {"year": 2015, "day": 18, "month": 4, "categories": {"10-M20": {"distance": 10, "rank": 15, "pace": 217000000000, "time": 2240.1}}, "weekday": "saturday", "livingplace": "Renens"}}, "location": "Cheseaux-sur-Lausanne"}}, "birth": 1983}