{"name": "Emch Andreas", "sex": "M", "races": {"Tour du Pays de Vaud etape 5 - La Sarraz": {"latitude": 46.5993131, "longitude": 6.539251200000001, "race": "Tour du Pays de Vaud etape 5 - La Sarraz", "date": {"mer. 09.09.2009": {"year": 2009, "day": 9, "month": 9, "categories": {"Hom": {"distance": 9, "rank": 58, "pace": 298000000000, "time": 2508.5}}, "weekday": "wednesday", "livingplace": "Nyon"}}, "location": "Penthaz"}, "Thuner Stadtlauf, Thun": {"latitude": 46.7579868, "longitude": 7.6279881, "race": "Thuner Stadtlauf, Thun", "date": {"dim. 25.08.2013": {"year": 2013, "day": 25, "month": 8, "categories": {"10-M20": {"distance": 10, "rank": 57, "pace": 270000000000, "time": 2704.3}}, "weekday": "sunday", "livingplace": "Zollikofen"}}, "location": "Thun"}, "Course de l'Escalade, Gen\u00e8ve": {"latitude": 46.2043907, "longitude": 6.1431577, "race": "Course de l'Escalade, Gen\u00e8ve", "date": {"sam. 01.12.2007": {"year": 2007, "day": 1, "month": 12, "categories": {"DucH1": {"distance": 18, "rank": 289, "pace": 331000000000, "time": 6021.4}}, "weekday": "saturday", "livingplace": "Nyon"}, "sam. 02.12.2006": {"year": 2006, "day": 2, "month": 12, "categories": {"Hommes1": {"distance": 7, "rank": 615, "pace": 301000000000, "time": 2188.2}}, "weekday": "saturday", "livingplace": "Gerlafingen"}}, "location": "Gen\u00e8ve"}, "Tour du Pays de Vaud etape 2 - Genolier": {"latitude": 46.5955273, "longitude": 6.7702883, "race": "Tour du Pays de Vaud etape 2 - Genolier", "date": {"mer. 19.08.2009": {"year": 2009, "day": 19, "month": 8, "categories": {"Hom": {"distance": 8, "rank": 48, "pace": 309000000000, "time": 2507.6}}, "weekday": "wednesday", "livingplace": "Nyon"}}, "location": "M\u00e9zi\u00e8res VD"}, "Lausanne Marathon": {"latitude": 46.5196535, "longitude": 6.6322734, "race": "Lausanne Marathon", "date": {"dim. 31.10.2010": {"year": 2010, "day": 31, "month": 10, "categories": {"21-H1": {"distance": 21, "rank": 291, "pace": 313000000000, "time": 6609.1}}, "weekday": "sunday", "livingplace": "Nyon"}, "dim. 30.10.2011": {"year": 2011, "day": 30, "month": 10, "categories": {"21-H1": {"distance": 21, "rank": 355, "pace": 321000000000, "time": 6790.0}}, "weekday": "sunday", "livingplace": "Zollikofen"}}, "location": "Lausanne"}, "20km de Lausanne": {"latitude": 46.5196535, "longitude": 6.6322734, "race": "20km de Lausanne", "date": {"sam. 24.04.2010": {"year": 2010, "day": 24, "month": 4, "categories": {"10-H20": {"distance": 10, "rank": 342, "pace": 318000000000, "time": 3187.9}}, "weekday": "saturday", "livingplace": "Nyon"}}, "location": "Lausanne"}, "Kerzerslauf": {"latitude": 46.97488999999999, "longitude": 7.1954365, "race": "Kerzerslauf", "date": {"sam. 21.03.2015": {"year": 2015, "day": 21, "month": 3, "categories": {"15-M20": {"distance": 15, "rank": 284, "pace": 278000000000, "time": 4177.2}}, "weekday": "saturday", "livingplace": "Zollikofen"}}, "location": "Kerzers"}, "Int Greifenseelauf, Uster": {"latitude": 47.3482747, "longitude": 8.717873899999999, "race": "Int Greifenseelauf, Uster", "date": {"sam. 20.09.2008": {"year": 2008, "day": 20, "month": 9, "categories": {"H-M20": {"distance": 21, "rank": 495, "pace": 322000000000, "time": 6810.0}}, "weekday": "saturday", "livingplace": "Gerlafingen"}}, "location": "Uster"}}, "birth": 1987}