{"name": "Emery Christophe", "sex": "M", "races": {"Groupe E Tour Fribourg #4, Siviriez": {"latitude": 46.6585092, "longitude": 6.877722, "race": "Groupe E Tour Fribourg #4, Siviriez", "date": {"mer. 10.09.2014": {"year": 2014, "day": 10, "month": 9, "categories": {"H-Sen2": {"distance": 11, "rank": 42, "pace": 349000000000, "time": 3777.7}}, "weekday": "wednesday", "livingplace": "Einsiedeln"}}, "location": "Siviriez"}, "Luzerner Stadtlauf": {"latitude": 47.05016819999999, "longitude": 8.3093072, "race": "Luzerner Stadtlauf", "date": {"sam. 27.04.2002": {"year": 2002, "day": 27, "month": 4, "categories": {"K/27": {"distance": 6, "rank": 326, "pace": 276000000000, "time": 1523.1}}, "weekday": "saturday", "livingplace": "Thalwil"}}, "location": "Luzern"}, "Morat-Fribourg": {"latitude": 46.92922110000001, "longitude": 7.120184, "race": "Morat-Fribourg", "date": {"sam. 03.10.2015": {"year": 2015, "day": 3, "month": 10, "categories": {"17-M45": {"distance": 17, "rank": 490, "pace": 346000000000, "time": 5941.3}}, "weekday": "saturday", "livingplace": "Fribourg"}, "sam. 04.10.2014": {"year": 2014, "day": 4, "month": 10, "categories": {"17-M45": {"distance": 17, "rank": 469, "pace": 332000000000, "time": 5717.5}}, "weekday": "saturday", "livingplace": "Fribourg"}}, "location": "Murten"}, "Groupe E Tour Fribourg #2, Charmey": {"latitude": 46.6175845, "longitude": 7.1654493, "race": "Groupe E Tour Fribourg #2, Charmey", "date": {"mer. 27.08.2014": {"year": 2014, "day": 27, "month": 8, "categories": {"H-Sen2": {"distance": 10, "rank": 54, "pace": 349000000000, "time": 3369.8}}, "weekday": "wednesday", "livingplace": "Einsiedeln"}}, "location": "Charmey (Gruy\u00e8re)"}, "Groupe E Tour Fribourg #3, Kerzers": {"latitude": 46.97488999999999, "longitude": 7.1954365, "race": "Groupe E Tour Fribourg #3, Kerzers", "date": {"mer. 03.09.2014": {"year": 2014, "day": 3, "month": 9, "categories": {"H-Sen2": {"distance": 10, "rank": 53, "pace": 298000000000, "time": 3039.1}}, "weekday": "wednesday", "livingplace": "Einsiedeln"}}, "location": "Kerzers"}, "Groupe E Tour Fribourg #5, Givisiez": {"latitude": 46.8128615, "longitude": 7.131657799999999, "race": "Groupe E Tour Fribourg #5, Givisiez", "date": {"mer. 17.09.2014": {"year": 2014, "day": 17, "month": 9, "categories": {"H-Sen2": {"distance": 10, "rank": 53, "pace": 318000000000, "time": 3276.0}}, "weekday": "wednesday", "livingplace": "Einsiedeln"}}, "location": "Givisiez"}, "Internationaler Matterhornlauf, Zermatt": {"latitude": NaN, "longitude": NaN, "race": "Internationaler Matterhornlauf, Zermatt", "date": {"dim. 22.08.2004": {"year": 2004, "day": 22, "month": 8, "categories": {"MHL/M30": {"distance": 14, "rank": 105, "pace": 450000000000, "time": 6460.8}}, "weekday": "sunday", "livingplace": "Thalwil"}}, "location": "Zermatt"}, "Groupe E Tour Fribourg #1, Cousset": {"latitude": 46.81832, "longitude": 6.977279999999999, "race": "Groupe E Tour Fribourg #1, Cousset", "date": {"mer. 20.08.2014": {"year": 2014, "day": 20, "month": 8, "categories": {"H-Sen2": {"distance": 9, "rank": 40, "pace": 300000000000, "time": 2828.2}}, "weekday": "wednesday", "livingplace": "Einsiedeln"}}, "location": "Cousset"}}, "birth": 1969}