{"name": "Emery Thierry", "sex": "M", "races": {"Tour du Pays de Vaud printanier #2 Yverdon-les-Bains": {"latitude": 46.6698891, "longitude": 6.7975224, "race": "Tour du Pays de Vaud printanier #2 Yverdon-les-Bains", "date": {"mer. 05.06.2013": {"year": 2013, "day": 5, "month": 6, "categories": {"H-Sen2": {"distance": 9, "rank": 18, "pace": 267000000000, "time": 2430.2}}, "weekday": "wednesday", "livingplace": "Mezieres"}}, "location": "Moudon"}, "Tour du Pays de Vaud printanier #1 Moudon": {"latitude": 46.3832683, "longitude": 6.2347852, "race": "Tour du Pays de Vaud printanier #1 Moudon", "date": {"mer. 29.05.2013": {"year": 2013, "day": 29, "month": 5, "categories": {"H-Sen2": {"distance": 8, "rank": 16, "pace": 257000000000, "time": 2202.5}}, "weekday": "wednesday", "livingplace": "Mezieres"}}, "location": "Nyon"}, "D\u00e9fi du vignoble, Cully": {"latitude": 45.565921, "longitude": -122.6066627, "race": "D\u00e9fi du vignoble, Cully", "date": {"mer. 14.05.2014": {"year": 2014, "day": 14, "month": 5, "categories": {"M40": {"distance": 4, "rank": 12, "pace": 470000000000, "time": 1714.4}}, "weekday": "wednesday", "livingplace": "Mezieres"}}, "location": "Cully"}, "Tour du pays de Vaud #6 - St  Prex": {"latitude": 46.4829113, "longitude": 6.458343500000001, "race": "Tour du pays de Vaud #6 - St  Prex", "date": {"mer. 14.09.2011": {"year": 2011, "day": 14, "month": 9, "categories": {"H-Sen1": {"distance": 9, "rank": 89, "pace": 276000000000, "time": 2374.5}}, "weekday": "wednesday", "livingplace": "Mezieres"}}, "location": "St-Prex"}, "20km de Lausanne": {"latitude": 46.5196535, "longitude": 6.6322734, "race": "20km de Lausanne", "date": {"sam. 27.04.2013": {"year": 2013, "day": 27, "month": 4, "categories": {"10-H40": {"distance": 10, "rank": 40, "pace": 249000000000, "time": 2498.7}}, "weekday": "saturday", "livingplace": "Mezieres"}, "sam. 25.04.2009": {"year": 2009, "day": 25, "month": 4, "categories": {"10-H30": {"distance": 10, "rank": 205, "pace": 283000000000, "time": 2839.2}}, "weekday": "saturday", "livingplace": "Mezieres"}, "sam. 25.04.2015": {"year": 2015, "day": 25, "month": 4, "categories": {"10-H40": {"distance": 10, "rank": 20, "pace": 245000000000, "time": 2457.1}}, "weekday": "saturday", "livingplace": "Mezieres"}, "sam. 22.04.2006": {"year": 2006, "day": 22, "month": 4, "categories": {"10/H30": {"distance": 10, "rank": 44, "pace": 250000000000, "time": 2509.7}}, "weekday": "saturday", "livingplace": "Mezieres"}}, "location": "Lausanne"}, "Tour du Pays de Vaud #2 - Mezi\u00e8res": {"latitude": 46.5955273, "longitude": 6.7702883, "race": "Tour du Pays de Vaud #2 - Mezi\u00e8res", "date": {"mer. 21.08.2013": {"year": 2013, "day": 21, "month": 8, "categories": {"H-Sen2": {"distance": 8, "rank": 15, "pace": 262000000000, "time": 2124.7}}, "weekday": "wednesday", "livingplace": "Mezieres"}}, "location": "M\u00e9zi\u00e8res VD"}, "Tour du Pays de Vaud #3, Chavornay": {"latitude": 46.7784736, "longitude": 6.641183, "race": "Tour du Pays de Vaud #3, Chavornay", "date": {"mer. 27.08.2014": {"year": 2014, "day": 27, "month": 8, "categories": {"H-Sen2": {"distance": 9, "rank": 18, "pace": 254000000000, "time": 2191.9}}, "weekday": "wednesday", "livingplace": "Mezieres"}}, "location": "Yverdon-les-Bains"}, "Tour du Pays de Vaud #4, La Sarraz": {"latitude": 46.7088129, "longitude": 6.5707689, "race": "Tour du Pays de Vaud #4, La Sarraz", "date": {"mer. 03.09.2014": {"year": 2014, "day": 3, "month": 9, "categories": {"H-Sen2": {"distance": 9, "rank": 12, "pace": 249000000000, "time": 2120.9}}, "weekday": "wednesday", "livingplace": "Mezieres"}}, "location": "Chavornay"}, "Tour du Pays de Vaud printanier #3 - Yens": {"latitude": 46.7829756, "longitude": 6.5728678, "race": "Tour du Pays de Vaud printanier #3 - Yens", "date": {"mer. 12.06.2013": {"year": 2013, "day": 12, "month": 6, "categories": {"H-Sen2": {"distance": 9, "rank": 19, "pace": 263000000000, "time": 2396.1}}, "weekday": "wednesday", "livingplace": "Mezieres"}}, "location": "Champvent"}, "Tour du Pays de Vaud #2, Mezi\u00e8res": {"latitude": 46.5955273, "longitude": 6.7702883, "race": "Tour du Pays de Vaud #2, Mezi\u00e8res", "date": {"mer. 20.08.2014": {"year": 2014, "day": 20, "month": 8, "categories": {"H-Sen2": {"distance": 8, "rank": 14, "pace": 265000000000, "time": 2147.2}}, "weekday": "wednesday", "livingplace": "Mezieres"}}, "location": "M\u00e9zi\u00e8res VD"}, "Tour du Pays de Vaud #3 - Chavornay": {"latitude": 46.7784736, "longitude": 6.641183, "race": "Tour du Pays de Vaud #3 - Chavornay", "date": {"mer. 28.08.2013": {"year": 2013, "day": 28, "month": 8, "categories": {"H-Sen2": {"distance": 9, "rank": 21, "pace": 247000000000, "time": 2204.5}}, "weekday": "wednesday", "livingplace": "Mezieres"}}, "location": "Yverdon-les-Bains"}, "Tour du pays de Vaud #5 - Penthaz": {"latitude": 46.5993131, "longitude": 6.539251200000001, "race": "Tour du pays de Vaud #5 - Penthaz", "date": {"mer. 07.09.2011": {"year": 2011, "day": 7, "month": 9, "categories": {"H-Sen1": {"distance": 8, "rank": 66, "pace": 306000000000, "time": 2557.6}}, "weekday": "wednesday", "livingplace": "Mezieres"}}, "location": "Penthaz"}, "Morat-Fribourg": {"latitude": 46.92922110000001, "longitude": 7.120184, "race": "Morat-Fribourg", "date": {"sam. 05.10.2013": {"year": 2013, "day": 5, "month": 10, "categories": {"17-M40": {"distance": 17, "rank": 99, "pace": 261000000000, "time": 4567.6}}, "weekday": "saturday", "livingplace": "Mezieres"}, "sam. 04.10.2008": {"year": 2008, "day": 4, "month": 10, "categories": {"C-M20": {"distance": 17, "rank": 1289, "pace": 318000000000, "time": 5463.0}}, "weekday": "saturday", "livingplace": "Mezieres"}}, "location": "Murten"}, "Tour du Pays de Vaud #4 - La Sarraz": {"latitude": 46.7088129, "longitude": 6.5707689, "race": "Tour du Pays de Vaud #4 - La Sarraz", "date": {"mer. 04.09.2013": {"year": 2013, "day": 4, "month": 9, "categories": {"H-Sen2": {"distance": 9, "rank": 19, "pace": 254000000000, "time": 2165.6}}, "weekday": "wednesday", "livingplace": "Mezieres"}}, "location": "Chavornay"}, "Tour du pays de Vaud #1 - Penthaz": {"latitude": 46.5993131, "longitude": 6.539251200000001, "race": "Tour du pays de Vaud #1 - Penthaz", "date": {"mer. 14.08.2013": {"year": 2013, "day": 14, "month": 8, "categories": {"H-Sen2": {"distance": 9, "rank": 151, "pace": 334000000000, "time": 2850.6}}, "weekday": "wednesday", "livingplace": "Mezieres"}}, "location": "Penthaz"}}, "birth": 1972}