{"name": "Emmenegger Pilloud Michae", "sex": "M", "races": {"Groupe E Tour Fribourg #3 Charmey": {"latitude": 46.97488999999999, "longitude": 7.1954365, "race": "Groupe E Tour Fribourg #3 Charmey", "date": {"mer. 04.09.2013": {"year": 2013, "day": 4, "month": 9, "categories": {"HS2": {"distance": 11, "rank": 54, "pace": 343000000000, "time": 3734.1}}, "weekday": "wednesday", "livingplace": "Middes"}}, "location": "Kerzers"}, "Groupe E Tour Fribourg #2 Kerzers": {"latitude": 46.6175845, "longitude": 7.1654493, "race": "Groupe E Tour Fribourg #2 Kerzers", "date": {"mer. 28.08.2013": {"year": 2013, "day": 28, "month": 8, "categories": {"HS2": {"distance": 12, "rank": 48, "pace": 314000000000, "time": 3727.5}}, "weekday": "wednesday", "livingplace": "Middes"}}, "location": "Charmey (Gruy\u00e8re)"}, "SwissCityMarathon - Lucerne, Luzern": {"latitude": 47.05016819999999, "longitude": 8.3093072, "race": "SwissCityMarathon - Lucerne, Luzern", "date": {"dim. 26.10.2014": {"year": 2014, "day": 26, "month": 10, "categories": {"H-M40": {"distance": 21, "rank": 902, "pace": 331000000000, "time": 6991.0}}, "weekday": "sunday", "livingplace": "Oberruti"}, "dim. 27.10.2013": {"year": 2013, "day": 27, "month": 10, "categories": {"H-M40": {"distance": 21, "rank": 1302, "pace": 405000000000, "time": 8544.7}}, "weekday": "sunday", "livingplace": "Middes"}}, "location": "Luzern"}, "Z\u00fcrcher Silvesterlauf, Z\u00fcrich": {"latitude": 47.3768866, "longitude": 8.541694, "race": "Z\u00fcrcher Silvesterlauf, Z\u00fcrich", "date": {"dim. 14.12.2014": {"year": 2014, "day": 14, "month": 12, "categories": {"10-M40": {"distance": 10, "rank": 1008, "pace": 337000000000, "time": 3375.5}}, "weekday": "sunday", "livingplace": "Oberruti"}}, "location": "Z\u00fcrich"}, "Groupe E Tour Fribourg #4 Montagny": {"latitude": 46.6585092, "longitude": 6.877722, "race": "Groupe E Tour Fribourg #4 Montagny", "date": {"mer. 11.09.2013": {"year": 2013, "day": 11, "month": 9, "categories": {"HS2": {"distance": 10, "rank": 58, "pace": 319000000000, "time": 3135.5}}, "weekday": "wednesday", "livingplace": "Middes"}}, "location": "Siviriez"}}, "birth": 1969}