{"name": "Engel Clyde", "sex": "M", "races": {"Course de l'Escalade, Gen\u00e8ve": {"latitude": 46.2043907, "longitude": 6.1431577, "race": "Course de l'Escalade, Gen\u00e8ve", "date": {"sam. 02.12.2006": {"year": 2006, "day": 2, "month": 12, "categories": {"HCadB": {"distance": 5, "rank": 6, "pace": 218000000000, "time": 1042.4}}, "weekday": "saturday", "livingplace": "St Blaise"}, "sam. 03.12.2005": {"year": 2005, "day": 3, "month": 12, "categories": {"HCadB": {"distance": 5, "rank": 19, "pace": 230000000000, "time": 1103.6}}, "weekday": "saturday", "livingplace": "Saint Blaise"}}, "location": "Gen\u00e8ve"}, "BCN Tour Fontaine Cernier": {"latitude": 47.0624261, "longitude": 6.9175754, "race": "BCN Tour Fontaine Cernier", "date": {"mer. 27.04.2011": {"year": 2011, "day": 27, "month": 4, "categories": {"HJ": {"distance": 10, "rank": 7, "pace": 242000000000, "time": 2494.9}}, "weekday": "wednesday", "livingplace": "St Blaise"}}, "location": "Ch\u00e9zard-St-Martin"}, "BCN Tour Neuch\u00e2tel": {"latitude": 46.9899874, "longitude": 6.9292732, "race": "BCN Tour Neuch\u00e2tel", "date": {"mer. 30.05.2012": {"year": 2012, "day": 30, "month": 5, "categories": {"HE": {"distance": 11, "rank": 16, "pace": 252000000000, "time": 2823.2}}, "weekday": "wednesday", "livingplace": "Saint Blaise"}}, "location": "Neuch\u00e2tel"}, "BCN Tour #5 Colombier": {"latitude": 46.9262933, "longitude": 6.6324944, "race": "BCN Tour #5 Colombier", "date": {"mer. 22.05.2013": {"year": 2013, "day": 22, "month": 5, "categories": {"HE": {"distance": 11, "rank": 16, "pace": 222000000000, "time": 2337.7}}, "weekday": "wednesday", "livingplace": "St Blaise"}}, "location": "Couvet"}, "BCN Tour Boudry": {"latitude": 46.9668714, "longitude": 6.8589727, "race": "BCN Tour Boudry", "date": {"mer. 26.04.2006": {"year": 2006, "day": 26, "month": 4, "categories": {"KG4": {"distance": 3, "rank": 3, "pace": 214000000000, "time": 709.0}}, "weekday": "wednesday", "livingplace": "St Blaise"}}, "location": "Colombier NE"}, "Groupe E Tour Fribourg #5, Givisiez": {"latitude": 46.8128615, "longitude": 7.131657799999999, "race": "Groupe E Tour Fribourg #5, Givisiez", "date": {"mer. 17.09.2014": {"year": 2014, "day": 17, "month": 9, "categories": {"H-Elite": {"distance": 10, "rank": 7, "pace": 231000000000, "time": 2373.7}}, "weekday": "wednesday", "livingplace": "Saint Blaise"}}, "location": "Givisiez"}, "BCN Tour Colombier": {"latitude": 47.1034892, "longitude": 6.832783800000001, "race": "BCN Tour Colombier", "date": {"mer. 16.05.2012": {"year": 2012, "day": 16, "month": 5, "categories": {"HE": {"distance": 11, "rank": 15, "pace": 236000000000, "time": 2550.9}}, "weekday": "wednesday", "livingplace": "Saint Blaise"}}, "location": "La Chaux-de-Fonds"}, "BCN Tour #3 Dombresson": {"latitude": 46.999113, "longitude": 6.733554799999999, "race": "BCN Tour #3 Dombresson", "date": {"mer. 08.05.2013": {"year": 2013, "day": 8, "month": 5, "categories": {"HE": {"distance": 10, "rank": 33, "pace": 244000000000, "time": 2419.0}}, "weekday": "wednesday", "livingplace": "St Blaise"}}, "location": "Les Ponts-de-Martel"}}, "birth": 1992}