{"name": "Engel Didier", "sex": "M", "races": {"BCN Tour #2 La Chaux-de-Fonds": {"latitude": 47.0624261, "longitude": 6.9175754, "race": "BCN Tour #2 La Chaux-de-Fonds", "date": {"mer. 01.05.2013": {"year": 2013, "day": 1, "month": 5, "categories": {"HS2": {"distance": 11, "rank": 201, "pace": 303000000000, "time": 3244.4}}, "weekday": "wednesday", "livingplace": "Pontarlier"}}, "location": "Ch\u00e9zard-St-Martin"}, "BCN Tour La Chaux-de-Fonds": {"latitude": 46.9262933, "longitude": 6.6324944, "race": "BCN Tour La Chaux-de-Fonds", "date": {"mer. 23.05.2012": {"year": 2012, "day": 23, "month": 5, "categories": {"HS2": {"distance": 11, "rank": 292, "pace": 358000000000, "time": 3876.4}}, "weekday": "wednesday", "livingplace": "Pontarlier"}}, "location": "Couvet"}, "BCN Tour Les Ponts-de-Martel": {"latitude": 46.999113, "longitude": 6.733554799999999, "race": "BCN Tour Les Ponts-de-Martel", "date": {"mer. 09.05.2012": {"year": 2012, "day": 9, "month": 5, "categories": {"HS2": {"distance": 10, "rank": 294, "pace": 366000000000, "time": 3775.1}}, "weekday": "wednesday", "livingplace": "Pontarlier"}}, "location": "Les Ponts-de-Martel"}, "BCN Tour Neuch\u00e2tel": {"latitude": 46.9899874, "longitude": 6.9292732, "race": "BCN Tour Neuch\u00e2tel", "date": {"mer. 30.05.2012": {"year": 2012, "day": 30, "month": 5, "categories": {"HS2": {"distance": 11, "rank": 279, "pace": 377000000000, "time": 4224.5}}, "weekday": "wednesday", "livingplace": "Pontarlier"}}, "location": "Neuch\u00e2tel"}, "Morat-Fribourg": {"latitude": 46.92922110000001, "longitude": 7.120184, "race": "Morat-Fribourg", "date": {"sam. 06.10.2012": {"year": 2012, "day": 6, "month": 10, "categories": {"17-M40": {"distance": 17, "rank": 340, "pace": 301000000000, "time": 5267.3}}, "weekday": "saturday", "livingplace": "Pontarlier"}}, "location": "Murten"}, "BCN Tour Couvet": {"latitude": 47.0624261, "longitude": 6.9175754, "race": "BCN Tour Couvet", "date": {"mer. 02.05.2012": {"year": 2012, "day": 2, "month": 5, "categories": {"HS2": {"distance": 11, "rank": 281, "pace": 380000000000, "time": 4247.0}}, "weekday": "wednesday", "livingplace": "Pontarlier"}}, "location": "Ch\u00e9zard-St-Martin"}, "BCN Tour Colombier": {"latitude": 47.1034892, "longitude": 6.832783800000001, "race": "BCN Tour Colombier", "date": {"mer. 16.05.2012": {"year": 2012, "day": 16, "month": 5, "categories": {"HS2": {"distance": 11, "rank": 307, "pace": 356000000000, "time": 3845.1}}, "weekday": "wednesday", "livingplace": "Pontarlier"}}, "location": "La Chaux-de-Fonds"}, "BCN Tour #4 Fleurier": {"latitude": 47.1034892, "longitude": 6.832783800000001, "race": "BCN Tour #4 Fleurier", "date": {"mer. 15.05.2013": {"year": 2013, "day": 15, "month": 5, "categories": {"HS2": {"distance": 9, "rank": 151, "pace": 306000000000, "time": 2647.5}}, "weekday": "wednesday", "livingplace": "Pontarlier"}}, "location": "La Chaux-de-Fonds"}, "BCN Tour Cornaux": {"latitude": 46.9668714, "longitude": 6.8589727, "race": "BCN Tour Cornaux", "date": {"mer. 25.04.2012": {"year": 2012, "day": 25, "month": 4, "categories": {"HS2": {"distance": 11, "rank": 279, "pace": 403000000000, "time": 4437.0}}, "weekday": "wednesday", "livingplace": "Pontarlier"}}, "location": "Colombier NE"}}, "birth": 1972}