{"name": "Erni Emmanuel", "sex": "M", "races": {"Tour du Chablais #5 Bex": {"latitude": 46.3603257, "longitude": 6.931504599999999, "race": "Tour du Chablais #5 Bex", "date": {"mer. 09.05.2012": {"year": 2012, "day": 9, "month": 5, "categories": {"M-M50": {"distance": 9, "rank": 53, "pace": 303000000000, "time": 2689.6}}, "weekday": "wednesday", "livingplace": "Collombey"}}, "location": "Roche VD"}, "20km de Lausanne": {"latitude": 46.5196535, "longitude": 6.6322734, "race": "20km de Lausanne", "date": {"sam. 27.04.2013": {"year": 2013, "day": 27, "month": 4, "categories": {"10-H50": {"distance": 10, "rank": 181, "pace": 326000000000, "time": 3263.6}}, "weekday": "saturday", "livingplace": "Collombey"}}, "location": "Lausanne"}, "Tour du Chablais #1 Montreux": {"latitude": 46.2957462, "longitude": 6.9916269, "race": "Tour du Chablais #1 Montreux", "date": {"mer. 11.04.2012": {"year": 2012, "day": 11, "month": 4, "categories": {"M-M50": {"distance": 8, "rank": 74, "pace": 330000000000, "time": 2513.7}}, "weekday": "wednesday", "livingplace": "Collombey"}}, "location": "Ollon VD"}, "Tour du Chablais #2 Bex": {"latitude": 46.3835529, "longitude": 6.854975199999999, "race": "Tour du Chablais #2 Bex", "date": {"mer. 18.04.2012": {"year": 2012, "day": 18, "month": 4, "categories": {"M-M50": {"distance": 8, "rank": 59, "pace": 304000000000, "time": 2438.7}}, "weekday": "wednesday", "livingplace": "Collombey"}}, "location": "Bouveret"}, "Tour du Chablais #6 Montreux": {"latitude": 46.3190253, "longitude": 6.970566, "race": "Tour du Chablais #6 Montreux", "date": {"mer. 16.05.2012": {"year": 2012, "day": 16, "month": 5, "categories": {"M-M50": {"distance": 9, "rank": 80, "pace": 317000000000, "time": 2936.5}}, "weekday": "wednesday", "livingplace": "Collombey"}}, "location": "Aigle"}}, "birth": 1961}