{"name": "Escarment Pascal", "sex": "M", "races": {"A travers Carouge - Run to Run": {"latitude": 46.1829674, "longitude": 6.1378539, "race": "A travers Carouge - Run to Run", "date": {"sam. 23.09.2006": {"year": 2006, "day": 23, "month": 9, "categories": {"Ho I": {"distance": 10, "rank": 186, "pace": 297000000000, "time": 2979.4}}, "weekday": "saturday", "livingplace": "Denens"}}, "location": "Carouge GE"}, "Tour du Pays de Vaud etape 5 - La Sarraz": {"latitude": 46.5993131, "longitude": 6.539251200000001, "race": "Tour du Pays de Vaud etape 5 - La Sarraz", "date": {"mer. 09.09.2009": {"year": 2009, "day": 9, "month": 9, "categories": {"HS1": {"distance": 9, "rank": 134, "pace": 391000000000, "time": 3287.3}}, "weekday": "wednesday", "livingplace": "Denens"}}, "location": "Penthaz"}, "Tour du Pays de Vaud #2, Mezi\u00e8res": {"latitude": 46.5955273, "longitude": 6.7702883, "race": "Tour du Pays de Vaud #2, Mezi\u00e8res", "date": {"mer. 20.08.2014": {"year": 2014, "day": 20, "month": 8, "categories": {"H-Sen2": {"distance": 8, "rank": 102, "pace": 362000000000, "time": 2933.7}}, "weekday": "wednesday", "livingplace": "Cessy"}}, "location": "M\u00e9zi\u00e8res VD"}, "Tour du Pays de Vaud etape 2 - Genolier": {"latitude": 46.5955273, "longitude": 6.7702883, "race": "Tour du Pays de Vaud etape 2 - Genolier", "date": {"mer. 19.08.2009": {"year": 2009, "day": 19, "month": 8, "categories": {"HSen1": {"distance": 8, "rank": 130, "pace": 362000000000, "time": 2938.2}}, "weekday": "wednesday", "livingplace": "Denens"}}, "location": "M\u00e9zi\u00e8res VD"}, "Tour du Pays de Vaud etape 3 - Aubonne": {"latitude": 46.7829756, "longitude": 6.5728678, "race": "Tour du Pays de Vaud etape 3 - Aubonne", "date": {"mer. 29.08.2007": {"year": 2007, "day": 29, "month": 8, "categories": {"HS1": {"distance": 8, "rank": 75, "pace": 350000000000, "time": 2842.7}}, "weekday": "wednesday", "livingplace": "Denens"}}, "location": "Champvent"}, "Tour du Pays de Vaud etape 1 - Le Mont sur Lausanne": {"latitude": 46.7784736, "longitude": 6.641183, "race": "Tour du Pays de Vaud etape 1 - Le Mont sur Lausanne", "date": {"mer. 15.08.2007": {"year": 2007, "day": 15, "month": 8, "categories": {"HS1": {"distance": 8, "rank": 96, "pace": 366000000000, "time": 3040.4}}, "weekday": "wednesday", "livingplace": "Denens"}}, "location": "Yverdon-les-Bains"}, "20km de Lausanne": {"latitude": 46.5196535, "longitude": 6.6322734, "race": "20km de Lausanne", "date": {"sam. 28.04.2007": {"year": 2007, "day": 28, "month": 4, "categories": {"10H30": {"distance": 10, "rank": 535, "pace": 336000000000, "time": 3368.9}}, "weekday": "saturday", "livingplace": "Denens"}}, "location": "Lausanne"}, "Tour du Pays de Vaud #3, Chavornay": {"latitude": 46.7784736, "longitude": 6.641183, "race": "Tour du Pays de Vaud #3, Chavornay", "date": {"mer. 27.08.2014": {"year": 2014, "day": 27, "month": 8, "categories": {"H-Sen2": {"distance": 9, "rank": 121, "pace": 341000000000, "time": 2938.5}}, "weekday": "wednesday", "livingplace": "Cessy"}}, "location": "Yverdon-les-Bains"}}, "birth": 1974}