{"name": "Etienne Elsa", "sex": "F", "races": {"20km de Lausanne": {"latitude": 46.5196535, "longitude": 6.6322734, "race": "20km de Lausanne", "date": {"sam. 28.04.2012": {"year": 2012, "day": 28, "month": 4, "categories": {"10-F20": {"distance": 10, "rank": 439, "pace": 372000000000, "time": 3721.5}}, "weekday": "saturday", "livingplace": "Lausanne"}, "sam. 26.04.2014": {"year": 2014, "day": 26, "month": 4, "categories": {"10-F20": {"distance": 10, "rank": 1000, "pace": 412000000000, "time": 4122.0}}, "weekday": "saturday", "livingplace": "Lausanne"}}, "location": "Lausanne"}, "Tour du pays de Vaud #6 - St  Prex": {"latitude": 46.4829113, "longitude": 6.458343500000001, "race": "Tour du pays de Vaud #6 - St  Prex", "date": {"mer. 14.09.2011": {"year": 2011, "day": 14, "month": 9, "categories": {"D-Dam": {"distance": 9, "rank": 48, "pace": 388000000000, "time": 3343.8}}, "weekday": "wednesday", "livingplace": "La Chaux Cossonay"}}, "location": "St-Prex"}, "Les Traine-Savates, Cheseaux-sur-Lausanne": {"latitude": 46.585452, "longitude": 6.6047712, "race": "Les Traine-Savates, Cheseaux-sur-Lausanne", "date": {"sam. 14.04.2012": {"year": 2012, "day": 14, "month": 4, "categories": {"10-W20": {"distance": 10, "rank": 134, "pace": 371000000000, "time": 3865.3}}, "weekday": "saturday", "livingplace": "La Chaux Cossonay"}}, "location": "Cheseaux-sur-Lausanne"}, "Tour du Pays de Vaud printanier #1 Chavornay": {"latitude": 46.3832683, "longitude": 6.2347852, "race": "Tour du Pays de Vaud printanier #1 Chavornay", "date": {"mer. 30.05.2012": {"year": 2012, "day": 30, "month": 5, "categories": {"D-Dam": {"distance": 9, "rank": 32, "pace": 417000000000, "time": 3736.9}}, "weekday": "wednesday", "livingplace": "La Chaux Cossonay"}}, "location": "Nyon"}, "Tour du pays de Vaud #1 - Mezi\u00e8res": {"latitude": 46.7784736, "longitude": 6.641183, "race": "Tour du pays de Vaud #1 - Mezi\u00e8res", "date": {"mer. 10.08.2011": {"year": 2011, "day": 10, "month": 8, "categories": {"D-Dam": {"distance": 9, "rank": 35, "pace": 407000000000, "time": 3459.9}}, "weekday": "wednesday", "livingplace": "La Chaux Cossonay"}}, "location": "Yverdon-les-Bains"}}, "birth": 1991}