{"name": "Etter Robert", "sex": "M", "races": {"Tour du Chablais #1 Roche": {"latitude": 46.2957462, "longitude": 6.9916269, "race": "Tour du Chablais #1 Roche", "date": {"mer. 07.04.2010": {"year": 2010, "day": 7, "month": 4, "categories": {"M-M40": {"distance": 9, "rank": 194, "pace": 368000000000, "time": 3301.5}}, "weekday": "wednesday", "livingplace": "La Tour de Peilz"}, "mer. 03.04.2013": {"year": 2013, "day": 3, "month": 4, "categories": {"M-M40": {"distance": 9, "rank": 141, "pace": 358000000000, "time": 3176.5}}, "weekday": "wednesday", "livingplace": "La Tour de Peilz"}}, "location": "Ollon VD"}, "Tour du Chablais #6 Monthey": {"latitude": 46.3190253, "longitude": 6.970566, "race": "Tour du Chablais #6 Monthey", "date": {"mer. 08.05.2013": {"year": 2013, "day": 8, "month": 5, "categories": {"M-M40": {"distance": 9, "rank": 153, "pace": 355000000000, "time": 3315.2}}, "weekday": "wednesday", "livingplace": "La Tour de Peilz"}}, "location": "Aigle"}, "Corrida Bulloise, Bulle": {"latitude": 46.6154512, "longitude": 7.057726799999999, "race": "Corrida Bulloise, Bulle", "date": {"sam. 17.11.2007": {"year": 2007, "day": 17, "month": 11, "categories": {"M40": {"distance": 8, "rank": 31, "pace": 233000000000, "time": 1869.6}}, "weekday": "saturday", "livingplace": "Courgevaux"}}, "location": "Bulle"}, "Tour du Pays de Vaud printanier #2 Yverdon-les-Bains": {"latitude": 46.6698891, "longitude": 6.7975224, "race": "Tour du Pays de Vaud printanier #2 Yverdon-les-Bains", "date": {"mer. 05.06.2013": {"year": 2013, "day": 5, "month": 6, "categories": {"H-Sen2": {"distance": 9, "rank": 88, "pace": 397000000000, "time": 3613.0}}, "weekday": "wednesday", "livingplace": "La Tour de Peilz"}}, "location": "Moudon"}, "Tour du Pays de Vaud #3 - Mezi\u00e8res": {"latitude": 46.7784736, "longitude": 6.641183, "race": "Tour du Pays de Vaud #3 - Mezi\u00e8res", "date": {"mer. 22.08.2012": {"year": 2012, "day": 22, "month": 8, "categories": {"H-Sen2": {"distance": 8, "rank": 182, "pace": 431000000000, "time": 3620.9}}, "weekday": "wednesday", "livingplace": "La Tour de Peilz"}}, "location": "Yverdon-les-Bains"}, "20km de Lausanne": {"latitude": 46.5196535, "longitude": 6.6322734, "race": "20km de Lausanne", "date": {"sam. 24.04.2010": {"year": 2010, "day": 24, "month": 4, "categories": {"10-H40": {"distance": 10, "rank": 398, "pace": 374000000000, "time": 3743.0}}, "weekday": "saturday", "livingplace": "La Tour de Peilz"}, "sam. 27.04.2013": {"year": 2013, "day": 27, "month": 4, "categories": {"10-H45": {"distance": 10, "rank": 396, "pace": 350000000000, "time": 3508.6}}, "weekday": "saturday", "livingplace": "La Tour de Peilz"}, "sam. 28.04.2012": {"year": 2012, "day": 28, "month": 4, "categories": {"10-H45": {"distance": 10, "rank": 371, "pace": 378000000000, "time": 3783.0}}, "weekday": "saturday", "livingplace": "La Tour de Peilz"}, "sam. 26.04.2014": {"year": 2014, "day": 26, "month": 4, "categories": {"10-H45": {"distance": 10, "rank": 445, "pace": 377000000000, "time": 3770.2}}, "weekday": "saturday", "livingplace": "La Tour de Peilz"}}, "location": "Lausanne"}, "Tour du Chablais #2 Yvorne": {"latitude": 46.3835529, "longitude": 6.854975199999999, "race": "Tour du Chablais #2 Yvorne", "date": {"mer. 10.04.2013": {"year": 2013, "day": 10, "month": 4, "categories": {"M-M40": {"distance": 8, "rank": 141, "pace": 388000000000, "time": 3109.2}}, "weekday": "wednesday", "livingplace": "La Tour de Peilz"}}, "location": "Bouveret"}, "Tour du Chablais #1 Montreux": {"latitude": 46.2957462, "longitude": 6.9916269, "race": "Tour du Chablais #1 Montreux", "date": {"mer. 11.04.2012": {"year": 2012, "day": 11, "month": 4, "categories": {"M-M40": {"distance": 8, "rank": 162, "pace": 386000000000, "time": 2934.6}}, "weekday": "wednesday", "livingplace": "La Tour de Peilz"}}, "location": "Ollon VD"}, "Lausanne Marathon": {"latitude": 46.5196535, "longitude": 6.6322734, "race": "Lausanne Marathon", "date": {"dim. 31.10.2010": {"year": 2010, "day": 31, "month": 10, "categories": {"21-H3": {"distance": 21, "rank": 882, "pace": 391000000000, "time": 8268.6}}, "weekday": "sunday", "livingplace": "La Tour de Peilz"}, "dim. 27.10.2013": {"year": 2013, "day": 27, "month": 10, "categories": {"10-H3": {"distance": 10, "rank": 421, "pace": 346000000000, "time": 3463.1}}, "weekday": "sunday", "livingplace": "La Tour de Peilz"}, "sam. 24.10.2015": {"year": 2015, "day": 24, "month": 10, "categories": {"10-H40": {"distance": 10, "rank": 595, "pace": 395000000000, "time": 3955.7}}, "weekday": "saturday", "livingplace": "Chardonne"}, "dim. 28.10.2012": {"year": 2012, "day": 28, "month": 10, "categories": {"10-H3": {"distance": 10, "rank": 437, "pace": 352000000000, "time": 3529.1}}, "weekday": "sunday", "livingplace": "La Tour de Peilz"}}, "location": "Lausanne"}, "Tour du Pays de Vaud #4 - La Sarraz": {"latitude": 46.7088129, "longitude": 6.5707689, "race": "Tour du Pays de Vaud #4 - La Sarraz", "date": {"mer. 29.08.2012": {"year": 2012, "day": 29, "month": 8, "categories": {"H-Sen2": {"distance": 9, "rank": 170, "pace": 374000000000, "time": 3180.1}}, "weekday": "wednesday", "livingplace": "La Tour de Peilz"}}, "location": "Chavornay"}, "Tour du Chablais #2 Bex": {"latitude": 46.3835529, "longitude": 6.854975199999999, "race": "Tour du Chablais #2 Bex", "date": {"mer. 18.04.2012": {"year": 2012, "day": 18, "month": 4, "categories": {"M-M40": {"distance": 8, "rank": 157, "pace": 373000000000, "time": 2984.3}}, "weekday": "wednesday", "livingplace": "La Tour de Peilz"}}, "location": "Bouveret"}, "Tour du Chablais #3 Bouveret": {"latitude": 46.1782231, "longitude": 7.0223787, "race": "Tour du Chablais #3 Bouveret", "date": {"mer. 17.04.2013": {"year": 2013, "day": 17, "month": 4, "categories": {"M-M40": {"distance": 10, "rank": 144, "pace": 353000000000, "time": 3537.1}}, "weekday": "wednesday", "livingplace": "La Tour de Peilz"}}, "location": "Evionnaz"}}, "birth": 1967}