{"name": "Eugster Myriam", "sex": "F", "races": {"Thuner Stadtlauf, Thun": {"latitude": 46.7579868, "longitude": 7.6279881, "race": "Thuner Stadtlauf, Thun", "date": {"dim. 22.08.2010": {"year": 2010, "day": 22, "month": 8, "categories": {"10-W20": {"distance": 10, "rank": 3, "pace": 277000000000, "time": 2776.3}}, "weekday": "sunday", "livingplace": "Vevey"}}, "location": "Thun"}, "Morat-Fribourg": {"latitude": 46.92922110000001, "longitude": 7.120184, "race": "Morat-Fribourg", "date": {"sam. 01.10.2011": {"year": 2011, "day": 1, "month": 10, "categories": {"17-W20": {"distance": 17, "rank": 24, "pace": 275000000000, "time": 4738.1}}, "weekday": "saturday", "livingplace": "Vevey"}}, "location": "Murten"}, "ASICS Bremgarter Reusslauf": {"latitude": 47.34917739999999, "longitude": 8.3397905, "race": "ASICS Bremgarter Reusslauf", "date": {"sam. 25.02.2012": {"year": 2012, "day": 25, "month": 2, "categories": {"F20": {"distance": 11, "rank": 21, "pace": 263000000000, "time": 2900.6}}, "weekday": "saturday", "livingplace": "Vevey"}, "sam. 26.02.2011": {"year": 2011, "day": 26, "month": 2, "categories": {"F20": {"distance": 11, "rank": 30, "pace": 273000000000, "time": 3012.2}}, "weekday": "saturday", "livingplace": "Vevey"}}, "location": "Bremgarten AG"}, "Tour du Pays de Vaud printanier #1 Chavornay": {"latitude": 46.3832683, "longitude": 6.2347852, "race": "Tour du Pays de Vaud printanier #1 Chavornay", "date": {"mer. 30.05.2012": {"year": 2012, "day": 30, "month": 5, "categories": {"D-Dam": {"distance": 9, "rank": 3, "pace": 276000000000, "time": 2470.8}}, "weekday": "wednesday", "livingplace": "Vevey"}}, "location": "Nyon"}, "Schweizer Frauenlauf Bern": {"latitude": 46.9479739, "longitude": 7.4474468, "race": "Schweizer Frauenlauf Bern", "date": {"dim. 13.06.2010": {"year": 2010, "day": 13, "month": 6, "categories": {"10-W20": {"distance": 10, "rank": 37, "pace": 275000000000, "time": 2758.8}}, "weekday": "sunday", "livingplace": "Vevey"}}, "location": "Bern"}, "20km de Lausanne": {"latitude": 46.5196535, "longitude": 6.6322734, "race": "20km de Lausanne", "date": {"sam. 28.04.2012": {"year": 2012, "day": 28, "month": 4, "categories": {"20-F20": {"distance": 20, "rank": 8, "pace": 272000000000, "time": 5452.8}}, "weekday": "saturday", "livingplace": "Vevey"}}, "location": "Lausanne"}, "D\u00e9fi du vignoble, Cully": {"latitude": 45.565921, "longitude": -122.6066627, "race": "D\u00e9fi du vignoble, Cully", "date": {"mer. 14.05.2014": {"year": 2014, "day": 14, "month": 5, "categories": {"F30": {"distance": 4, "rank": 3, "pace": 520000000000, "time": 1895.0}}, "weekday": "wednesday", "livingplace": "Vevey"}}, "location": "Cully"}, "Kerzerslauf": {"latitude": 46.97488999999999, "longitude": 7.1954365, "race": "Kerzerslauf", "date": {"sam. 20.03.2010": {"year": 2010, "day": 20, "month": 3, "categories": {"15-F20": {"distance": 15, "rank": 71, "pace": 293000000000, "time": 4397.3}}, "weekday": "saturday", "livingplace": "Vevey"}, "sam. 19.03.2011": {"year": 2011, "day": 19, "month": 3, "categories": {"15-F20": {"distance": 15, "rank": 56, "pace": 290000000000, "time": 4361.4}}, "weekday": "saturday", "livingplace": "Vevey"}, "sam. 17.03.2012": {"year": 2012, "day": 17, "month": 3, "categories": {"15-F20": {"distance": 15, "rank": 36, "pace": 270000000000, "time": 4052.7}}, "weekday": "saturday", "livingplace": "Vevey"}}, "location": "Kerzers"}, "Montreux - Les Rochers de Naye": {"latitude": 46.4312213, "longitude": 6.9106799, "race": "Montreux - Les Rochers de Naye", "date": {"dim. 11.07.2010": {"year": 2010, "day": 11, "month": 7, "categories": {"C-Femmes": {"distance": 10, "rank": 16, "pace": 466000000000, "time": 4427.5}}, "weekday": "sunday", "livingplace": "Vevey"}}, "location": "Montreux"}, "Aegeriseelauf, Ober\u00e4geri": {"latitude": NaN, "longitude": NaN, "race": "Aegeriseelauf, Ober\u00e4geri", "date": {"ven. 19.07.2013": {"year": 2013, "day": 19, "month": 7, "categories": {"Dam1": {"distance": 14, "rank": 35, "pace": 281000000000, "time": 3981.3}}, "weekday": "friday", "livingplace": "Vevey"}}, "location": "Ober\u00e4geri"}, "Tour du Chablais #1 Montreux": {"latitude": 46.2957462, "longitude": 6.9916269, "race": "Tour du Chablais #1 Montreux", "date": {"mer. 11.04.2012": {"year": 2012, "day": 11, "month": 4, "categories": {"F-F20": {"distance": 8, "rank": 10, "pace": 272000000000, "time": 2072.0}}, "weekday": "wednesday", "livingplace": "Vevey"}}, "location": "Ollon VD"}, "Lausanne Marathon": {"latitude": 46.5196535, "longitude": 6.6322734, "race": "Lausanne Marathon", "date": {"dim. 30.10.2011": {"year": 2011, "day": 30, "month": 10, "categories": {"42-D1": {"distance": 42, "rank": 5, "pace": 295000000000, "time": 12467.8}}, "weekday": "sunday", "livingplace": "Vevey"}}, "location": "Lausanne"}, "Tour du Pays de Vaud #5 - La Sarraz": {"latitude": 46.5993131, "longitude": 6.539251200000001, "race": "Tour du Pays de Vaud #5 - La Sarraz", "date": {"mer. 08.09.2010": {"year": 2010, "day": 8, "month": 9, "categories": {"Dam": {"distance": 9, "rank": 5, "pace": 287000000000, "time": 2616.0}}, "weekday": "wednesday", "livingplace": "Vevey"}}, "location": "Penthaz"}, "Tour du Pays de Vaud printanier #2 Yens": {"latitude": 46.6698891, "longitude": 6.7975224, "race": "Tour du Pays de Vaud printanier #2 Yens", "date": {"mer. 06.06.2012": {"year": 2012, "day": 6, "month": 6, "categories": {"D-Dam": {"distance": 9, "rank": 3, "pace": 282000000000, "time": 2575.1}}, "weekday": "wednesday", "livingplace": "Vevey"}}, "location": "Moudon"}, "Course de l'Avent, Yverdon": {"latitude": 46.8064773, "longitude": 7.161971899999999, "race": "Course de l'Avent, Yverdon", "date": {"dim. 27.11.2011": {"year": 2011, "day": 27, "month": 11, "categories": {"E-F2": {"distance": 8, "rank": 4, "pace": 253000000000, "time": 1962.5}}, "weekday": "sunday", "livingplace": "Vevey"}}, "location": "Fribourg"}}, "birth": 1983}