{"name": "Fader Rolf", "sex": "M", "races": {"ASICS Bremgarter Reusslauf": {"latitude": 47.34917739999999, "longitude": 8.3397905, "race": "ASICS Bremgarter Reusslauf", "date": {"sam. 21.02.2004": {"year": 2004, "day": 21, "month": 2, "categories": {"13": {"distance": 11, "rank": 474, "pace": 429000000000, "time": 4505.6}}, "weekday": "saturday", "livingplace": "Besenb"}}, "location": "Bremgarten AG"}, "Laufsporttag Winterthur": {"latitude": 39.8088766, "longitude": -75.6037351, "race": "Laufsporttag Winterthur", "date": {"sam. 05.03.2005": {"year": 2005, "day": 5, "month": 3, "categories": {"C": {"distance": 11, "rank": 139, "pace": 317000000000, "time": 3490.4}}, "weekday": "saturday", "livingplace": "Besenburen"}, "sam. 06.03.2004": {"year": 2004, "day": 6, "month": 3, "categories": {"C": {"distance": 11, "rank": 204, "pace": 402000000000, "time": 4432.9}}, "weekday": "saturday", "livingplace": "Besenb"}}, "location": "Winterthur"}, "Badener Limmat-Lauf, Baden": {"latitude": 48.5699281, "longitude": 8.5303972, "race": "Badener Limmat-Lauf, Baden", "date": {"sam. 27.03.2004": {"year": 2004, "day": 27, "month": 3, "categories": {"13": {"distance": 13, "rank": 160, "pace": 380000000000, "time": 5007.9}}, "weekday": "saturday", "livingplace": "Besenb"}}, "location": "Baden"}, "Dietiker Neujahrslauf, Dietikon": {"latitude": 47.4053885, "longitude": 8.39977, "race": "Dietiker Neujahrslauf, Dietikon", "date": {"sam. 08.01.2005": {"year": 2005, "day": 8, "month": 1, "categories": {"C": {"distance": 12, "rank": 296, "pace": 415000000000, "time": 5023.9}}, "weekday": "saturday", "livingplace": "Besenburen"}}, "location": "Dietikon"}, "Z\u00fcrich Marathon, Teamrun und Cityrun": {"latitude": 47.3768866, "longitude": 8.541694, "race": "Z\u00fcrich Marathon, Teamrun und Cityrun", "date": {"dim. 03.04.2005": {"year": 2005, "day": 3, "month": 4, "categories": {"M45": {"distance": 42, "rank": 683, "pace": 403000000000, "time": 17023.9}}, "weekday": "sunday", "livingplace": "Besenb"}, "dim. 04.04.2004": {"year": 2004, "day": 4, "month": 4, "categories": {"M45": {"distance": 42, "rank": 708, "pace": 432000000000, "time": 18262.1}}, "weekday": "sunday", "livingplace": "Besenb"}}, "location": "Z\u00fcrich"}, "Hallwilerseelauf, Beinwil am See": {"latitude": NaN, "longitude": NaN, "race": "Hallwilerseelauf, Beinwil am See", "date": {"sam. 09.10.2004": {"year": 2004, "day": 9, "month": 10, "categories": {"13": {"distance": 21, "rank": 727, "pace": 470000000000, "time": 9933.3}}, "weekday": "saturday", "livingplace": "Besenb"}}, "location": "Beinwil am See"}, "Int Greifenseelauf, Uster": {"latitude": 47.3482747, "longitude": 8.717873899999999, "race": "Int Greifenseelauf, Uster", "date": {"sam. 18.09.2004": {"year": 2004, "day": 18, "month": 9, "categories": {"H/M45": {"distance": 21, "rank": 898, "pace": 495000000000, "time": 10447.9}}, "weekday": "saturday", "livingplace": "Besenb"}}, "location": "Uster"}}, "birth": 1956}