{"name": "Fahrni Maxime-Valentin", "sex": "M", "races": {"Course de l'Escalade, Gen\u00e8ve": {"latitude": 46.2043907, "longitude": 6.1431577, "race": "Course de l'Escalade, Gen\u00e8ve", "date": {"sam. 05.12.2009": {"year": 2009, "day": 5, "month": 12, "categories": {"HPousA9": {"distance": 2, "rank": 10, "pace": 236000000000, "time": 419.0}}, "weekday": "saturday", "livingplace": "Rochefort"}, "sam. 07.12.2013": {"year": 2013, "day": 7, "month": 12, "categories": {"EcoM-A": {"distance": 2, "rank": 19, "pace": 226000000000, "time": 526.6}}, "weekday": "saturday", "livingplace": "Rochefort"}, "sam. 04.12.2010": {"year": 2010, "day": 4, "month": 12, "categories": {"H-EB10": {"distance": 2, "rank": 8, "pace": 229000000000, "time": 533.6}}, "weekday": "saturday", "livingplace": "Rochefort"}}, "location": "Gen\u00e8ve"}, "BCN Tour Fontaine Cernier": {"latitude": 47.0624261, "longitude": 6.9175754, "race": "BCN Tour Fontaine Cernier", "date": {"mer. 27.04.2011": {"year": 2011, "day": 27, "month": 4, "categories": {"KG2": {"distance": 2, "rank": 4, "pace": 273000000000, "time": 465.4}}, "weekday": "wednesday", "livingplace": "Rochefort"}}, "location": "Ch\u00e9zard-St-Martin"}, "BCN Tour Le Landeron": {"latitude": 46.9668714, "longitude": 6.8589727, "race": "BCN Tour Le Landeron", "date": {"mer. 22.04.2009": {"year": 2009, "day": 22, "month": 4, "categories": {"KG1": {"distance": 2, "rank": 3, "pace": 242000000000, "time": 484.3}}, "weekday": "wednesday", "livingplace": "Rochefort"}}, "location": "Colombier NE"}, "Int  Bieler Cross, Biel-Bienne": {"latitude": 47.1367785, "longitude": 7.2467909, "race": "Int  Bieler Cross, Biel-Bienne", "date": {"dim. 14.11.2010": {"year": 2010, "day": 14, "month": 11, "categories": {"MU12": {"distance": 2, "rank": 8, "pace": 222000000000, "time": 334.0}}, "weekday": "sunday", "livingplace": "Rochefort"}, "dim. 10.11.2013": {"year": 2013, "day": 10, "month": 11, "categories": {"MU14": {"distance": 2, "rank": 2, "pace": 201000000000, "time": 302.7}}, "weekday": "sunday", "livingplace": "CEP Cortaillod"}}, "location": "Biel/Bienne"}, "Les Traine-Savates, Cheseaux-sur-Lausanne": {"latitude": 46.585452, "longitude": 6.6047712, "race": "Les Traine-Savates, Cheseaux-sur-Lausanne", "date": {"sam. 04.04.2009": {"year": 2009, "day": 4, "month": 4, "categories": {"EcolC-M": {"distance": 2, "rank": 2, "pace": 225000000000, "time": 383.1}}, "weekday": "saturday", "livingplace": "Rochefort"}, "sam. 10.04.2010": {"year": 2010, "day": 10, "month": 4, "categories": {"EcolB-M": {"distance": 3, "rank": 8, "pace": 249000000000, "time": 848.0}}, "weekday": "saturday", "livingplace": "Rochefort"}}, "location": "Cheseaux-sur-Lausanne"}, "BCN Tour Ponts-de-Martel": {"latitude": 47.0624261, "longitude": 6.9175754, "race": "BCN Tour Ponts-de-Martel", "date": {"mer. 28.04.2010": {"year": 2010, "day": 28, "month": 4, "categories": {"KG2": {"distance": 2, "rank": 8, "pace": 204000000000, "time": 449.2}}, "weekday": "wednesday", "livingplace": "Rochefort"}}, "location": "Ch\u00e9zard-St-Martin"}, "BCN Tour Auvernier": {"latitude": 46.9668714, "longitude": 6.8589727, "race": "BCN Tour Auvernier", "date": {"mer. 20.04.2011": {"year": 2011, "day": 20, "month": 4, "categories": {"KG2": {"distance": 1, "rank": 2, "pace": 209000000000, "time": 282.3}}, "weekday": "wednesday", "livingplace": "Rochefort"}}, "location": "Colombier NE"}, "BCN Tour Le Locle": {"latitude": 46.999113, "longitude": 6.733554799999999, "race": "BCN Tour Le Locle", "date": {"mer. 05.05.2010": {"year": 2010, "day": 5, "month": 5, "categories": {"KG2": {"distance": 2, "rank": 12, "pace": 259000000000, "time": 467.5}}, "weekday": "wednesday", "livingplace": "Rochefort"}}, "location": "Les Ponts-de-Martel"}, "10km, Payerne": {"latitude": 46.8220266, "longitude": 6.9405663, "race": "10km, Payerne", "date": {"sam. 10.03.2012": {"year": 2012, "day": 10, "month": 3, "categories": {"M U14": {"distance": 1, "rank": 2, "pace": 237000000000, "time": 355.8}}, "weekday": "saturday", "livingplace": "Rochefort"}}, "location": "Payerne"}, "BCN Tour La Chaux-de-Fonds": {"latitude": 47.1034892, "longitude": 6.832783800000001, "race": "BCN Tour La Chaux-de-Fonds", "date": {"mer. 11.05.2011": {"year": 2011, "day": 11, "month": 5, "categories": {"KG2": {"distance": 1, "rank": 4, "pace": 392000000000, "time": 381.2}}, "weekday": "wednesday", "livingplace": "Rochefort"}}, "location": "La Chaux-de-Fonds"}, "BCN Tour La Br\u00e9vine": {"latitude": 46.999113, "longitude": 6.733554799999999, "race": "BCN Tour La Br\u00e9vine", "date": {"mer. 04.05.2011": {"year": 2011, "day": 4, "month": 5, "categories": {"KG2": {"distance": 2, "rank": 5, "pace": 242000000000, "time": 460.2}}, "weekday": "wednesday", "livingplace": "Rochefort"}}, "location": "Les Ponts-de-Martel"}, "BCN Tour Neuch\u00e2tel": {"latitude": 46.9899874, "longitude": 6.9292732, "race": "BCN Tour Neuch\u00e2tel", "date": {"mer. 26.05.2010": {"year": 2010, "day": 26, "month": 5, "categories": {"KG2": {"distance": 2, "rank": 6, "pace": 206000000000, "time": 309.9}}, "weekday": "wednesday", "livingplace": "Rochefort"}, "mer. 25.05.2011": {"year": 2011, "day": 25, "month": 5, "categories": {"KG2": {"distance": 2, "rank": 3, "pace": 227000000000, "time": 455.9}}, "weekday": "wednesday", "livingplace": "Rochefort"}}, "location": "Neuch\u00e2tel"}, "BCN Tour Les Ponts de Martel": {"latitude": 46.9262933, "longitude": 6.6324944, "race": "BCN Tour Les Ponts de Martel", "date": {"mer. 18.05.2011": {"year": 2011, "day": 18, "month": 5, "categories": {"KG2": {"distance": 2, "rank": 3, "pace": 220000000000, "time": 434.7}}, "weekday": "wednesday", "livingplace": "Rochefort"}}, "location": "Couvet"}, "BCN Tour M\u00f4tier": {"latitude": 46.9262933, "longitude": 6.6324944, "race": "BCN Tour M\u00f4tier", "date": {"mer. 19.05.2010": {"year": 2010, "day": 19, "month": 5, "categories": {"KG2": {"distance": 2, "rank": 12, "pace": 232000000000, "time": 419.0}}, "weekday": "wednesday", "livingplace": "Rochefort"}}, "location": "Couvet"}, "BCN Tour Cornaux": {"latitude": 46.9668714, "longitude": 6.8589727, "race": "BCN Tour Cornaux", "date": {"mer. 25.04.2012": {"year": 2012, "day": 25, "month": 4, "categories": {"KG3": {"distance": 3, "rank": 9, "pace": 240000000000, "time": 672.2}}, "weekday": "wednesday", "livingplace": "Rochefort"}}, "location": "Colombier NE"}, "BCN Tour La Chaux-de-fonds": {"latitude": 47.1034892, "longitude": 6.832783800000001, "race": "BCN Tour La Chaux-de-fonds", "date": {"mer. 12.05.2010": {"year": 2010, "day": 12, "month": 5, "categories": {"KG2": {"distance": 1, "rank": 10, "pace": 694000000000, "time": 674.0}}, "weekday": "wednesday", "livingplace": "Rochefort"}}, "location": "La Chaux-de-Fonds"}, "BCN Tour Colombier": {"latitude": 46.9668714, "longitude": 6.8589727, "race": "BCN Tour Colombier", "date": {"mer. 21.04.2010": {"year": 2010, "day": 21, "month": 4, "categories": {"KG2": {"distance": 2, "rank": 9, "pace": 274000000000, "time": 549.0}}, "weekday": "wednesday", "livingplace": "Rochefort"}}, "location": "Colombier NE"}}, "birth": 2000}