{"name": "Fankhauser Remo", "sex": "M", "races": {"Int Greifenseelauf, Uster": {"latitude": 47.3482747, "longitude": 8.717873899999999, "race": "Int Greifenseelauf, Uster", "date": {"sam. 22.09.2007": {"year": 2007, "day": 22, "month": 9, "categories": {"JC": {"distance": 2, "rank": 48, "pace": 240000000000, "time": 385.2}}, "weekday": "saturday", "livingplace": "Zurich"}}, "location": "Uster"}, "Sihltaler Fr\u00fchlingslauf, Gattikon": {"latitude": 47.2949282, "longitude": 8.5644799, "race": "Sihltaler Fr\u00fchlingslauf, Gattikon", "date": {"mar. 01.05.2007": {"year": 2007, "day": 1, "month": 5, "categories": {"34": {"distance": 2, "rank": 15, "pace": 293000000000, "time": 528.6}}, "weekday": "tuesday", "livingplace": "Zurich"}}, "location": "Gattikon"}, "Basler Stadtlauf": {"latitude": 47.5595986, "longitude": 7.5885761, "race": "Basler Stadtlauf", "date": {"sam. 24.11.2007": {"year": 2007, "day": 24, "month": 11, "categories": {"C": {"distance": 2, "rank": 124, "pace": 271000000000, "time": 433.7}}, "weekday": "saturday", "livingplace": "Zurich"}, "sam. 25.11.2006": {"year": 2006, "day": 25, "month": 11, "categories": {"C": {"distance": 2, "rank": 171, "pace": 281000000000, "time": 450.9}}, "weekday": "saturday", "livingplace": "Zurich"}}, "location": "Basel"}, "GP Fricktal, Eiken": {"latitude": NaN, "longitude": NaN, "race": "GP Fricktal, Eiken", "date": {"sam. 07.04.2007": {"year": 2007, "day": 7, "month": 4, "categories": {"SchAm": {"distance": 2, "rank": 42, "pace": 268000000000, "time": 430.3}}, "weekday": "saturday", "livingplace": "Zurich"}}, "location": "Eiken"}, "Gurtenclassic, Wabern": {"latitude": 46.92901639999999, "longitude": 7.448973199999999, "race": "Gurtenclassic, Wabern", "date": {"dim. 05.11.2006": {"year": 2006, "day": 5, "month": 11, "categories": {"M11": {"distance": 2, "rank": 26, "pace": 282000000000, "time": 520.1}}, "weekday": "sunday", "livingplace": "Zurich"}}, "location": "Wabern"}, "Z\u00fcrcher Silvesterlauf, Z\u00fcrich": {"latitude": 47.3768866, "longitude": 8.541694, "race": "Z\u00fcrcher Silvesterlauf, Z\u00fcrich", "date": {"dim. 10.12.2006": {"year": 2006, "day": 10, "month": 12, "categories": {"Sch\u00fcA-M": {"distance": 1, "rank": 107, "pace": 254000000000, "time": 356.7}}, "weekday": "sunday", "livingplace": "Zurich"}}, "location": "Z\u00fcrich"}, "Sihlcity Kidsmarathon, Z\u00fcrich": {"latitude": 47.3768866, "longitude": 8.541694, "race": "Sihlcity Kidsmarathon, Z\u00fcrich", "date": {"dim. 25.03.2007": {"year": 2007, "day": 25, "month": 3, "categories": {"M12": {"distance": 2, "rank": 16, "pace": 261000000000, "time": 418.2}}, "weekday": "sunday", "livingplace": "Zurich"}}, "location": "Z\u00fcrich"}, "Kerzerslauf": {"latitude": 46.97488999999999, "longitude": 7.1954365, "race": "Kerzerslauf", "date": {"sam. 17.03.2007": {"year": 2007, "day": 17, "month": 3, "categories": {"M13": {"distance": 1, "rank": 72, "pace": 249000000000, "time": 349.1}}, "weekday": "saturday", "livingplace": "Zurich"}}, "location": "Kerzers"}}, "birth": 1995}