{"name": "Farine Jean-Daniel", "sex": "M", "races": {"BCN Tour La Br\u00e9vine": {"latitude": 46.999113, "longitude": 6.733554799999999, "race": "BCN Tour La Br\u00e9vine", "date": {"mer. 04.05.2011": {"year": 2011, "day": 4, "month": 5, "categories": {"HS1": {"distance": 10, "rank": 244, "pace": 399000000000, "time": 3999.2}}, "weekday": "wednesday", "livingplace": "Cernier"}}, "location": "Les Ponts-de-Martel"}, "Morat-Fribourg": {"latitude": 46.92922110000001, "longitude": 7.120184, "race": "Morat-Fribourg", "date": {"sam. 03.10.2009": {"year": 2009, "day": 3, "month": 10, "categories": {"C-M20": {"distance": 17, "rank": 500, "pace": 277000000000, "time": 4771.5}}, "weekday": "saturday", "livingplace": "Cernier"}}, "location": "Murten"}, "BCN Tour Fontaine Cernier": {"latitude": 47.0624261, "longitude": 6.9175754, "race": "BCN Tour Fontaine Cernier", "date": {"mer. 27.04.2011": {"year": 2011, "day": 27, "month": 4, "categories": {"HS1": {"distance": 10, "rank": 161, "pace": 298000000000, "time": 3073.7}}, "weekday": "wednesday", "livingplace": "Cernier"}}, "location": "Ch\u00e9zard-St-Martin"}, "La Trotteuse-Tissot, La Chaux-de-Fonds": {"latitude": 47.1034892, "longitude": 6.832783800000001, "race": "La Trotteuse-Tissot, La Chaux-de-Fonds", "date": {"sam. 18.12.2010": {"year": 2010, "day": 18, "month": 12, "categories": {"GC-H30": {"distance": 8, "rank": 92, "pace": 343000000000, "time": 2748.2}}, "weekday": "saturday", "livingplace": "Cernier"}}, "location": "La Chaux-de-Fonds"}, "BCN Tour Neuch\u00e2tel": {"latitude": 46.9899874, "longitude": 6.9292732, "race": "BCN Tour Neuch\u00e2tel", "date": {"mer. 26.05.2010": {"year": 2010, "day": 26, "month": 5, "categories": {"HS1": {"distance": 10, "rank": 255, "pace": 471000000000, "time": 4574.3}}, "weekday": "wednesday", "livingplace": "Cernier"}, "mer. 30.05.2012": {"year": 2012, "day": 30, "month": 5, "categories": {"HS1": {"distance": 11, "rank": 204, "pace": 350000000000, "time": 3925.7}}, "weekday": "wednesday", "livingplace": "La Chaux du Milieu"}, "mer. 25.05.2011": {"year": 2011, "day": 25, "month": 5, "categories": {"HS1": {"distance": 11, "rank": 248, "pace": 362000000000, "time": 4135.8}}, "weekday": "wednesday", "livingplace": "Cernier"}}, "location": "Neuch\u00e2tel"}, "BCN Tour Les Ponts de Martel": {"latitude": 46.9262933, "longitude": 6.6324944, "race": "BCN Tour Les Ponts de Martel", "date": {"mer. 18.05.2011": {"year": 2011, "day": 18, "month": 5, "categories": {"HS1": {"distance": 13, "rank": 148, "pace": 317000000000, "time": 4067.1}}, "weekday": "wednesday", "livingplace": "Cernier"}}, "location": "Couvet"}, "BCN Tour La Chaux-de-Fonds": {"latitude": 47.1034892, "longitude": 6.832783800000001, "race": "BCN Tour La Chaux-de-Fonds", "date": {"mer. 11.05.2011": {"year": 2011, "day": 11, "month": 5, "categories": {"HS1": {"distance": 11, "rank": 184, "pace": 367000000000, "time": 3931.3}}, "weekday": "wednesday", "livingplace": "Cernier"}}, "location": "La Chaux-de-Fonds"}, "BCN Tour Boudry": {"latitude": 46.9668714, "longitude": 6.8589727, "race": "BCN Tour Boudry", "date": {"mer. 26.04.2006": {"year": 2006, "day": 26, "month": 4, "categories": {"HE": {"distance": 10, "rank": 62, "pace": 299000000000, "time": 3052.0}}, "weekday": "wednesday", "livingplace": "Cernier"}}, "location": "Colombier NE"}, "BCN Tour Le Landeron": {"latitude": 46.9668714, "longitude": 6.8589727, "race": "BCN Tour Le Landeron", "date": {"mer. 22.04.2009": {"year": 2009, "day": 22, "month": 4, "categories": {"HS1": {"distance": 11, "rank": 106, "pace": 299000000000, "time": 3326.3}}, "weekday": "wednesday", "livingplace": "Greubel Forsey"}}, "location": "Colombier NE"}, "BCN Tour Auvernier": {"latitude": 46.9668714, "longitude": 6.8589727, "race": "BCN Tour Auvernier", "date": {"mer. 20.04.2011": {"year": 2011, "day": 20, "month": 4, "categories": {"HS1": {"distance": 11, "rank": 162, "pace": 328000000000, "time": 3548.6}}, "weekday": "wednesday", "livingplace": "Cernier"}}, "location": "Colombier NE"}, "BCN Tour Colombier": {"latitude": 46.9668714, "longitude": 6.8589727, "race": "BCN Tour Colombier", "date": {"mer. 23.04.2008": {"year": 2008, "day": 23, "month": 4, "categories": {"HE": {"distance": 10, "rank": 72, "pace": 310000000000, "time": 3168.8}}, "weekday": "wednesday", "livingplace": "Cernier"}}, "location": "Colombier NE"}}, "birth": 1979}