{"name": "Fasel Nathalie", "sex": "F", "races": {"Schweizer Frauenlauf Bern": {"latitude": 46.9479739, "longitude": 7.4474468, "race": "Schweizer Frauenlauf Bern", "date": {"dim. 14.06.2009": {"year": 2009, "day": 14, "month": 6, "categories": {"10-W40": {"distance": 10, "rank": 593, "pace": 470000000000, "time": 4708.2}}, "weekday": "sunday", "livingplace": "Le Locle"}}, "location": "Bern"}, "Thuner Stadtlauf, Thun": {"latitude": 46.7579868, "longitude": 7.6279881, "race": "Thuner Stadtlauf, Thun", "date": {"dim. 05.09.2004": {"year": 2004, "day": 5, "month": 9, "categories": {"W30": {"distance": 10, "rank": 88, "pace": 402000000000, "time": 4029.0}}, "weekday": "sunday", "livingplace": "Ennetmoos"}}, "location": "Thun"}, "Morat-Fribourg": {"latitude": 46.92922110000001, "longitude": 7.120184, "race": "Morat-Fribourg", "date": {"dim. 05.10.2003": {"year": 2003, "day": 5, "month": 10, "categories": {"W35": {"distance": 17, "rank": 211, "pace": 427000000000, "time": 7340.7}}, "weekday": "sunday", "livingplace": "Ennetmoos"}}, "location": "Murten"}, "Kerzerslauf": {"latitude": 46.97488999999999, "longitude": 7.1954365, "race": "Kerzerslauf", "date": {"sam. 20.03.2004": {"year": 2004, "day": 20, "month": 3, "categories": {"F35": {"distance": 15, "rank": 170, "pace": 431000000000, "time": 6474.0}}, "weekday": "saturday", "livingplace": "Ennetmoos"}, "sam. 15.03.2008": {"year": 2008, "day": 15, "month": 3, "categories": {"15/F40": {"distance": 15, "rank": 195, "pace": 349000000000, "time": 5244.3}}, "weekday": "saturday", "livingplace": "Le Locle"}}, "location": "Kerzers"}, "Int Greifenseelauf, Uster": {"latitude": 47.3482747, "longitude": 8.717873899999999, "race": "Int Greifenseelauf, Uster", "date": {"sam. 17.09.2005": {"year": 2005, "day": 17, "month": 9, "categories": {"H/W35": {"distance": 21, "rank": 585, "pace": 439000000000, "time": 9281.5}}, "weekday": "saturday", "livingplace": "Le Locle"}}, "location": "Uster"}}, "birth": 1967}