{"name": "Fasola Sylvain", "sex": "M", "races": {"Tour du Pays de Vaud printanier #2 Yverdon-les-Bains": {"latitude": 46.6698891, "longitude": 6.7975224, "race": "Tour du Pays de Vaud printanier #2 Yverdon-les-Bains", "date": {"mer. 05.06.2013": {"year": 2013, "day": 5, "month": 6, "categories": {"H-Hom": {"distance": 9, "rank": 27, "pace": 289000000000, "time": 2633.6}}, "weekday": "wednesday", "livingplace": "Ste Croix"}}, "location": "Moudon"}, "Tour du pays de Vaud #1 - Penthaz": {"latitude": 46.5993131, "longitude": 6.539251200000001, "race": "Tour du pays de Vaud #1 - Penthaz", "date": {"mer. 14.08.2013": {"year": 2013, "day": 14, "month": 8, "categories": {"H-Hom": {"distance": 9, "rank": 54, "pace": 285000000000, "time": 2438.3}}, "weekday": "wednesday", "livingplace": "Ste Croix"}}, "location": "Penthaz"}, "Tour du Pays de Vaud printanier #3 - Yens": {"latitude": 46.7829756, "longitude": 6.5728678, "race": "Tour du Pays de Vaud printanier #3 - Yens", "date": {"mer. 12.06.2013": {"year": 2013, "day": 12, "month": 6, "categories": {"H-Hom": {"distance": 9, "rank": 35, "pace": 298000000000, "time": 2714.8}}, "weekday": "wednesday", "livingplace": "Ste Croix"}}, "location": "Champvent"}, "Tour du Pays de Vaud #2 - Mezi\u00e8res": {"latitude": 46.5955273, "longitude": 6.7702883, "race": "Tour du Pays de Vaud #2 - Mezi\u00e8res", "date": {"mer. 21.08.2013": {"year": 2013, "day": 21, "month": 8, "categories": {"H-Hom": {"distance": 8, "rank": 57, "pace": 311000000000, "time": 2524.1}}, "weekday": "wednesday", "livingplace": "Ste Croix"}}, "location": "M\u00e9zi\u00e8res VD"}, "Tour du Pays de Vaud printanier #1 Moudon": {"latitude": 46.3832683, "longitude": 6.2347852, "race": "Tour du Pays de Vaud printanier #1 Moudon", "date": {"mer. 29.05.2013": {"year": 2013, "day": 29, "month": 5, "categories": {"H-Hom": {"distance": 8, "rank": 29, "pace": 291000000000, "time": 2494.8}}, "weekday": "wednesday", "livingplace": "Ste Croix"}}, "location": "Nyon"}, "Lausanne Marathon": {"latitude": 46.5196535, "longitude": 6.6322734, "race": "Lausanne Marathon", "date": {"sam. 24.10.2015": {"year": 2015, "day": 24, "month": 10, "categories": {"10-H30": {"distance": 10, "rank": 430, "pace": 298000000000, "time": 2980.0}}, "weekday": "saturday", "livingplace": "Ste Croix"}, "dim. 27.10.2013": {"year": 2013, "day": 27, "month": 10, "categories": {"21-H1": {"distance": 21, "rank": 500, "pace": 346000000000, "time": 7310.6}}, "weekday": "sunday", "livingplace": "Ste Croix"}}, "location": "Lausanne"}, "Morat-Fribourg": {"latitude": 46.92922110000001, "longitude": 7.120184, "race": "Morat-Fribourg", "date": {"sam. 04.10.2014": {"year": 2014, "day": 4, "month": 10, "categories": {"17-M20": {"distance": 17, "rank": 1785, "pace": 346000000000, "time": 5945.4}}, "weekday": "saturday", "livingplace": "Ste Croix"}}, "location": "Murten"}, "20km de Lausanne": {"latitude": 46.5196535, "longitude": 6.6322734, "race": "20km de Lausanne", "date": {"sam. 30.04.2011": {"year": 2011, "day": 30, "month": 4, "categories": {"10-H20": {"distance": 10, "rank": 227, "pace": 288000000000, "time": 2885.1}}, "weekday": "saturday", "livingplace": "Ste Croix"}, "sam. 24.04.2010": {"year": 2010, "day": 24, "month": 4, "categories": {"10-H20": {"distance": 10, "rank": 362, "pace": 322000000000, "time": 3226.4}}, "weekday": "saturday", "livingplace": "L'Auberson"}, "sam. 28.04.2012": {"year": 2012, "day": 28, "month": 4, "categories": {"10-H20": {"distance": 10, "rank": 280, "pace": 294000000000, "time": 2944.7}}, "weekday": "saturday", "livingplace": "Ste Croix"}, "sam. 25.04.2015": {"year": 2015, "day": 25, "month": 4, "categories": {"10-H30": {"distance": 10, "rank": 270, "pace": 281000000000, "time": 2816.7}}, "weekday": "saturday", "livingplace": "Ste Croix"}, "sam. 27.04.2013": {"year": 2013, "day": 27, "month": 4, "categories": {"10-H20": {"distance": 10, "rank": 181, "pace": 270000000000, "time": 2709.2}}, "weekday": "saturday", "livingplace": "Ste Croix"}, "sam. 26.04.2014": {"year": 2014, "day": 26, "month": 4, "categories": {"10-H20": {"distance": 10, "rank": 397, "pace": 301000000000, "time": 3019.3}}, "weekday": "saturday", "livingplace": "Projet D"}}, "location": "Lausanne"}, "Tour du Pays de Vaud #3 - Chavornay": {"latitude": 46.7784736, "longitude": 6.641183, "race": "Tour du Pays de Vaud #3 - Chavornay", "date": {"mer. 28.08.2013": {"year": 2013, "day": 28, "month": 8, "categories": {"H-Hom": {"distance": 9, "rank": 46, "pace": 268000000000, "time": 2390.6}}, "weekday": "wednesday", "livingplace": "Ste Croix"}}, "location": "Yverdon-les-Bains"}, "Les Traine-Savates, Cheseaux-sur-Lausanne": {"latitude": 46.585452, "longitude": 6.6047712, "race": "Les Traine-Savates, Cheseaux-sur-Lausanne", "date": {"sam. 13.04.2013": {"year": 2013, "day": 13, "month": 4, "categories": {"10-M20": {"distance": 10, "rank": 152, "pace": 287000000000, "time": 2957.4}}, "weekday": "saturday", "livingplace": "Ste Croix"}}, "location": "Cheseaux-sur-Lausanne"}, "Tour du Pays de Vaud #4 - La Sarraz": {"latitude": 46.7088129, "longitude": 6.5707689, "race": "Tour du Pays de Vaud #4 - La Sarraz", "date": {"mer. 04.09.2013": {"year": 2013, "day": 4, "month": 9, "categories": {"H-Hom": {"distance": 9, "rank": 58, "pace": 286000000000, "time": 2436.4}}, "weekday": "wednesday", "livingplace": "Ste Croix"}}, "location": "Chavornay"}}, "birth": 1985}