{"name": "Fasthuber Robert", "sex": "M", "races": {"Frauenfelder": {"latitude": NaN, "longitude": NaN, "race": "Frauenfelder", "date": {"dim. 16.11.2014": {"year": 2014, "day": 16, "month": 11, "categories": {"M-M30": {"distance": 42, "rank": 13, "pace": 284000000000, "time": 11995.3}}, "weekday": "sunday", "livingplace": "Thalwil"}}, "location": "Frauenfeld"}, "SwissCityMarathon - Lucerne, Luzern": {"latitude": 47.05016819999999, "longitude": 8.3093072, "race": "SwissCityMarathon - Lucerne, Luzern", "date": {"dim. 27.10.2013": {"year": 2013, "day": 27, "month": 10, "categories": {"M-M30": {"distance": 42, "rank": 111, "pace": 295000000000, "time": 12470.7}}, "weekday": "sunday", "livingplace": "Lausanne"}}, "location": "Luzern"}, "Sierre-Zinal, Sierre": {"latitude": 46.29413110000001, "longitude": 7.533536199999999, "race": "Sierre-Zinal, Sierre", "date": {"dim. 11.08.2013": {"year": 2013, "day": 11, "month": 8, "categories": {"Elites": {"distance": 31, "rank": 281, "pace": 510000000000, "time": 15813.3}}, "weekday": "sunday", "livingplace": "Lausanne"}}, "location": "Sierre"}, "20km de Lausanne": {"latitude": 46.5196535, "longitude": 6.6322734, "race": "20km de Lausanne", "date": {"sam. 25.04.2015": {"year": 2015, "day": 25, "month": 4, "categories": {"20-H30": {"distance": 20, "rank": 235, "pace": 266000000000, "time": 5328.8}}, "weekday": "saturday", "livingplace": "Thalwil"}, "sam. 27.04.2013": {"year": 2013, "day": 27, "month": 4, "categories": {"20-H30": {"distance": 20, "rank": 198, "pace": 266000000000, "time": 5322.5}}, "weekday": "saturday", "livingplace": "Lausanne"}, "sam. 28.04.2012": {"year": 2012, "day": 28, "month": 4, "categories": {"20-H30": {"distance": 20, "rank": 176, "pace": 277000000000, "time": 5556.2}}, "weekday": "saturday", "livingplace": "St. Marienkirchen bei S"}, "sam. 26.04.2014": {"year": 2014, "day": 26, "month": 4, "categories": {"20-H30": {"distance": 20, "rank": 127, "pace": 260000000000, "time": 5209.2}}, "weekday": "saturday", "livingplace": "Lausanne"}}, "location": "Lausanne"}, "Hallwilerseelauf, Beinwil am See": {"latitude": NaN, "longitude": NaN, "race": "Hallwilerseelauf, Beinwil am See", "date": {"sam. 11.10.2014": {"year": 2014, "day": 11, "month": 10, "categories": {"21-M30": {"distance": 21, "rank": 39, "pace": 240000000000, "time": 5079.0}}, "weekday": "saturday", "livingplace": "Thalwil"}}, "location": "Beinwil am See"}, "Tour du Pays de Vaud #4, La Sarraz": {"latitude": 46.7088129, "longitude": 6.5707689, "race": "Tour du Pays de Vaud #4, La Sarraz", "date": {"mer. 03.09.2014": {"year": 2014, "day": 3, "month": 9, "categories": {"H-Sen1": {"distance": 9, "rank": 13, "pace": 236000000000, "time": 2010.5}}, "weekday": "wednesday", "livingplace": "Lausanne"}}, "location": "Chavornay"}, "Z\u00fcrcher Silvesterlauf, Z\u00fcrich": {"latitude": 47.3768866, "longitude": 8.541694, "race": "Z\u00fcrcher Silvesterlauf, Z\u00fcrich", "date": {"dim. 14.12.2014": {"year": 2014, "day": 14, "month": 12, "categories": {"10-M30": {"distance": 10, "rank": 116, "pace": 238000000000, "time": 2380.9}}, "weekday": "sunday", "livingplace": "Thalwil"}}, "location": "Z\u00fcrich"}, "Lausanne Marathon": {"latitude": 46.5196535, "longitude": 6.6322734, "race": "Lausanne Marathon", "date": {"dim. 28.10.2012": {"year": 2012, "day": 28, "month": 10, "categories": {"21-H2": {"distance": 21, "rank": 146, "pace": 269000000000, "time": 5695.8}}, "weekday": "sunday", "livingplace": "Lausanne"}}, "location": "Lausanne"}, "Tour du Pays de Vaud #1, Penthaz": {"latitude": 46.5993131, "longitude": 6.539251200000001, "race": "Tour du Pays de Vaud #1, Penthaz", "date": {"mer. 13.08.2014": {"year": 2014, "day": 13, "month": 8, "categories": {"H-Sen1": {"distance": 9, "rank": 10, "pace": 225000000000, "time": 1920.8}}, "weekday": "wednesday", "livingplace": "Lausanne"}}, "location": "Penthaz"}, "Tour du Pays de Vaud printanier #3 - Yens": {"latitude": 46.7829756, "longitude": 6.5728678, "race": "Tour du Pays de Vaud printanier #3 - Yens", "date": {"mer. 18.06.2014": {"year": 2014, "day": 18, "month": 6, "categories": {"H-Sen1": {"distance": 9, "rank": 11, "pace": 239000000000, "time": 2181.7}}, "weekday": "wednesday", "livingplace": "Lausanne"}}, "location": "Champvent"}, "Tour du Pays de Vaud #3 - Chavornay": {"latitude": 46.7784736, "longitude": 6.641183, "race": "Tour du Pays de Vaud #3 - Chavornay", "date": {"mer. 28.08.2013": {"year": 2013, "day": 28, "month": 8, "categories": {"H-Sen1": {"distance": 9, "rank": 20, "pace": 239000000000, "time": 2130.5}}, "weekday": "wednesday", "livingplace": "Lausanne"}}, "location": "Yverdon-les-Bains"}, "Montreux - Les Rochers de Naye": {"latitude": 46.4312213, "longitude": 6.9106799, "race": "Montreux - Les Rochers de Naye", "date": {"dim. 06.07.2014": {"year": 2014, "day": 6, "month": 7, "categories": {"M-HElite": {"distance": 19, "rank": 54, "pace": 398000000000, "time": 7498.7}}, "weekday": "sunday", "livingplace": "Lausanne"}}, "location": "Montreux"}, "Morat-Fribourg": {"latitude": 46.92922110000001, "longitude": 7.120184, "race": "Morat-Fribourg", "date": {"sam. 05.10.2013": {"year": 2013, "day": 5, "month": 10, "categories": {"17-M20": {"distance": 17, "rank": 206, "pace": 250000000000, "time": 4366.3}}, "weekday": "saturday", "livingplace": "Lausanne"}}, "location": "Murten"}, "Tour du Pays de Vaud #4 - La Sarraz": {"latitude": 46.7088129, "longitude": 6.5707689, "race": "Tour du Pays de Vaud #4 - La Sarraz", "date": {"mer. 04.09.2013": {"year": 2013, "day": 4, "month": 9, "categories": {"H-Sen1": {"distance": 9, "rank": 30, "pace": 254000000000, "time": 2164.8}}, "weekday": "wednesday", "livingplace": "Lausanne"}}, "location": "Chavornay"}}, "birth": 1981}