{"name": "Favi Claudio", "sex": "M", "races": {"Tour du Chablais #1 Roche": {"latitude": 46.2957462, "longitude": 6.9916269, "race": "Tour du Chablais #1 Roche", "date": {"mer. 03.04.2013": {"year": 2013, "day": 3, "month": 4, "categories": {"M-M20": {"distance": 9, "rank": 49, "pace": 241000000000, "time": 2136.0}}, "weekday": "wednesday", "livingplace": "Ollon"}}, "location": "Ollon VD"}, "Morat-Fribourg": {"latitude": 46.92922110000001, "longitude": 7.120184, "race": "Morat-Fribourg", "date": {"sam. 04.10.2014": {"year": 2014, "day": 4, "month": 10, "categories": {"17-M20": {"distance": 17, "rank": 311, "pace": 263000000000, "time": 4526.0}}, "weekday": "saturday", "livingplace": "Ollon"}}, "location": "Murten"}, "Tour du Chablais #3 Le Bouveret": {"latitude": 46.1782231, "longitude": 7.0223787, "race": "Tour du Chablais #3 Le Bouveret", "date": {"mer. 11.05.2011": {"year": 2011, "day": 11, "month": 5, "categories": {"M-M20": {"distance": 10, "rank": 88, "pace": 257000000000, "time": 2578.4}}, "weekday": "wednesday", "livingplace": "Ollon"}}, "location": "Evionnaz"}, "Lausanne Marathon": {"latitude": 46.5196535, "longitude": 6.6322734, "race": "Lausanne Marathon", "date": {"dim. 28.10.2012": {"year": 2012, "day": 28, "month": 10, "categories": {"21-H2": {"distance": 21, "rank": 285, "pace": 286000000000, "time": 6055.0}}, "weekday": "sunday", "livingplace": "Ollon"}}, "location": "Lausanne"}, "20km de Lausanne": {"latitude": 46.5196535, "longitude": 6.6322734, "race": "20km de Lausanne", "date": {"sam. 30.04.2011": {"year": 2011, "day": 30, "month": 4, "categories": {"20-H30": {"distance": 20, "rank": 438, "pace": 293000000000, "time": 5863.6}}, "weekday": "saturday", "livingplace": "Ollon"}, "sam. 24.04.2010": {"year": 2010, "day": 24, "month": 4, "categories": {"20-H30": {"distance": 20, "rank": 177, "pace": 275000000000, "time": 5508.2}}, "weekday": "saturday", "livingplace": "Ollon"}, "sam. 27.04.2013": {"year": 2013, "day": 27, "month": 4, "categories": {"20-H30": {"distance": 20, "rank": 176, "pace": 263000000000, "time": 5265.7}}, "weekday": "saturday", "livingplace": "Nagrunners + Maison du Pe"}, "sam. 25.04.2015": {"year": 2015, "day": 25, "month": 4, "categories": {"20-H30": {"distance": 20, "rank": 108, "pace": 250000000000, "time": 5000.5}}, "weekday": "saturday", "livingplace": "Nagra   Maison du Pere"}, "sam. 26.04.2014": {"year": 2014, "day": 26, "month": 4, "categories": {"20-H30": {"distance": 20, "rank": 144, "pace": 263000000000, "time": 5263.1}}, "weekday": "saturday", "livingplace": "MaisonDuPere Nagra"}}, "location": "Lausanne"}, "Tour du Chablais #2 Yvorne": {"latitude": 46.3835529, "longitude": 6.854975199999999, "race": "Tour du Chablais #2 Yvorne", "date": {"mer. 10.04.2013": {"year": 2013, "day": 10, "month": 4, "categories": {"M-M20": {"distance": 8, "rank": 53, "pace": 261000000000, "time": 2091.9}}, "weekday": "wednesday", "livingplace": "Ollon"}}, "location": "Bouveret"}, "Tour du Chablais #6 Montreux": {"latitude": 46.3190253, "longitude": 6.970566, "race": "Tour du Chablais #6 Montreux", "date": {"mer. 16.05.2012": {"year": 2012, "day": 16, "month": 5, "categories": {"M-M20": {"distance": 9, "rank": 86, "pace": 255000000000, "time": 2361.3}}, "weekday": "wednesday", "livingplace": "Ollon"}}, "location": "Aigle"}, "Z\u00fcrich Marathon, Teamrun und Cityrun": {"latitude": 47.3768866, "longitude": 8.541694, "race": "Z\u00fcrich Marathon, Teamrun und Cityrun", "date": {"dim. 11.04.2010": {"year": 2010, "day": 11, "month": 4, "categories": {"M30": {"distance": 42, "rank": 385, "pace": 317000000000, "time": 13376.5}}, "weekday": "sunday", "livingplace": "St Triphon"}}, "location": "Z\u00fcrich"}}, "birth": 1980}