{"name": "Favre Emmanuel", "sex": "M", "races": {"Tour du Chablais #1 Roche": {"latitude": 46.2957462, "longitude": 6.9916269, "race": "Tour du Chablais #1 Roche", "date": {"mer. 03.04.2013": {"year": 2013, "day": 3, "month": 4, "categories": {"M-M20": {"distance": 9, "rank": 53, "pace": 245000000000, "time": 2171.1}}, "weekday": "wednesday", "livingplace": "Lutry"}}, "location": "Ollon VD"}, "Morat-Fribourg": {"latitude": 46.92922110000001, "longitude": 7.120184, "race": "Morat-Fribourg", "date": {"sam. 05.10.2013": {"year": 2013, "day": 5, "month": 10, "categories": {"17-M20": {"distance": 17, "rank": 337, "pace": 260000000000, "time": 4547.9}}, "weekday": "saturday", "livingplace": "Lutry"}, "sam. 03.10.2009": {"year": 2009, "day": 3, "month": 10, "categories": {"C-M20": {"distance": 17, "rank": 468, "pace": 275000000000, "time": 4738.8}}, "weekday": "saturday", "livingplace": "Pully"}, "sam. 06.10.2012": {"year": 2012, "day": 6, "month": 10, "categories": {"17-M20": {"distance": 17, "rank": 471, "pace": 273000000000, "time": 4779.3}}, "weekday": "saturday", "livingplace": "Lutry"}}, "location": "Murten"}, "Tour du Pays de Vaud #3 - Mezi\u00e8res": {"latitude": 46.7784736, "longitude": 6.641183, "race": "Tour du Pays de Vaud #3 - Mezi\u00e8res", "date": {"mer. 22.08.2012": {"year": 2012, "day": 22, "month": 8, "categories": {"H-Sen1": {"distance": 8, "rank": 24, "pace": 274000000000, "time": 2309.6}}, "weekday": "wednesday", "livingplace": "Lutry"}}, "location": "Yverdon-les-Bains"}, "20km de Lausanne": {"latitude": 46.5196535, "longitude": 6.6322734, "race": "20km de Lausanne", "date": {"sam. 27.04.2013": {"year": 2013, "day": 27, "month": 4, "categories": {"20-H30": {"distance": 20, "rank": 118, "pace": 254000000000, "time": 5097.6}}, "weekday": "saturday", "livingplace": "Lutry"}, "sam. 24.04.2010": {"year": 2010, "day": 24, "month": 4, "categories": {"20-H30": {"distance": 20, "rank": 116, "pace": 263000000000, "time": 5273.7}}, "weekday": "saturday", "livingplace": "Pully"}, "sam. 25.04.2009": {"year": 2009, "day": 25, "month": 4, "categories": {"20-H30": {"distance": 20, "rank": 196, "pace": 271000000000, "time": 5431.6}}, "weekday": "saturday", "livingplace": "Lutry"}, "sam. 25.04.2015": {"year": 2015, "day": 25, "month": 4, "categories": {"20-H40": {"distance": 20, "rank": 35, "pace": 244000000000, "time": 4899.9}}, "weekday": "saturday", "livingplace": "Lutry"}, "sam. 26.04.2014": {"year": 2014, "day": 26, "month": 4, "categories": {"20-H30": {"distance": 20, "rank": 72, "pace": 247000000000, "time": 4954.8}}, "weekday": "saturday", "livingplace": "Lutry"}}, "location": "Lausanne"}, "Tour du Pays de Vaud #3 - Chavornay": {"latitude": 46.7784736, "longitude": 6.641183, "race": "Tour du Pays de Vaud #3 - Chavornay", "date": {"mer. 28.08.2013": {"year": 2013, "day": 28, "month": 8, "categories": {"H-Sen1": {"distance": 9, "rank": 26, "pace": 241000000000, "time": 2149.3}}, "weekday": "wednesday", "livingplace": "Lutry"}}, "location": "Yverdon-les-Bains"}, "Tour du Chablais #2 Yvorne": {"latitude": 46.3835529, "longitude": 6.854975199999999, "race": "Tour du Chablais #2 Yvorne", "date": {"mer. 10.04.2013": {"year": 2013, "day": 10, "month": 4, "categories": {"M-M20": {"distance": 8, "rank": 48, "pace": 258000000000, "time": 2070.0}}, "weekday": "wednesday", "livingplace": "Lutry"}}, "location": "Bouveret"}, "Tour du Pays de Vaud printanier #3 - Yens": {"latitude": 46.7829756, "longitude": 6.5728678, "race": "Tour du Pays de Vaud printanier #3 - Yens", "date": {"mer. 12.06.2013": {"year": 2013, "day": 12, "month": 6, "categories": {"H-Sen1": {"distance": 9, "rank": 20, "pace": 260000000000, "time": 2371.2}}, "weekday": "wednesday", "livingplace": "Lutry"}}, "location": "Champvent"}, "Tour du Pays de Vaud #2 - Mezi\u00e8res": {"latitude": 46.5955273, "longitude": 6.7702883, "race": "Tour du Pays de Vaud #2 - Mezi\u00e8res", "date": {"mer. 21.08.2013": {"year": 2013, "day": 21, "month": 8, "categories": {"H-Sen1": {"distance": 8, "rank": 14, "pace": 255000000000, "time": 2070.0}}, "weekday": "wednesday", "livingplace": "Lutry"}}, "location": "M\u00e9zi\u00e8res VD"}, "Tour du Pays de Vaud etape 2 - Genolier": {"latitude": 46.5955273, "longitude": 6.7702883, "race": "Tour du Pays de Vaud etape 2 - Genolier", "date": {"mer. 19.08.2009": {"year": 2009, "day": 19, "month": 8, "categories": {"HSen1": {"distance": 8, "rank": 41, "pace": 267000000000, "time": 2167.4}}, "weekday": "wednesday", "livingplace": "Pully"}}, "location": "M\u00e9zi\u00e8res VD"}, "Tour du Pays de Vaud printanier #1 Moudon": {"latitude": 46.3832683, "longitude": 6.2347852, "race": "Tour du Pays de Vaud printanier #1 Moudon", "date": {"mer. 04.06.2014": {"year": 2014, "day": 4, "month": 6, "categories": {"H-Sen1": {"distance": 8, "rank": 21, "pace": 249000000000, "time": 2098.1}}, "weekday": "wednesday", "livingplace": "Lutry"}}, "location": "Nyon"}, "Lausanne Marathon": {"latitude": 46.5196535, "longitude": 6.6322734, "race": "Lausanne Marathon", "date": {"sam. 24.10.2015": {"year": 2015, "day": 24, "month": 10, "categories": {"10-H40": {"distance": 10, "rank": 36, "pace": 235000000000, "time": 2351.8}}, "weekday": "saturday", "livingplace": "Lutry"}, "dim. 30.10.2011": {"year": 2011, "day": 30, "month": 10, "categories": {"21-H2": {"distance": 21, "rank": 204, "pace": 274000000000, "time": 5798.6}}, "weekday": "sunday", "livingplace": "Lutry"}, "dim. 27.10.2013": {"year": 2013, "day": 27, "month": 10, "categories": {"42-H2": {"distance": 42, "rank": 144, "pace": 318000000000, "time": 13441.9}}, "weekday": "sunday", "livingplace": "Lutry"}, "dim. 28.10.2012": {"year": 2012, "day": 28, "month": 10, "categories": {"21-H2": {"distance": 21, "rank": 78, "pace": 258000000000, "time": 5448.2}}, "weekday": "sunday", "livingplace": "Lutry"}}, "location": "Lausanne"}, "Tour du Pays de Vaud #4 - La Sarraz": {"latitude": 46.7088129, "longitude": 6.5707689, "race": "Tour du Pays de Vaud #4 - La Sarraz", "date": {"mer. 29.08.2012": {"year": 2012, "day": 29, "month": 8, "categories": {"H-Sen1": {"distance": 9, "rank": 31, "pace": 250000000000, "time": 2131.5}}, "weekday": "wednesday", "livingplace": "Lutry"}, "mer. 04.09.2013": {"year": 2013, "day": 4, "month": 9, "categories": {"H-Sen1": {"distance": 9, "rank": 21, "pace": 249000000000, "time": 2121.8}}, "weekday": "wednesday", "livingplace": "Lutry"}}, "location": "Chavornay"}, "Tour du pays de Vaud #1 \u2013 St  Prex": {"latitude": 46.7784736, "longitude": 6.641183, "race": "Tour du pays de Vaud #1 \u2013 St  Prex", "date": {"mer. 11.08.2010": {"year": 2010, "day": 11, "month": 8, "categories": {"HSen1": {"distance": 8, "rank": 33, "pace": 275000000000, "time": 2313.8}}, "weekday": "wednesday", "livingplace": "Pully"}}, "location": "Yverdon-les-Bains"}, "Tour du Pays de Vaud etape 1 - Le Mont sur Lausanne": {"latitude": 46.7784736, "longitude": 6.641183, "race": "Tour du Pays de Vaud etape 1 - Le Mont sur Lausanne", "date": {"mer. 12.08.2009": {"year": 2009, "day": 12, "month": 8, "categories": {"HS1": {"distance": 9, "rank": 36, "pace": 268000000000, "time": 2492.9}}, "weekday": "wednesday", "livingplace": "Pully"}}, "location": "Yverdon-les-Bains"}, "Tour du pays de Vaud #1 - Penthaz": {"latitude": 46.5993131, "longitude": 6.539251200000001, "race": "Tour du pays de Vaud #1 - Penthaz", "date": {"mer. 14.08.2013": {"year": 2013, "day": 14, "month": 8, "categories": {"H-Sen1": {"distance": 9, "rank": 21, "pace": 236000000000, "time": 2021.2}}, "weekday": "wednesday", "livingplace": "Lutry"}}, "location": "Penthaz"}, "Tour du Pays de Vaud #4, La Sarraz": {"latitude": 46.7088129, "longitude": 6.5707689, "race": "Tour du Pays de Vaud #4, La Sarraz", "date": {"mer. 03.09.2014": {"year": 2014, "day": 3, "month": 9, "categories": {"H-Sen1": {"distance": 9, "rank": 27, "pace": 246000000000, "time": 2092.1}}, "weekday": "wednesday", "livingplace": "Lutry"}}, "location": "Chavornay"}, "Tour du Pays de Vaud #3, Chavornay": {"latitude": 46.7784736, "longitude": 6.641183, "race": "Tour du Pays de Vaud #3, Chavornay", "date": {"mer. 27.08.2014": {"year": 2014, "day": 27, "month": 8, "categories": {"H-Sen1": {"distance": 9, "rank": 24, "pace": 257000000000, "time": 2215.9}}, "weekday": "wednesday", "livingplace": "Lutry"}}, "location": "Yverdon-les-Bains"}, "Tour du Pays de Vaud #2 - Genolier": {"latitude": 46.5955273, "longitude": 6.7702883, "race": "Tour du Pays de Vaud #2 - Genolier", "date": {"mer. 18.08.2010": {"year": 2010, "day": 18, "month": 8, "categories": {"HSen1": {"distance": 8, "rank": 27, "pace": 260000000000, "time": 2107.9}}, "weekday": "wednesday", "livingplace": "Pully"}}, "location": "M\u00e9zi\u00e8res VD"}, "Tour du Pays de Vaud #1, Penthaz": {"latitude": 46.5993131, "longitude": 6.539251200000001, "race": "Tour du Pays de Vaud #1, Penthaz", "date": {"mer. 13.08.2014": {"year": 2014, "day": 13, "month": 8, "categories": {"H-Sen1": {"distance": 9, "rank": 29, "pace": 244000000000, "time": 2087.1}}, "weekday": "wednesday", "livingplace": "Lutry"}}, "location": "Penthaz"}, "Tour du Pays de Vaud #2, Mezi\u00e8res": {"latitude": 46.5955273, "longitude": 6.7702883, "race": "Tour du Pays de Vaud #2, Mezi\u00e8res", "date": {"mer. 20.08.2014": {"year": 2014, "day": 20, "month": 8, "categories": {"H-Sen1": {"distance": 8, "rank": 25, "pace": 267000000000, "time": 2165.8}}, "weekday": "wednesday", "livingplace": "Lutry"}}, "location": "M\u00e9zi\u00e8res VD"}, "Sierre-Zinal, Sierre": {"latitude": 46.29413110000001, "longitude": 7.533536199999999, "race": "Sierre-Zinal, Sierre", "date": {"dim. 10.08.2014": {"year": 2014, "day": 10, "month": 8, "categories": {"ElitesHo": {"distance": 31, "rank": 244, "pace": 460000000000, "time": 14287.9}}, "weekday": "sunday", "livingplace": "Lutry"}, "dim. 12.08.2012": {"year": 2012, "day": 12, "month": 8, "categories": {"Elites": {"distance": 31, "rank": 254, "pace": 501000000000, "time": 15556.4}}, "weekday": "sunday", "livingplace": "Lutry"}, "dim. 11.08.2013": {"year": 2013, "day": 11, "month": 8, "categories": {"Elites": {"distance": 31, "rank": 178, "pace": 462000000000, "time": 14337.3}}, "weekday": "sunday", "livingplace": "Lutry"}, "dim. 09.08.2015": {"year": 2015, "day": 9, "month": 8, "categories": {"V\u00e9t_I": {"distance": 31, "rank": 63, "pace": 456000000000, "time": 14156.5}}, "weekday": "sunday", "livingplace": "Lutry"}}, "location": "Sierre"}, "Montreux - Les Rochers de Naye": {"latitude": 46.4312213, "longitude": 6.9106799, "race": "Montreux - Les Rochers de Naye", "date": {"dim. 07.07.2013": {"year": 2013, "day": 7, "month": 7, "categories": {"M-HElite": {"distance": 19, "rank": 59, "pace": 443000000000, "time": 8341.7}}, "weekday": "sunday", "livingplace": "Lutry"}, "dim. 06.07.2014": {"year": 2014, "day": 6, "month": 7, "categories": {"M-HElite": {"distance": 19, "rank": 83, "pace": 423000000000, "time": 7961.7}}, "weekday": "sunday", "livingplace": "Lutry"}, "dim. 08.07.2012": {"year": 2012, "day": 8, "month": 7, "categories": {"M-HElite": {"distance": 19, "rank": 100, "pace": 456000000000, "time": 8578.2}}, "weekday": "sunday", "livingplace": "Lutry"}}, "location": "Montreux"}, "Tour du Pays de Vaud #5 - La Sarraz": {"latitude": 46.5993131, "longitude": 6.539251200000001, "race": "Tour du Pays de Vaud #5 - La Sarraz", "date": {"mer. 08.09.2010": {"year": 2010, "day": 8, "month": 9, "categories": {"HSen1": {"distance": 9, "rank": 28, "pace": 259000000000, "time": 2359.2}}, "weekday": "wednesday", "livingplace": "Pully"}}, "location": "Penthaz"}, "Tour du Chablais #3 Bouveret": {"latitude": 46.1782231, "longitude": 7.0223787, "race": "Tour du Chablais #3 Bouveret", "date": {"mer. 17.04.2013": {"year": 2013, "day": 17, "month": 4, "categories": {"M-M20": {"distance": 10, "rank": 59, "pace": 248000000000, "time": 2489.6}}, "weekday": "wednesday", "livingplace": "Lutry"}}, "location": "Evionnaz"}}, "birth": 1975}