{"name": "Favre Olivier", "sex": "M", "races": {"BCN Tour Couvet": {"latitude": 47.0624261, "longitude": 6.9175754, "race": "BCN Tour Couvet", "date": {"mer. 02.05.2012": {"year": 2012, "day": 2, "month": 5, "categories": {"HS2": {"distance": 11, "rank": 237, "pace": 346000000000, "time": 3865.9}}, "weekday": "wednesday", "livingplace": "Hauterive"}}, "location": "Ch\u00e9zard-St-Martin"}, "Course de l'Escalade, Gen\u00e8ve": {"latitude": 46.2043907, "longitude": 6.1431577, "race": "Course de l'Escalade, Gen\u00e8ve", "date": {"sam. 03.12.2005": {"year": 2005, "day": 3, "month": 12, "categories": {"Hommes3": {"distance": 7, "rank": 1991, "pace": 393000000000, "time": 2851.3}}, "weekday": "saturday", "livingplace": "Sainte Croix"}}, "location": "Gen\u00e8ve"}, "BCN Tour Fontaine Cernier": {"latitude": 47.0624261, "longitude": 6.9175754, "race": "BCN Tour Fontaine Cernier", "date": {"mer. 27.04.2011": {"year": 2011, "day": 27, "month": 4, "categories": {"HS2": {"distance": 10, "rank": 243, "pace": 322000000000, "time": 3319.7}}, "weekday": "wednesday", "livingplace": "Hauterive"}}, "location": "Ch\u00e9zard-St-Martin"}, "BCN Tour Le Landeron": {"latitude": 46.9668714, "longitude": 6.8589727, "race": "BCN Tour Le Landeron", "date": {"mer. 22.04.2009": {"year": 2009, "day": 22, "month": 4, "categories": {"HS2": {"distance": 11, "rank": 182, "pace": 328000000000, "time": 3647.4}}, "weekday": "wednesday", "livingplace": "Hauterive"}}, "location": "Colombier NE"}, "BCN Tour Cornaux": {"latitude": 46.9668714, "longitude": 6.8589727, "race": "BCN Tour Cornaux", "date": {"mer. 25.04.2012": {"year": 2012, "day": 25, "month": 4, "categories": {"HS2": {"distance": 11, "rank": 234, "pace": 383000000000, "time": 4219.8}}, "weekday": "wednesday", "livingplace": "Hauterive"}}, "location": "Colombier NE"}, "BCN Tour Le Locle": {"latitude": 46.999113, "longitude": 6.733554799999999, "race": "BCN Tour Le Locle", "date": {"mer. 05.05.2010": {"year": 2010, "day": 5, "month": 5, "categories": {"HS2": {"distance": 11, "rank": 215, "pace": 345000000000, "time": 3764.0}}, "weekday": "wednesday", "livingplace": "Hauterive"}}, "location": "Les Ponts-de-Martel"}, "BCN Tour Ponts-de-Martel": {"latitude": 47.0624261, "longitude": 6.9175754, "race": "BCN Tour Ponts-de-Martel", "date": {"mer. 28.04.2010": {"year": 2010, "day": 28, "month": 4, "categories": {"HS2": {"distance": 11, "rank": 234, "pace": 346000000000, "time": 3876.4}}, "weekday": "wednesday", "livingplace": "Hauterive"}}, "location": "Ch\u00e9zard-St-Martin"}, "BCN Tour Auvernier": {"latitude": 46.9668714, "longitude": 6.8589727, "race": "BCN Tour Auvernier", "date": {"mer. 20.04.2011": {"year": 2011, "day": 20, "month": 4, "categories": {"HS2": {"distance": 11, "rank": 253, "pace": 362000000000, "time": 3913.9}}, "weekday": "wednesday", "livingplace": "Hauterive"}}, "location": "Colombier NE"}, "BCN Tour #4 Fleurier": {"latitude": 47.1034892, "longitude": 6.832783800000001, "race": "BCN Tour #4 Fleurier", "date": {"mer. 15.05.2013": {"year": 2013, "day": 15, "month": 5, "categories": {"HS2": {"distance": 9, "rank": 224, "pace": 336000000000, "time": 2906.6}}, "weekday": "wednesday", "livingplace": "Hauterive"}}, "location": "La Chaux-de-Fonds"}, "BCN Tour Colombier": {"latitude": 46.9668714, "longitude": 6.8589727, "race": "BCN Tour Colombier", "date": {"mer. 16.05.2012": {"year": 2012, "day": 16, "month": 5, "categories": {"HS2": {"distance": 11, "rank": 288, "pace": 345000000000, "time": 3726.8}}, "weekday": "wednesday", "livingplace": "Hauterive"}, "mer. 23.04.2008": {"year": 2008, "day": 23, "month": 4, "categories": {"HS2": {"distance": 10, "rank": 201, "pace": 350000000000, "time": 3572.6}}, "weekday": "wednesday", "livingplace": "Hauterive"}, "mer. 21.04.2010": {"year": 2010, "day": 21, "month": 4, "categories": {"HS2": {"distance": 10, "rank": 238, "pace": 372000000000, "time": 3723.2}}, "weekday": "wednesday", "livingplace": "Hauterive"}}, "location": "Colombier NE"}, "BCN Tour #5 Colombier": {"latitude": 46.9262933, "longitude": 6.6324944, "race": "BCN Tour #5 Colombier", "date": {"mer. 22.05.2013": {"year": 2013, "day": 22, "month": 5, "categories": {"HS2": {"distance": 11, "rank": 251, "pace": 304000000000, "time": 3194.7}}, "weekday": "wednesday", "livingplace": "Hauterive"}}, "location": "Couvet"}, "BCN Tour #6 Neuch\u00e2tel": {"latitude": 46.9899874, "longitude": 6.9292732, "race": "BCN Tour #6 Neuch\u00e2tel", "date": {"mer. 29.05.2013": {"year": 2013, "day": 29, "month": 5, "categories": {"HS2": {"distance": 11, "rank": 252, "pace": 352000000000, "time": 3877.9}}, "weekday": "wednesday", "livingplace": "Hauterive"}}, "location": "Neuch\u00e2tel"}, "BCN Tour Les Ponts-de-Martel": {"latitude": 46.999113, "longitude": 6.733554799999999, "race": "BCN Tour Les Ponts-de-Martel", "date": {"mer. 09.05.2012": {"year": 2012, "day": 9, "month": 5, "categories": {"HS2": {"distance": 10, "rank": 248, "pace": 344000000000, "time": 3549.7}}, "weekday": "wednesday", "livingplace": "Hauterive"}}, "location": "Les Ponts-de-Martel"}, "BCN Tour Neuch\u00e2tel": {"latitude": 46.9899874, "longitude": 6.9292732, "race": "BCN Tour Neuch\u00e2tel", "date": {"mer. 26.05.2010": {"year": 2010, "day": 26, "month": 5, "categories": {"HS2": {"distance": 10, "rank": 246, "pace": 419000000000, "time": 4065.9}}, "weekday": "wednesday", "livingplace": "Hauterive"}, "mer. 30.05.2012": {"year": 2012, "day": 30, "month": 5, "categories": {"HS2": {"distance": 11, "rank": 281, "pace": 377000000000, "time": 4230.0}}, "weekday": "wednesday", "livingplace": "Hauterive"}, "mer. 25.05.2011": {"year": 2011, "day": 25, "month": 5, "categories": {"HS2": {"distance": 11, "rank": 249, "pace": 353000000000, "time": 4034.5}}, "weekday": "wednesday", "livingplace": "Hauterive"}}, "location": "Neuch\u00e2tel"}, "BCN Tour Les Ponts de Martel": {"latitude": 46.9262933, "longitude": 6.6324944, "race": "BCN Tour Les Ponts de Martel", "date": {"mer. 18.05.2011": {"year": 2011, "day": 18, "month": 5, "categories": {"HS2": {"distance": 13, "rank": 234, "pace": 345000000000, "time": 4420.9}}, "weekday": "wednesday", "livingplace": "Hauterive"}}, "location": "Couvet"}, "BCN Tour M\u00f4tier": {"latitude": 46.9262933, "longitude": 6.6324944, "race": "BCN Tour M\u00f4tier", "date": {"mer. 19.05.2010": {"year": 2010, "day": 19, "month": 5, "categories": {"HS2": {"distance": 10, "rank": 212, "pace": 322000000000, "time": 3192.2}}, "weekday": "wednesday", "livingplace": "Hauterive"}}, "location": "Couvet"}, "BCN Tour Boudry": {"latitude": 46.9668714, "longitude": 6.8589727, "race": "BCN Tour Boudry", "date": {"mer. 26.04.2006": {"year": 2006, "day": 26, "month": 4, "categories": {"HS2": {"distance": 10, "rank": 211, "pace": 341000000000, "time": 3480.0}}, "weekday": "wednesday", "livingplace": "Hauterive"}}, "location": "Colombier NE"}, "BCN Tour #2 La Chaux-de-Fonds": {"latitude": 47.0624261, "longitude": 6.9175754, "race": "BCN Tour #2 La Chaux-de-Fonds", "date": {"mer. 01.05.2013": {"year": 2013, "day": 1, "month": 5, "categories": {"HS2": {"distance": 11, "rank": 260, "pace": 321000000000, "time": 3444.3}}, "weekday": "wednesday", "livingplace": "Hauterive"}}, "location": "Ch\u00e9zard-St-Martin"}, "BCN Tour La Chaux-de-fonds": {"latitude": 47.1034892, "longitude": 6.832783800000001, "race": "BCN Tour La Chaux-de-fonds", "date": {"mer. 12.05.2010": {"year": 2010, "day": 12, "month": 5, "categories": {"HS2": {"distance": 11, "rank": 236, "pace": 431000000000, "time": 4621.7}}, "weekday": "wednesday", "livingplace": "Hauterive"}}, "location": "La Chaux-de-Fonds"}, "Kerzerslauf": {"latitude": 46.97488999999999, "longitude": 7.1954365, "race": "Kerzerslauf", "date": {"sam. 15.03.2003": {"year": 2003, "day": 15, "month": 3, "categories": {"M35": {"distance": 15, "rank": 379, "pace": 315000000000, "time": 4735.0}}, "weekday": "saturday", "livingplace": "Hauterive"}, "sam. 20.03.2004": {"year": 2004, "day": 20, "month": 3, "categories": {"M35": {"distance": 15, "rank": 408, "pace": 331000000000, "time": 4979.9}}, "weekday": "saturday", "livingplace": "Hauterive"}}, "location": "Kerzers"}, "BCN Tour #3 Dombresson": {"latitude": 46.999113, "longitude": 6.733554799999999, "race": "BCN Tour #3 Dombresson", "date": {"mer. 08.05.2013": {"year": 2013, "day": 8, "month": 5, "categories": {"HS2": {"distance": 10, "rank": 260, "pace": 320000000000, "time": 3177.4}}, "weekday": "wednesday", "livingplace": "Hauterive"}}, "location": "Les Ponts-de-Martel"}}, "birth": 1966}