{"name": "Favre Ludovic", "sex": "M", "races": {"BCN Tour Couvet": {"latitude": 47.0624261, "longitude": 6.9175754, "race": "BCN Tour Couvet", "date": {"mer. 02.05.2012": {"year": 2012, "day": 2, "month": 5, "categories": {"HE": {"distance": 11, "rank": 143, "pace": 323000000000, "time": 3608.6}}, "weekday": "wednesday", "livingplace": "La Chaux de Fonds"}}, "location": "Ch\u00e9zard-St-Martin"}, "Morat-Fribourg": {"latitude": 46.92922110000001, "longitude": 7.120184, "race": "Morat-Fribourg", "date": {"sam. 03.10.2015": {"year": 2015, "day": 3, "month": 10, "categories": {"17-M20": {"distance": 17, "rank": 685, "pace": 287000000000, "time": 4928.5}}, "weekday": "saturday", "livingplace": "Sierre"}}, "location": "Murten"}, "BCN Tour La Br\u00e9vine": {"latitude": 46.999113, "longitude": 6.733554799999999, "race": "BCN Tour La Br\u00e9vine", "date": {"mer. 04.05.2011": {"year": 2011, "day": 4, "month": 5, "categories": {"HE": {"distance": 10, "rank": 118, "pace": 306000000000, "time": 3061.1}}, "weekday": "wednesday", "livingplace": "La Chaux de Fonds"}}, "location": "Les Ponts-de-Martel"}, "BCN Tour Fontaine Cernier": {"latitude": 47.0624261, "longitude": 6.9175754, "race": "BCN Tour Fontaine Cernier", "date": {"mer. 27.04.2011": {"year": 2011, "day": 27, "month": 4, "categories": {"HE": {"distance": 10, "rank": 124, "pace": 288000000000, "time": 2975.0}}, "weekday": "wednesday", "livingplace": "La Chaux de Fonds"}}, "location": "Ch\u00e9zard-St-Martin"}, "BCN Tour Le Landeron": {"latitude": 46.9668714, "longitude": 6.8589727, "race": "BCN Tour Le Landeron", "date": {"mer. 22.04.2009": {"year": 2009, "day": 22, "month": 4, "categories": {"HE": {"distance": 11, "rank": 133, "pace": 351000000000, "time": 3901.3}}, "weekday": "wednesday", "livingplace": "La Chatagne"}}, "location": "Colombier NE"}, "20km de Lausanne": {"latitude": 46.5196535, "longitude": 6.6322734, "race": "20km de Lausanne", "date": {"sam. 30.04.2011": {"year": 2011, "day": 30, "month": 4, "categories": {"10-H20": {"distance": 10, "rank": 420, "pace": 314000000000, "time": 3145.4}}, "weekday": "saturday", "livingplace": "Epalinges"}}, "location": "Lausanne"}, "BCN Tour #1 Corcelles": {"latitude": 46.9668714, "longitude": 6.8589727, "race": "BCN Tour #1 Corcelles", "date": {"mer. 24.04.2013": {"year": 2013, "day": 24, "month": 4, "categories": {"HE": {"distance": 10, "rank": 183, "pace": 304000000000, "time": 2979.7}}, "weekday": "wednesday", "livingplace": "La Brevine"}}, "location": "Colombier NE"}, "BCN Tour #4 Fleurier": {"latitude": 47.1034892, "longitude": 6.832783800000001, "race": "BCN Tour #4 Fleurier", "date": {"mer. 15.05.2013": {"year": 2013, "day": 15, "month": 5, "categories": {"HE": {"distance": 9, "rank": 157, "pace": 291000000000, "time": 2518.5}}, "weekday": "wednesday", "livingplace": "La Brevine"}}, "location": "La Chaux-de-Fonds"}, "BCN Tour Cornaux": {"latitude": 46.9668714, "longitude": 6.8589727, "race": "BCN Tour Cornaux", "date": {"mer. 25.04.2012": {"year": 2012, "day": 25, "month": 4, "categories": {"HE": {"distance": 11, "rank": 126, "pace": 338000000000, "time": 3727.1}}, "weekday": "wednesday", "livingplace": "La Chaux de Fonds"}}, "location": "Colombier NE"}, "BCN Tour La Chaux-de-Fonds": {"latitude": 47.1034892, "longitude": 6.832783800000001, "race": "BCN Tour La Chaux-de-Fonds", "date": {"mer. 23.05.2012": {"year": 2012, "day": 23, "month": 5, "categories": {"HE": {"distance": 11, "rank": 145, "pace": 310000000000, "time": 3351.5}}, "weekday": "wednesday", "livingplace": "La Chaux de Fonds"}, "mer. 11.05.2011": {"year": 2011, "day": 11, "month": 5, "categories": {"HE": {"distance": 11, "rank": 98, "pace": 336000000000, "time": 3597.6}}, "weekday": "wednesday", "livingplace": "La Chaux de Fonds"}}, "location": "La Chaux-de-Fonds"}, "BCN Tour #6 Neuch\u00e2tel": {"latitude": 46.9899874, "longitude": 6.9292732, "race": "BCN Tour #6 Neuch\u00e2tel", "date": {"mer. 29.05.2013": {"year": 2013, "day": 29, "month": 5, "categories": {"HE": {"distance": 11, "rank": 193, "pace": 309000000000, "time": 3408.6}}, "weekday": "wednesday", "livingplace": "La Brevine"}}, "location": "Neuch\u00e2tel"}, "BCN Tour Les Ponts-de-Martel": {"latitude": 46.999113, "longitude": 6.733554799999999, "race": "BCN Tour Les Ponts-de-Martel", "date": {"mer. 09.05.2012": {"year": 2012, "day": 9, "month": 5, "categories": {"HE": {"distance": 10, "rank": 161, "pace": 315000000000, "time": 3254.2}}, "weekday": "wednesday", "livingplace": "La Chaux de Fonds"}}, "location": "Les Ponts-de-Martel"}, "Lausanne Marathon": {"latitude": 46.5196535, "longitude": 6.6322734, "race": "Lausanne Marathon", "date": {"sam. 24.10.2015": {"year": 2015, "day": 24, "month": 10, "categories": {"10-H30": {"distance": 10, "rank": 212, "pace": 261000000000, "time": 2615.3}}, "weekday": "saturday", "livingplace": "Sierre"}}, "location": "Lausanne"}, "BCN Tour #5 Colombier": {"latitude": 46.9262933, "longitude": 6.6324944, "race": "BCN Tour #5 Colombier", "date": {"mer. 22.05.2013": {"year": 2013, "day": 22, "month": 5, "categories": {"HE": {"distance": 11, "rank": 175, "pace": 273000000000, "time": 2868.7}}, "weekday": "wednesday", "livingplace": "La Brevine"}}, "location": "Couvet"}, "BCN Tour #2 La Chaux-de-Fonds": {"latitude": 47.0624261, "longitude": 6.9175754, "race": "BCN Tour #2 La Chaux-de-Fonds", "date": {"mer. 01.05.2013": {"year": 2013, "day": 1, "month": 5, "categories": {"HE": {"distance": 11, "rank": 179, "pace": 291000000000, "time": 3117.3}}, "weekday": "wednesday", "livingplace": "La Brevine"}}, "location": "Ch\u00e9zard-St-Martin"}, "BCN Tour La Chaux-de-fonds": {"latitude": 47.1034892, "longitude": 6.832783800000001, "race": "BCN Tour La Chaux-de-fonds", "date": {"mer. 12.05.2010": {"year": 2010, "day": 12, "month": 5, "categories": {"HE": {"distance": 11, "rank": 149, "pace": 440000000000, "time": 4717.8}}, "weekday": "wednesday", "livingplace": "La Chaux de Fonds"}}, "location": "La Chaux-de-Fonds"}, "BCN Tour Colombier": {"latitude": 46.9668714, "longitude": 6.8589727, "race": "BCN Tour Colombier", "date": {"mer. 16.05.2012": {"year": 2012, "day": 16, "month": 5, "categories": {"HE": {"distance": 11, "rank": 153, "pace": 301000000000, "time": 3256.6}}, "weekday": "wednesday", "livingplace": "La Chaux de Fonds"}, "mer. 23.04.2008": {"year": 2008, "day": 23, "month": 4, "categories": {"HE": {"distance": 10, "rank": 97, "pace": 353000000000, "time": 3608.2}}, "weekday": "wednesday", "livingplace": "La Chatagne"}}, "location": "Colombier NE"}, "BCN Tour #3 Dombresson": {"latitude": 46.999113, "longitude": 6.733554799999999, "race": "BCN Tour #3 Dombresson", "date": {"mer. 08.05.2013": {"year": 2013, "day": 8, "month": 5, "categories": {"HE": {"distance": 10, "rank": 189, "pace": 291000000000, "time": 2887.5}}, "weekday": "wednesday", "livingplace": "La Brevine"}}, "location": "Les Ponts-de-Martel"}}, "birth": 1985}