{"name": "Favre St\u00e9phanie", "sex": "F", "races": {"Tour du Pays de Vaud #1, Penthaz": {"latitude": 46.5993131, "longitude": 6.539251200000001, "race": "Tour du Pays de Vaud #1, Penthaz", "date": {"mer. 13.08.2014": {"year": 2014, "day": 13, "month": 8, "categories": {"D-Dam": {"distance": 9, "rank": 29, "pace": 376000000000, "time": 3209.9}}, "weekday": "wednesday", "livingplace": "Bavois"}}, "location": "Penthaz"}, "20km de Lausanne": {"latitude": 46.5196535, "longitude": 6.6322734, "race": "20km de Lausanne", "date": {"sam. 25.04.2015": {"year": 2015, "day": 25, "month": 4, "categories": {"10-F20": {"distance": 10, "rank": 675, "pace": 355000000000, "time": 3550.1}}, "weekday": "saturday", "livingplace": "Ch"}, "sam. 26.04.2014": {"year": 2014, "day": 26, "month": 4, "categories": {"10-F20": {"distance": 10, "rank": 667, "pace": 368000000000, "time": 3683.1}}, "weekday": "saturday", "livingplace": "Bavois"}}, "location": "Lausanne"}, "Tour du Pays de Vaud #4, La Sarraz": {"latitude": 46.7088129, "longitude": 6.5707689, "race": "Tour du Pays de Vaud #4, La Sarraz", "date": {"mer. 03.09.2014": {"year": 2014, "day": 3, "month": 9, "categories": {"D-Dam": {"distance": 9, "rank": 48, "pace": 392000000000, "time": 3332.5}}, "weekday": "wednesday", "livingplace": "Bavois"}}, "location": "Chavornay"}, "Tour du Pays de Vaud #2, Mezi\u00e8res": {"latitude": 46.5955273, "longitude": 6.7702883, "race": "Tour du Pays de Vaud #2, Mezi\u00e8res", "date": {"mer. 20.08.2014": {"year": 2014, "day": 20, "month": 8, "categories": {"D-Dam": {"distance": 8, "rank": 46, "pace": 415000000000, "time": 3367.7}}, "weekday": "wednesday", "livingplace": "Bavois"}}, "location": "M\u00e9zi\u00e8res VD"}, "Tour du Pays de Vaud #3, Chavornay": {"latitude": 46.7784736, "longitude": 6.641183, "race": "Tour du Pays de Vaud #3, Chavornay", "date": {"mer. 27.08.2014": {"year": 2014, "day": 27, "month": 8, "categories": {"D-Dam": {"distance": 9, "rank": 38, "pace": 388000000000, "time": 3341.8}}, "weekday": "wednesday", "livingplace": "Bavois"}}, "location": "Yverdon-les-Bains"}}, "birth": 1987}