{"name": "Favre Jean-Yves", "sex": "M", "races": {"20km de Lausanne": {"latitude": 46.5196535, "longitude": 6.6322734, "race": "20km de Lausanne", "date": {"sam. 23.04.2005": {"year": 2005, "day": 23, "month": 4, "categories": {"11": {"distance": 20, "rank": 281, "pace": 270000000000, "time": 5400.5}}, "weekday": "saturday", "livingplace": "Cham"}, "sam. 22.04.2006": {"year": 2006, "day": 22, "month": 4, "categories": {"20/H30": {"distance": 20, "rank": 178, "pace": 285000000000, "time": 5707.8}}, "weekday": "saturday", "livingplace": "Cham"}}, "location": "Lausanne"}, "Morat-Fribourg": {"latitude": 46.92922110000001, "longitude": 7.120184, "race": "Morat-Fribourg", "date": {"dim. 07.10.2001": {"year": 2001, "day": 7, "month": 10, "categories": {"M20": {"distance": 17, "rank": 713, "pace": 275000000000, "time": 4737.6}}, "weekday": "sunday", "livingplace": "Cham"}}, "location": "Murten"}, "Kerzerslauf": {"latitude": 46.97488999999999, "longitude": 7.1954365, "race": "Kerzerslauf", "date": {"sam. 20.03.2004": {"year": 2004, "day": 20, "month": 3, "categories": {"M35": {"distance": 15, "rank": 188, "pace": 272000000000, "time": 4086.7}}, "weekday": "saturday", "livingplace": "Cham"}, "sam. 19.03.2005": {"year": 2005, "day": 19, "month": 3, "categories": {"M35": {"distance": 15, "rank": 135, "pace": 272000000000, "time": 4093.1}}, "weekday": "saturday", "livingplace": "Cham"}}, "location": "Kerzers"}, "Bieler Lauftage, Biel Bienne": {"latitude": 47.1367785, "longitude": 7.2467909, "race": "Bieler Lauftage, Biel Bienne", "date": {"ven. 17.06.2005": {"year": 2005, "day": 17, "month": 6, "categories": {"100/M35": {"distance": 100, "rank": 115, "pace": 470000000000, "time": 47094.1}}, "weekday": "friday", "livingplace": "Cham"}}, "location": "Biel/Bienne"}, "Z\u00fcrich Marathon, Teamrun und Cityrun": {"latitude": 47.3768866, "longitude": 8.541694, "race": "Z\u00fcrich Marathon, Teamrun und Cityrun", "date": {"dim. 09.04.2006": {"year": 2006, "day": 9, "month": 4, "categories": {"M30": {"distance": 42, "rank": 811, "pace": 318000000000, "time": 13443.8}}, "weekday": "sunday", "livingplace": "Cham"}}, "location": "Z\u00fcrich"}}, "birth": 1967}