{"name": "Fayolle Jean-Claude", "sex": "M", "races": {"Tour du Chablais #1 Roche": {"latitude": 46.2957462, "longitude": 6.9916269, "race": "Tour du Chablais #1 Roche", "date": {"mer. 03.04.2013": {"year": 2013, "day": 3, "month": 4, "categories": {"M-M50": {"distance": 9, "rank": 53, "pace": 287000000000, "time": 2551.0}}, "weekday": "wednesday", "livingplace": "Fiez"}}, "location": "Ollon VD"}, "Tour du Chablais #6 Monthey": {"latitude": 46.3190253, "longitude": 6.970566, "race": "Tour du Chablais #6 Monthey", "date": {"mer. 08.05.2013": {"year": 2013, "day": 8, "month": 5, "categories": {"M-M50": {"distance": 9, "rank": 39, "pace": 276000000000, "time": 2583.2}}, "weekday": "wednesday", "livingplace": "Fiez"}}, "location": "Aigle"}, "Tour du Pays de Vaud #1, Penthaz": {"latitude": 46.5993131, "longitude": 6.539251200000001, "race": "Tour du Pays de Vaud #1, Penthaz", "date": {"mer. 13.08.2014": {"year": 2014, "day": 13, "month": 8, "categories": {"H-Sen3": {"distance": 9, "rank": 36, "pace": 298000000000, "time": 2546.4}}, "weekday": "wednesday", "livingplace": "Fiez"}}, "location": "Penthaz"}, "Tour du Chablais #5 Morgins": {"latitude": 46.3603257, "longitude": 6.931504599999999, "race": "Tour du Chablais #5 Morgins", "date": {"mer. 01.05.2013": {"year": 2013, "day": 1, "month": 5, "categories": {"M-M50": {"distance": 8, "rank": 44, "pace": 323000000000, "time": 2460.2}}, "weekday": "wednesday", "livingplace": "Fiez"}}, "location": "Roche VD"}, "Tour du Pays de Vaud #2 - Mezi\u00e8res": {"latitude": 46.5955273, "longitude": 6.7702883, "race": "Tour du Pays de Vaud #2 - Mezi\u00e8res", "date": {"mer. 21.08.2013": {"year": 2013, "day": 21, "month": 8, "categories": {"H-Sen3": {"distance": 8, "rank": 39, "pace": 312000000000, "time": 2534.8}}, "weekday": "wednesday", "livingplace": "Fiez"}}, "location": "M\u00e9zi\u00e8res VD"}, "Lausanne Marathon": {"latitude": 46.5196535, "longitude": 6.6322734, "race": "Lausanne Marathon", "date": {"sam. 24.10.2015": {"year": 2015, "day": 24, "month": 10, "categories": {"10-H50": {"distance": 10, "rank": 117, "pace": 286000000000, "time": 2863.3}}, "weekday": "saturday", "livingplace": "Fiez"}}, "location": "Lausanne"}, "Tour du Chablais #4 St  Maurice": {"latitude": NaN, "longitude": NaN, "race": "Tour du Chablais #4 St  Maurice", "date": {"mer. 24.04.2013": {"year": 2013, "day": 24, "month": 4, "categories": {"M-M50": {"distance": 10, "rank": 37, "pace": 287000000000, "time": 2878.0}}, "weekday": "wednesday", "livingplace": "Fiez"}}, "location": "Les Mosses"}, "Z\u00fcrcher Silvesterlauf, Z\u00fcrich": {"latitude": 47.3768866, "longitude": 8.541694, "race": "Z\u00fcrcher Silvesterlauf, Z\u00fcrich", "date": {"dim. 16.12.2012": {"year": 2012, "day": 16, "month": 12, "categories": {"8-MM50": {"distance": 9, "rank": 519, "pace": 336000000000, "time": 2896.2}}, "weekday": "sunday", "livingplace": "Fiez"}}, "location": "Z\u00fcrich"}, "Tour du Chablais #3 Bouveret": {"latitude": 46.1782231, "longitude": 7.0223787, "race": "Tour du Chablais #3 Bouveret", "date": {"mer. 17.04.2013": {"year": 2013, "day": 17, "month": 4, "categories": {"M-M50": {"distance": 10, "rank": 37, "pace": 280000000000, "time": 2808.4}}, "weekday": "wednesday", "livingplace": "Fiez"}}, "location": "Evionnaz"}, "Tour du Chablais #2 Yvorne": {"latitude": 46.3835529, "longitude": 6.854975199999999, "race": "Tour du Chablais #2 Yvorne", "date": {"mer. 10.04.2013": {"year": 2013, "day": 10, "month": 4, "categories": {"M-M50": {"distance": 8, "rank": 36, "pace": 317000000000, "time": 2540.8}}, "weekday": "wednesday", "livingplace": "Fiez"}}, "location": "Bouveret"}}, "birth": 1959}