{"name": "Field Martin", "sex": "M", "races": {"Tour du Pays de Vaud #2 - Genolier": {"latitude": 46.5955273, "longitude": 6.7702883, "race": "Tour du Pays de Vaud #2 - Genolier", "date": {"mer. 15.08.2012": {"year": 2012, "day": 15, "month": 8, "categories": {"H-Sen2": {"distance": 9, "rank": 144, "pace": 345000000000, "time": 2933.5}}, "weekday": "wednesday", "livingplace": "Cham"}}, "location": "M\u00e9zi\u00e8res VD"}, "Tour de Presinge": {"latitude": 46.21860299999999, "longitude": 6.2535283, "race": "Tour de Presinge", "date": {"dim. 15.03.2015": {"year": 2015, "day": 15, "month": 3, "categories": {"10-Hom2": {"distance": 10, "rank": 79, "pace": 335000000000, "time": 3353.3}}, "weekday": "sunday", "livingplace": "Cham"}}, "location": "Presinge"}, "Morat-Fribourg": {"latitude": 46.92922110000001, "longitude": 7.120184, "race": "Morat-Fribourg", "date": {"sam. 04.10.2014": {"year": 2014, "day": 4, "month": 10, "categories": {"17-M45": {"distance": 17, "rank": 645, "pace": 373000000000, "time": 6419.8}}, "weekday": "saturday", "livingplace": "Cham"}}, "location": "Murten"}, "Lausanne Marathon": {"latitude": 46.5196535, "longitude": 6.6322734, "race": "Lausanne Marathon", "date": {"sam. 24.10.2015": {"year": 2015, "day": 24, "month": 10, "categories": {"21-H40": {"distance": 21, "rank": 547, "pace": 332000000000, "time": 7014.2}}, "weekday": "saturday", "livingplace": "Cham"}, "dim. 28.10.2012": {"year": 2012, "day": 28, "month": 10, "categories": {"21-H3": {"distance": 21, "rank": 672, "pace": 340000000000, "time": 7189.2}}, "weekday": "sunday", "livingplace": "Cham"}}, "location": "Lausanne"}, "20km de Lausanne": {"latitude": 46.5196535, "longitude": 6.6322734, "race": "20km de Lausanne", "date": {"sam. 27.04.2013": {"year": 2013, "day": 27, "month": 4, "categories": {"10-H40": {"distance": 10, "rank": 383, "pace": 333000000000, "time": 3331.1}}, "weekday": "saturday", "livingplace": "Cham"}}, "location": "Lausanne"}, "Tour du Pays de Vaud printanier #2 Yens": {"latitude": 46.6698891, "longitude": 6.7975224, "race": "Tour du Pays de Vaud printanier #2 Yens", "date": {"mer. 06.06.2012": {"year": 2012, "day": 6, "month": 6, "categories": {"H-Sen2": {"distance": 9, "rank": 61, "pace": 349000000000, "time": 3183.7}}, "weekday": "wednesday", "livingplace": "Cham"}}, "location": "Moudon"}}, "birth": 1969}