{"name": "Fina Timeo", "sex": "M", "races": {"Morat-Fribourg": {"latitude": 46.92922110000001, "longitude": 7.120184, "race": "Morat-Fribourg", "date": {"sam. 03.10.2015": {"year": 2015, "day": 3, "month": 10, "categories": {"EcolMC": {"distance": 1, "rank": 6, "pace": 199000000000, "time": 278.6}}, "weekday": "saturday", "livingplace": "Sullens"}, "sam. 04.10.2014": {"year": 2014, "day": 4, "month": 10, "categories": {"EcolMC": {"distance": 1, "rank": 27, "pace": 225000000000, "time": 315.7}}, "weekday": "saturday", "livingplace": "Sullens"}}, "location": "Murten"}, "Course de l'Avent, Yverdon": {"latitude": 46.8064773, "longitude": 7.161971899999999, "race": "Course de l'Avent, Yverdon", "date": {"dim. 27.11.2011": {"year": 2011, "day": 27, "month": 11, "categories": {"O-Garc1": {"distance": 1, "rank": 11, "pace": 374000000000, "time": 542.8}}, "weekday": "sunday", "livingplace": "Sullens"}}, "location": "Fribourg"}, "Corrida Bulloise, Bulle": {"latitude": 46.6154512, "longitude": 7.057726799999999, "race": "Corrida Bulloise, Bulle", "date": {"sam. 15.11.2014": {"year": 2014, "day": 15, "month": 11, "categories": {"G-U10": {"distance": 1, "rank": 18, "pace": 257000000000, "time": 295.9}}, "weekday": "saturday", "livingplace": "Sullens"}}, "location": "Bulle"}, "Noviodurun, Nyon": {"latitude": 46.3832683, "longitude": 6.2347852, "race": "Noviodurun, Nyon", "date": {"sam. 01.11.2014": {"year": 2014, "day": 1, "month": 11, "categories": {"PoussA-M": {"distance": 2, "rank": 10, "pace": 251000000000, "time": 391.6}}, "weekday": "saturday", "livingplace": "Sullens"}}, "location": "Nyon"}, "Lausanne Marathon": {"latitude": 46.5196535, "longitude": 6.6322734, "race": "Lausanne Marathon", "date": {"sam. 24.10.2015": {"year": 2015, "day": 24, "month": 10, "categories": {"M-Gar3": {"distance": 2, "rank": 10, "pace": 230000000000, "time": 345.2}}, "weekday": "saturday", "livingplace": "Sullens"}, "dim. 26.10.2014": {"year": 2014, "day": 26, "month": 10, "categories": {"M-Gar2": {"distance": 1, "rank": 5, "pace": 254000000000, "time": 305.5}}, "weekday": "sunday", "livingplace": "Sullens"}}, "location": "Lausanne"}, "Course de l'Escalade, Gen\u00e8ve": {"latitude": 46.2043907, "longitude": 6.1431577, "race": "Course de l'Escalade, Gen\u00e8ve", "date": {"sam. 05.12.2015": {"year": 2015, "day": 5, "month": 12, "categories": {"PousM-A9": {"distance": 2, "rank": 4, "pace": 260000000000, "time": 452.7}}, "weekday": "saturday", "livingplace": "Sullens"}, "sam. 06.12.2014": {"year": 2014, "day": 6, "month": 12, "categories": {"PousM-A8": {"distance": 2, "rank": 12, "pace": 264000000000, "time": 450.8}}, "weekday": "saturday", "livingplace": "Sullens"}}, "location": "Gen\u00e8ve"}, "20km de Lausanne": {"latitude": 46.5196535, "longitude": 6.6322734, "race": "20km de Lausanne", "date": {"sam. 27.04.2013": {"year": 2013, "day": 27, "month": 4, "categories": {"2-PoussM": {"distance": 2, "rank": 166, "pace": 342000000000, "time": 684.7}}, "weekday": "saturday", "livingplace": "Sullens"}, "sam. 25.04.2015": {"year": 2015, "day": 25, "month": 4, "categories": {"2-H11": {"distance": 2, "rank": 31, "pace": 255000000000, "time": 511.6}}, "weekday": "saturday", "livingplace": "Prilly"}, "sam. 26.04.2014": {"year": 2014, "day": 26, "month": 4, "categories": {"2-PoussM": {"distance": 2, "rank": 35, "pace": 294000000000, "time": 588.1}}, "weekday": "saturday", "livingplace": "Sullens"}}, "location": "Lausanne"}, "Les Traine-Savates, Cheseaux-sur-Lausanne": {"latitude": 46.585452, "longitude": 6.6047712, "race": "Les Traine-Savates, Cheseaux-sur-Lausanne", "date": {"sam. 13.04.2013": {"year": 2013, "day": 13, "month": 4, "categories": {"U10M": {"distance": 2, "rank": 49, "pace": 323000000000, "time": 550.7}}, "weekday": "saturday", "livingplace": "Sullens"}, "sam. 12.04.2014": {"year": 2014, "day": 12, "month": 4, "categories": {"U10M": {"distance": 2, "rank": 20, "pace": 269000000000, "time": 457.5}}, "weekday": "saturday", "livingplace": "Sullens"}}, "location": "Cheseaux-sur-Lausanne"}, "Kerzerslauf": {"latitude": 46.97488999999999, "longitude": 7.1954365, "race": "Kerzerslauf", "date": {"sam. 21.03.2015": {"year": 2015, "day": 21, "month": 3, "categories": {"2-U10M": {"distance": 1, "rank": 5, "pace": 236000000000, "time": 331.5}}, "weekday": "saturday", "livingplace": "Sullens"}}, "location": "Kerzers"}}, "birth": 2006}