{"name": "Fischer Patric", "sex": "M", "races": {"BCN Tour Couvet": {"latitude": 47.0624261, "longitude": 6.9175754, "race": "BCN Tour Couvet", "date": {"mer. 02.05.2012": {"year": 2012, "day": 2, "month": 5, "categories": {"HS1": {"distance": 11, "rank": 130, "pace": 307000000000, "time": 3427.6}}, "weekday": "wednesday", "livingplace": "Neuchatel"}}, "location": "Ch\u00e9zard-St-Martin"}, "Morat-Fribourg": {"latitude": 46.92922110000001, "longitude": 7.120184, "race": "Morat-Fribourg", "date": {"sam. 06.10.2012": {"year": 2012, "day": 6, "month": 10, "categories": {"17-M20": {"distance": 17, "rank": 1292, "pace": 317000000000, "time": 5537.1}}, "weekday": "saturday", "livingplace": "Neuchatel"}}, "location": "Murten"}, "BCN Tour Cornaux": {"latitude": 46.9668714, "longitude": 6.8589727, "race": "BCN Tour Cornaux", "date": {"mer. 25.04.2012": {"year": 2012, "day": 25, "month": 4, "categories": {"HS1": {"distance": 11, "rank": 126, "pace": 337000000000, "time": 3710.0}}, "weekday": "wednesday", "livingplace": "Neuchatel"}}, "location": "Colombier NE"}, "BCN Tour #1 Corcelles": {"latitude": 46.9668714, "longitude": 6.8589727, "race": "BCN Tour #1 Corcelles", "date": {"mer. 24.04.2013": {"year": 2013, "day": 24, "month": 4, "categories": {"HS1": {"distance": 10, "rank": 123, "pace": 290000000000, "time": 2843.5}}, "weekday": "wednesday", "livingplace": "Neuchatel"}}, "location": "Colombier NE"}, "BCN Tour #4 Fleurier": {"latitude": 47.1034892, "longitude": 6.832783800000001, "race": "BCN Tour #4 Fleurier", "date": {"mer. 15.05.2013": {"year": 2013, "day": 15, "month": 5, "categories": {"HS1": {"distance": 9, "rank": 114, "pace": 286000000000, "time": 2474.7}}, "weekday": "wednesday", "livingplace": "Neuchatel"}}, "location": "La Chaux-de-Fonds"}, "BCN Tour #2 La Chaux-de-Fonds": {"latitude": 47.0624261, "longitude": 6.9175754, "race": "BCN Tour #2 La Chaux-de-Fonds", "date": {"mer. 01.05.2013": {"year": 2013, "day": 1, "month": 5, "categories": {"HS1": {"distance": 11, "rank": 131, "pace": 282000000000, "time": 3026.4}}, "weekday": "wednesday", "livingplace": "Neuchatel"}}, "location": "Ch\u00e9zard-St-Martin"}, "BCN Tour La Chaux-de-Fonds": {"latitude": 46.9262933, "longitude": 6.6324944, "race": "BCN Tour La Chaux-de-Fonds", "date": {"mer. 23.05.2012": {"year": 2012, "day": 23, "month": 5, "categories": {"HS1": {"distance": 11, "rank": 160, "pace": 309000000000, "time": 3340.9}}, "weekday": "wednesday", "livingplace": "Neuchatel"}}, "location": "Couvet"}, "Bieler Lauftage, Biel Bienne": {"latitude": 47.1367785, "longitude": 7.2467909, "race": "Bieler Lauftage, Biel Bienne", "date": {"jeu. 11.06.2015": {"year": 2015, "day": 11, "month": 6, "categories": {"H-M35": {"distance": 21, "rank": 22, "pace": 312000000000, "time": 6584.4}}, "weekday": "thursday", "livingplace": "Neuchatel"}}, "location": "Biel/Bienne"}, "BCN Tour Les Ponts-de-Martel": {"latitude": 46.999113, "longitude": 6.733554799999999, "race": "BCN Tour Les Ponts-de-Martel", "date": {"mer. 09.05.2012": {"year": 2012, "day": 9, "month": 5, "categories": {"HS1": {"distance": 10, "rank": 156, "pace": 317000000000, "time": 3268.0}}, "weekday": "wednesday", "livingplace": "Neuchatel"}}, "location": "Les Ponts-de-Martel"}, "BCN Tour #5 Colombier": {"latitude": 46.9262933, "longitude": 6.6324944, "race": "BCN Tour #5 Colombier", "date": {"mer. 22.05.2013": {"year": 2013, "day": 22, "month": 5, "categories": {"HS1": {"distance": 11, "rank": 117, "pace": 264000000000, "time": 2782.1}}, "weekday": "wednesday", "livingplace": "Neuchatel"}}, "location": "Couvet"}, "BCN Tour Colombier": {"latitude": 46.9668714, "longitude": 6.8589727, "race": "BCN Tour Colombier", "date": {"mer. 16.05.2012": {"year": 2012, "day": 16, "month": 5, "categories": {"HS1": {"distance": 11, "rank": 139, "pace": 300000000000, "time": 3247.6}}, "weekday": "wednesday", "livingplace": "Neuchatel"}, "mer. 23.04.2008": {"year": 2008, "day": 23, "month": 4, "categories": {"HS1": {"distance": 10, "rank": 118, "pace": 314000000000, "time": 3208.3}}, "weekday": "wednesday", "livingplace": "Sysmelec"}}, "location": "Colombier NE"}, "BCN Tour #3 Dombresson": {"latitude": 46.999113, "longitude": 6.733554799999999, "race": "BCN Tour #3 Dombresson", "date": {"mer. 08.05.2013": {"year": 2013, "day": 8, "month": 5, "categories": {"HS1": {"distance": 10, "rank": 108, "pace": 275000000000, "time": 2723.2}}, "weekday": "wednesday", "livingplace": "Neuchatel"}}, "location": "Les Ponts-de-Martel"}}, "birth": 1976}