{"name": "Fischer Michael", "sex": "M", "races": {"Lucerne Marathon, Luzern": {"latitude": 47.05016819999999, "longitude": 8.3093072, "race": "Lucerne Marathon, Luzern", "date": {"dim. 30.10.2011": {"year": 2011, "day": 30, "month": 10, "categories": {"H-M40": {"distance": 21, "rank": 1120, "pace": 337000000000, "time": 7124.3}}, "weekday": "sunday", "livingplace": "Gippingen"}}, "location": "Luzern"}, "ASICS Bremgarter Reusslauf": {"latitude": 47.34917739999999, "longitude": 8.3397905, "race": "ASICS Bremgarter Reusslauf", "date": {"sam. 26.02.2011": {"year": 2011, "day": 26, "month": 2, "categories": {"M40": {"distance": 11, "rank": 571, "pace": 319000000000, "time": 3510.1}}, "weekday": "saturday", "livingplace": "Gippingen"}}, "location": "Bremgarten AG"}, "Badener Limmat-Lauf, Baden": {"latitude": 48.5699281, "longitude": 8.5303972, "race": "Badener Limmat-Lauf, Baden", "date": {"sam. 26.03.2011": {"year": 2011, "day": 26, "month": 3, "categories": {"M40": {"distance": 13, "rank": 165, "pace": 333000000000, "time": 4397.1}}, "weekday": "saturday", "livingplace": "Gippingen"}}, "location": "Baden"}, "Dreil\u00e4nder-Lauf, Basel": {"latitude": 47.5595986, "longitude": 7.5885761, "race": "Dreil\u00e4nder-Lauf, Basel", "date": {"dim. 16.05.2010": {"year": 2010, "day": 16, "month": 5, "categories": {"21M40": {"distance": 21, "rank": 162, "pace": 335000000000, "time": 7079.0}}, "weekday": "sunday", "livingplace": "Gippingen"}}, "location": "Basel"}, "Z\u00fcrcher Silvesterlauf, Z\u00fcrich": {"latitude": 47.3768866, "longitude": 8.541694, "race": "Z\u00fcrcher Silvesterlauf, Z\u00fcrich", "date": {"dim. 11.12.2011": {"year": 2011, "day": 11, "month": 12, "categories": {"8-MenAK2": {"distance": 9, "rank": 889, "pace": 314000000000, "time": 2704.0}}, "weekday": "sunday", "livingplace": "Gippingen"}, "dim. 13.12.2009": {"year": 2009, "day": 13, "month": 12, "categories": {"8-MenAK2": {"distance": 9, "rank": 1375, "pace": 379000000000, "time": 3260.5}}, "weekday": "sunday", "livingplace": "Gippingen"}}, "location": "Z\u00fcrich"}, "Int Greifenseelauf, Uster": {"latitude": 47.3482747, "longitude": 8.717873899999999, "race": "Int Greifenseelauf, Uster", "date": {"sam. 19.09.2009": {"year": 2009, "day": 19, "month": 9, "categories": {"H-M40": {"distance": 21, "rank": 1189, "pace": 396000000000, "time": 8371.6}}, "weekday": "saturday", "livingplace": "Gippingen"}}, "location": "Uster"}}, "birth": 1969}