{"name": "Fischer David", "sex": "M", "races": {"Tour du Pays de Vaud printanier #2 Yverdon-les-Bains": {"latitude": 46.6698891, "longitude": 6.7975224, "race": "Tour du Pays de Vaud printanier #2 Yverdon-les-Bains", "date": {"mer. 05.06.2013": {"year": 2013, "day": 5, "month": 6, "categories": {"H-Hom": {"distance": 9, "rank": 13, "pace": 256000000000, "time": 2336.6}}, "weekday": "wednesday", "livingplace": "Thierrens"}}, "location": "Moudon"}, "Morat-Fribourg": {"latitude": 46.92922110000001, "longitude": 7.120184, "race": "Morat-Fribourg", "date": {"sam. 05.10.2013": {"year": 2013, "day": 5, "month": 10, "categories": {"17-M20": {"distance": 17, "rank": 301, "pace": 257000000000, "time": 4493.4}}, "weekday": "saturday", "livingplace": "Thierrens"}, "sam. 01.10.2011": {"year": 2011, "day": 1, "month": 10, "categories": {"17-M20": {"distance": 17, "rank": 314, "pace": 263000000000, "time": 4524.0}}, "weekday": "saturday", "livingplace": "Lucens"}, "sam. 04.10.2014": {"year": 2014, "day": 4, "month": 10, "categories": {"17-M20": {"distance": 17, "rank": 338, "pace": 266000000000, "time": 4571.2}}, "weekday": "saturday", "livingplace": "Thierrens"}}, "location": "Murten"}, "Tour du Pays de Vaud printanier #1 Chavornay": {"latitude": 46.3832683, "longitude": 6.2347852, "race": "Tour du Pays de Vaud printanier #1 Chavornay", "date": {"mer. 30.05.2012": {"year": 2012, "day": 30, "month": 5, "categories": {"H-Hom": {"distance": 9, "rank": 12, "pace": 257000000000, "time": 2303.0}}, "weekday": "wednesday", "livingplace": "Lucens"}}, "location": "Nyon"}, "Tour du Pays de Vaud #3 - Mezi\u00e8res": {"latitude": 46.7784736, "longitude": 6.641183, "race": "Tour du Pays de Vaud #3 - Mezi\u00e8res", "date": {"mer. 22.08.2012": {"year": 2012, "day": 22, "month": 8, "categories": {"H-Hom": {"distance": 8, "rank": 13, "pace": 258000000000, "time": 2172.4}}, "weekday": "wednesday", "livingplace": "Thierrens"}}, "location": "Yverdon-les-Bains"}, "20km de Lausanne": {"latitude": 46.5196535, "longitude": 6.6322734, "race": "20km de Lausanne", "date": {"sam. 30.04.2011": {"year": 2011, "day": 30, "month": 4, "categories": {"10-H20": {"distance": 10, "rank": 90, "pace": 265000000000, "time": 2659.7}}, "weekday": "saturday", "livingplace": "Lucens"}}, "location": "Lausanne"}, "Tour du Pays de Vaud printanier #1 Moudon": {"latitude": 46.3832683, "longitude": 6.2347852, "race": "Tour du Pays de Vaud printanier #1 Moudon", "date": {"mer. 29.05.2013": {"year": 2013, "day": 29, "month": 5, "categories": {"H-Hom": {"distance": 8, "rank": 8, "pace": 248000000000, "time": 2125.7}}, "weekday": "wednesday", "livingplace": "Thierrens"}, "mer. 04.06.2014": {"year": 2014, "day": 4, "month": 6, "categories": {"H-Sen1": {"distance": 8, "rank": 28, "pace": 256000000000, "time": 2157.2}}, "weekday": "wednesday", "livingplace": "Thierrens"}}, "location": "Nyon"}, "Z\u00fcrcher Silvesterlauf, Z\u00fcrich": {"latitude": 47.3768866, "longitude": 8.541694, "race": "Z\u00fcrcher Silvesterlauf, Z\u00fcrich", "date": {"dim. 14.12.2008": {"year": 2008, "day": 14, "month": 12, "categories": {"MenHK-8": {"distance": 9, "rank": 465, "pace": 303000000000, "time": 2613.5}}, "weekday": "sunday", "livingplace": "Zurich"}}, "location": "Z\u00fcrich"}, "Tour du Pays de Vaud printanier #3 - Yens": {"latitude": 46.7829756, "longitude": 6.5728678, "race": "Tour du Pays de Vaud printanier #3 - Yens", "date": {"mer. 12.06.2013": {"year": 2013, "day": 12, "month": 6, "categories": {"H-Hom": {"distance": 9, "rank": 11, "pace": 251000000000, "time": 2290.1}}, "weekday": "wednesday", "livingplace": "Thierrens"}}, "location": "Champvent"}, "Tour du Pays de Vaud #2 - Mezi\u00e8res": {"latitude": 46.5955273, "longitude": 6.7702883, "race": "Tour du Pays de Vaud #2 - Mezi\u00e8res", "date": {"mer. 21.08.2013": {"year": 2013, "day": 21, "month": 8, "categories": {"H-Hom": {"distance": 8, "rank": 13, "pace": 249000000000, "time": 2023.8}}, "weekday": "wednesday", "livingplace": "Thierrens"}}, "location": "M\u00e9zi\u00e8res VD"}, "Lausanne Marathon": {"latitude": 46.5196535, "longitude": 6.6322734, "race": "Lausanne Marathon", "date": {"dim. 31.10.2010": {"year": 2010, "day": 31, "month": 10, "categories": {"10-H1": {"distance": 10, "rank": 77, "pace": 256000000000, "time": 2562.4}}, "weekday": "sunday", "livingplace": "Lucens"}}, "location": "Lausanne"}, "Kerzerslauf": {"latitude": 46.97488999999999, "longitude": 7.1954365, "race": "Kerzerslauf", "date": {"sam. 21.03.2015": {"year": 2015, "day": 21, "month": 3, "categories": {"15-M20": {"distance": 15, "rank": 141, "pace": 251000000000, "time": 3774.3}}, "weekday": "saturday", "livingplace": "Thierrens"}, "sam. 17.03.2012": {"year": 2012, "day": 17, "month": 3, "categories": {"15-M20": {"distance": 15, "rank": 221, "pace": 267000000000, "time": 4016.2}}, "weekday": "saturday", "livingplace": "Lucens"}, "sam. 16.03.2013": {"year": 2013, "day": 16, "month": 3, "categories": {"15-M20": {"distance": 15, "rank": 206, "pace": 264000000000, "time": 3974.0}}, "weekday": "saturday", "livingplace": "Lucens"}}, "location": "Kerzers"}, "Course p\u00e9destre Thyon-Dixence, Thyon": {"latitude": NaN, "longitude": NaN, "race": "Course p\u00e9destre Thyon-Dixence, Thyon", "date": {"dim. 03.08.2014": {"year": 2014, "day": 3, "month": 8, "categories": {"HomElite": {"distance": 16, "rank": 35, "pace": 373000000000, "time": 6102.3}}, "weekday": "sunday", "livingplace": "Thierrens"}}, "location": "Thyon-Les Collons"}, "Tour du pays de Vaud #1 \u2013 St  Prex": {"latitude": 46.7784736, "longitude": 6.641183, "race": "Tour du pays de Vaud #1 \u2013 St  Prex", "date": {"mer. 11.08.2010": {"year": 2010, "day": 11, "month": 8, "categories": {"Hom": {"distance": 8, "rank": 35, "pace": 271000000000, "time": 2276.4}}, "weekday": "wednesday", "livingplace": "Lucens"}}, "location": "Yverdon-les-Bains"}, "Course de l'Escalade, Gen\u00e8ve": {"latitude": 46.2043907, "longitude": 6.1431577, "race": "Course de l'Escalade, Gen\u00e8ve", "date": {"sam. 03.12.2011": {"year": 2011, "day": 3, "month": 12, "categories": {"H-H1": {"distance": 7, "rank": 124, "pace": 249000000000, "time": 1810.8}}, "weekday": "saturday", "livingplace": "Lucens"}, "sam. 04.12.2010": {"year": 2010, "day": 4, "month": 12, "categories": {"H-H1": {"distance": 7, "rank": 471, "pace": 262000000000, "time": 1902.7}}, "weekday": "saturday", "livingplace": "Lucens"}}, "location": "Gen\u00e8ve"}, "Sierre-Zinal, Sierre": {"latitude": 46.29413110000001, "longitude": 7.533536199999999, "race": "Sierre-Zinal, Sierre", "date": {"dim. 11.08.2013": {"year": 2013, "day": 11, "month": 8, "categories": {"Elites": {"distance": 31, "rank": 120, "pace": 432000000000, "time": 13421.6}}, "weekday": "sunday", "livingplace": "Thierrens"}}, "location": "Sierre"}, "Tour du Pays de Vaud #4, La Sarraz": {"latitude": 46.7088129, "longitude": 6.5707689, "race": "Tour du Pays de Vaud #4, La Sarraz", "date": {"mer. 03.09.2014": {"year": 2014, "day": 3, "month": 9, "categories": {"H-Sen1": {"distance": 9, "rank": 15, "pace": 237000000000, "time": 2020.1}}, "weekday": "wednesday", "livingplace": "Thierrens"}}, "location": "Chavornay"}, "Tour du Pays de Vaud #2 - Genolier": {"latitude": 46.5955273, "longitude": 6.7702883, "race": "Tour du Pays de Vaud #2 - Genolier", "date": {"mer. 18.08.2010": {"year": 2010, "day": 18, "month": 8, "categories": {"Hom": {"distance": 8, "rank": 45, "pace": 270000000000, "time": 2188.0}}, "weekday": "wednesday", "livingplace": "Lucens"}}, "location": "M\u00e9zi\u00e8res VD"}, "10km, Payerne": {"latitude": 46.8220266, "longitude": 6.9405663, "race": "10km, Payerne", "date": {"sam. 16.04.2011": {"year": 2011, "day": 16, "month": 4, "categories": {"M20": {"distance": 10, "rank": 14, "pace": 258000000000, "time": 2584.5}}, "weekday": "saturday", "livingplace": "Lucens"}}, "location": "Payerne"}, "Tour du Pays de Vaud #1, Penthaz": {"latitude": 46.5993131, "longitude": 6.539251200000001, "race": "Tour du Pays de Vaud #1, Penthaz", "date": {"mer. 13.08.2014": {"year": 2014, "day": 13, "month": 8, "categories": {"H-Sen1": {"distance": 9, "rank": 19, "pace": 236000000000, "time": 2021.0}}, "weekday": "wednesday", "livingplace": "Thierrens"}}, "location": "Penthaz"}, "Tour du Pays de Vaud printanier #2 Yens": {"latitude": 46.6698891, "longitude": 6.7975224, "race": "Tour du Pays de Vaud printanier #2 Yens", "date": {"mer. 06.06.2012": {"year": 2012, "day": 6, "month": 6, "categories": {"H-Hom": {"distance": 9, "rank": 15, "pace": 253000000000, "time": 2307.3}}, "weekday": "wednesday", "livingplace": "Lucens"}}, "location": "Moudon"}, "Montreux - Les Rochers de Naye": {"latitude": 46.4312213, "longitude": 6.9106799, "race": "Montreux - Les Rochers de Naye", "date": {"dim. 10.07.2011": {"year": 2011, "day": 10, "month": 7, "categories": {"M-HElite": {"distance": 19, "rank": 119, "pace": 451000000000, "time": 8484.2}}, "weekday": "sunday", "livingplace": "Lucens"}, "dim. 06.07.2014": {"year": 2014, "day": 6, "month": 7, "categories": {"M-HElite": {"distance": 19, "rank": 96, "pace": 434000000000, "time": 8166.0}}, "weekday": "sunday", "livingplace": "Thierrens"}}, "location": "Montreux"}, "Tour du Pays de Vaud #5 - La Sarraz": {"latitude": 46.5993131, "longitude": 6.539251200000001, "race": "Tour du Pays de Vaud #5 - La Sarraz", "date": {"mer. 08.09.2010": {"year": 2010, "day": 8, "month": 9, "categories": {"Hom": {"distance": 9, "rank": 28, "pace": 259000000000, "time": 2364.8}}, "weekday": "wednesday", "livingplace": "Lucens"}}, "location": "Penthaz"}}, "birth": 1984}