{"name": "Fl\u00fcckiger Christian", "sex": "M", "races": {"Kerzerslauf": {"latitude": 46.97488999999999, "longitude": 7.1954365, "race": "Kerzerslauf", "date": {"sam. 18.03.2000": {"year": 2000, "day": 18, "month": 3, "categories": {"M20": {"distance": 15, "rank": 152, "pace": 235000000000, "time": 3530.9}}, "weekday": "saturday", "livingplace": "Travers"}, "sam. 15.03.2003": {"year": 2003, "day": 15, "month": 3, "categories": {"M20": {"distance": 15, "rank": 118, "pace": 233000000000, "time": 3495.4}}, "weekday": "saturday", "livingplace": "Travers"}, "sam. 20.03.2004": {"year": 2004, "day": 20, "month": 3, "categories": {"M20": {"distance": 15, "rank": 95, "pace": 227000000000, "time": 3412.8}}, "weekday": "saturday", "livingplace": "Travers"}, "sam. 17.03.2007": {"year": 2007, "day": 17, "month": 3, "categories": {"M35": {"distance": 15, "rank": 55, "pace": 232000000000, "time": 3481.4}}, "weekday": "saturday", "livingplace": "Travers"}, "sam. 18.03.2006": {"year": 2006, "day": 18, "month": 3, "categories": {"M20": {"distance": 15, "rank": 78, "pace": 230000000000, "time": 3458.1}}, "weekday": "saturday", "livingplace": "Travers"}}, "location": "Kerzers"}, "BCN Tour Les Ponts-de-Martel": {"latitude": 46.999113, "longitude": 6.733554799999999, "race": "BCN Tour Les Ponts-de-Martel", "date": {"mer. 09.05.2012": {"year": 2012, "day": 9, "month": 5, "categories": {"HS2": {"distance": 10, "rank": 25, "pace": 251000000000, "time": 2588.5}}, "weekday": "wednesday", "livingplace": "Travers"}}, "location": "Les Ponts-de-Martel"}, "BCN Tour Fontaine Cernier": {"latitude": 47.0624261, "longitude": 6.9175754, "race": "BCN Tour Fontaine Cernier", "date": {"mer. 27.04.2011": {"year": 2011, "day": 27, "month": 4, "categories": {"HS1": {"distance": 10, "rank": 26, "pace": 240000000000, "time": 2472.4}}, "weekday": "wednesday", "livingplace": "Travers"}}, "location": "Ch\u00e9zard-St-Martin"}, "BCN Tour Couvet": {"latitude": 47.0624261, "longitude": 6.9175754, "race": "BCN Tour Couvet", "date": {"mer. 02.05.2012": {"year": 2012, "day": 2, "month": 5, "categories": {"HS2": {"distance": 11, "rank": 24, "pace": 251000000000, "time": 2804.5}}, "weekday": "wednesday", "livingplace": "Travers"}}, "location": "Ch\u00e9zard-St-Martin"}, "BCN Tour Auvernier": {"latitude": 46.9668714, "longitude": 6.8589727, "race": "BCN Tour Auvernier", "date": {"mer. 20.04.2011": {"year": 2011, "day": 20, "month": 4, "categories": {"HS1": {"distance": 11, "rank": 21, "pace": 253000000000, "time": 2734.7}}, "weekday": "wednesday", "livingplace": "Travers"}}, "location": "Colombier NE"}, "BCN Tour #4 Fleurier": {"latitude": 47.1034892, "longitude": 6.832783800000001, "race": "BCN Tour #4 Fleurier", "date": {"mer. 15.05.2013": {"year": 2013, "day": 15, "month": 5, "categories": {"HS2": {"distance": 9, "rank": 26, "pace": 245000000000, "time": 2124.3}}, "weekday": "wednesday", "livingplace": "Travers"}}, "location": "La Chaux-de-Fonds"}, "BCN Tour Colombier": {"latitude": 47.1034892, "longitude": 6.832783800000001, "race": "BCN Tour Colombier", "date": {"mer. 16.05.2012": {"year": 2012, "day": 16, "month": 5, "categories": {"HS2": {"distance": 11, "rank": 24, "pace": 243000000000, "time": 2625.1}}, "weekday": "wednesday", "livingplace": "Travers"}}, "location": "La Chaux-de-Fonds"}, "Montreux - Les Rochers de Naye": {"latitude": 46.4312213, "longitude": 6.9106799, "race": "Montreux - Les Rochers de Naye", "date": {"dim. 26.06.2005": {"year": 2005, "day": 26, "month": 6, "categories": {"Sen": {"distance": 19, "rank": 20, "pace": 382000000000, "time": 7194.3}}, "weekday": "sunday", "livingplace": "Travers"}, "dim. 25.06.2006": {"year": 2006, "day": 25, "month": 6, "categories": {"Sen": {"distance": 19, "rank": 19, "pace": 377000000000, "time": 7097.2}}, "weekday": "sunday", "livingplace": "Travers"}}, "location": "Montreux"}, "BCN Tour #2 La Chaux-de-Fonds": {"latitude": 47.0624261, "longitude": 6.9175754, "race": "BCN Tour #2 La Chaux-de-Fonds", "date": {"mer. 01.05.2013": {"year": 2013, "day": 1, "month": 5, "categories": {"HS2": {"distance": 11, "rank": 28, "pace": 239000000000, "time": 2566.0}}, "weekday": "wednesday", "livingplace": "Travers"}}, "location": "Ch\u00e9zard-St-Martin"}, "BCN Tour La Chaux-de-Fonds": {"latitude": 47.1034892, "longitude": 6.832783800000001, "race": "BCN Tour La Chaux-de-Fonds", "date": {"mer. 23.05.2012": {"year": 2012, "day": 23, "month": 5, "categories": {"HS2": {"distance": 11, "rank": 21, "pace": 243000000000, "time": 2631.0}}, "weekday": "wednesday", "livingplace": "Travers"}, "mer. 11.05.2011": {"year": 2011, "day": 11, "month": 5, "categories": {"HS1": {"distance": 11, "rank": 25, "pace": 284000000000, "time": 3043.3}}, "weekday": "wednesday", "livingplace": "Travers"}}, "location": "La Chaux-de-Fonds"}, "BCN Tour La Br\u00e9vine": {"latitude": 46.999113, "longitude": 6.733554799999999, "race": "BCN Tour La Br\u00e9vine", "date": {"mer. 04.05.2011": {"year": 2011, "day": 4, "month": 5, "categories": {"HS1": {"distance": 10, "rank": 26, "pace": 256000000000, "time": 2567.3}}, "weekday": "wednesday", "livingplace": "Travers"}}, "location": "Les Ponts-de-Martel"}, "BCN Tour Neuch\u00e2tel": {"latitude": 46.9899874, "longitude": 6.9292732, "race": "BCN Tour Neuch\u00e2tel", "date": {"mer. 30.05.2012": {"year": 2012, "day": 30, "month": 5, "categories": {"HS2": {"distance": 11, "rank": 22, "pace": 253000000000, "time": 2839.1}}, "weekday": "wednesday", "livingplace": "Travers"}, "mer. 25.05.2011": {"year": 2011, "day": 25, "month": 5, "categories": {"HS1": {"distance": 11, "rank": 25, "pace": 254000000000, "time": 2900.5}}, "weekday": "wednesday", "livingplace": "Travers"}}, "location": "Neuch\u00e2tel"}, "BCN Tour Les Ponts de Martel": {"latitude": 46.9262933, "longitude": 6.6324944, "race": "BCN Tour Les Ponts de Martel", "date": {"mer. 18.05.2011": {"year": 2011, "day": 18, "month": 5, "categories": {"HS1": {"distance": 13, "rank": 30, "pace": 259000000000, "time": 3317.6}}, "weekday": "wednesday", "livingplace": "Travers"}}, "location": "Couvet"}, "Z\u00fcrich Marathon, Teamrun und Cityrun": {"latitude": 47.3768866, "longitude": 8.541694, "race": "Z\u00fcrich Marathon, Teamrun und Cityrun", "date": {"dim. 09.04.2006": {"year": 2006, "day": 9, "month": 4, "categories": {"M30": {"distance": 42, "rank": 132, "pace": 253000000000, "time": 10703.5}}, "weekday": "sunday", "livingplace": "Travers"}}, "location": "Z\u00fcrich"}, "BCN Tour Cornaux": {"latitude": 46.9668714, "longitude": 6.8589727, "race": "BCN Tour Cornaux", "date": {"mer. 25.04.2012": {"year": 2012, "day": 25, "month": 4, "categories": {"HS2": {"distance": 11, "rank": 22, "pace": 266000000000, "time": 2927.0}}, "weekday": "wednesday", "livingplace": "Travers"}}, "location": "Colombier NE"}}, "birth": 1972}