{"name": "Fl\u00fcck Steve", "sex": "M", "races": {"BCN Tour La Chaux-de-Fonds": {"latitude": 47.1034892, "longitude": 6.832783800000001, "race": "BCN Tour La Chaux-de-Fonds", "date": {"mer. 11.05.2011": {"year": 2011, "day": 11, "month": 5, "categories": {"HE": {"distance": 11, "rank": 129, "pace": 353000000000, "time": 3782.3}}, "weekday": "wednesday", "livingplace": "Travers"}}, "location": "La Chaux-de-Fonds"}, "BCN Tour La Br\u00e9vine": {"latitude": 46.999113, "longitude": 6.733554799999999, "race": "BCN Tour La Br\u00e9vine", "date": {"mer. 04.05.2011": {"year": 2011, "day": 4, "month": 5, "categories": {"HE": {"distance": 10, "rank": 139, "pace": 314000000000, "time": 3146.4}}, "weekday": "wednesday", "livingplace": "Travers"}}, "location": "Les Ponts-de-Martel"}, "BCN Tour Fontaine Cernier": {"latitude": 47.0624261, "longitude": 6.9175754, "race": "BCN Tour Fontaine Cernier", "date": {"mer. 27.04.2011": {"year": 2011, "day": 27, "month": 4, "categories": {"HE": {"distance": 10, "rank": 180, "pace": 313000000000, "time": 3229.4}}, "weekday": "wednesday", "livingplace": "Travers"}}, "location": "Ch\u00e9zard-St-Martin"}, "BCN Tour Neuch\u00e2tel": {"latitude": 46.9899874, "longitude": 6.9292732, "race": "BCN Tour Neuch\u00e2tel", "date": {"mer. 25.05.2011": {"year": 2011, "day": 25, "month": 5, "categories": {"HE": {"distance": 11, "rank": 160, "pace": 321000000000, "time": 3668.3}}, "weekday": "wednesday", "livingplace": "Travers"}}, "location": "Neuch\u00e2tel"}, "BCN Tour Les Ponts de Martel": {"latitude": 46.9262933, "longitude": 6.6324944, "race": "BCN Tour Les Ponts de Martel", "date": {"mer. 18.05.2011": {"year": 2011, "day": 18, "month": 5, "categories": {"HE": {"distance": 13, "rank": 118, "pace": 312000000000, "time": 4000.4}}, "weekday": "wednesday", "livingplace": "Travers"}}, "location": "Couvet"}, "BCN Tour Auvernier": {"latitude": 46.9668714, "longitude": 6.8589727, "race": "BCN Tour Auvernier", "date": {"mer. 20.04.2011": {"year": 2011, "day": 20, "month": 4, "categories": {"HE": {"distance": 11, "rank": 152, "pace": 345000000000, "time": 3736.2}}, "weekday": "wednesday", "livingplace": "Travers"}}, "location": "Colombier NE"}}, "birth": 1989}