{"name": "Fl\u00fcckiger Simon", "sex": "M", "races": {"Int  Bieler Cross, Biel-Bienne": {"latitude": 47.1367785, "longitude": 7.2467909, "race": "Int  Bieler Cross, Biel-Bienne", "date": {"dim. 26.11.2006": {"year": 2006, "day": 26, "month": 11, "categories": {"M14": {"distance": 2, "rank": 4, "pace": 251000000000, "time": 420.7}}, "weekday": "sunday", "livingplace": "Busswil b. Buren"}}, "location": "Biel/Bienne"}, "Langenthaler Stadtlauf": {"latitude": 47.2120786, "longitude": 7.790562299999999, "race": "Langenthaler Stadtlauf", "date": {"sam. 18.11.2006": {"year": 2006, "day": 18, "month": 11, "categories": {"TeenK": {"distance": 1, "rank": 24, "pace": 224000000000, "time": 280.1}}, "weekday": "saturday", "livingplace": "Busswil b. Buren"}}, "location": "Langenthal"}, "Wiedlisbacher L\u00e4ufe, Wiedlisbach": {"latitude": 47.2512653, "longitude": 7.6453444, "race": "Wiedlisbacher L\u00e4ufe, Wiedlisbach", "date": {"dim. 29.04.2007": {"year": 2007, "day": 29, "month": 4, "categories": {"SM-6.5": {"distance": 7, "rank": 12, "pace": 327000000000, "time": 2128.4}}, "weekday": "sunday", "livingplace": "Busswil b. Buren"}}, "location": "Wiedlisbach"}, "Kerzerslauf": {"latitude": 46.97488999999999, "longitude": 7.1954365, "race": "Kerzerslauf", "date": {"sam. 18.03.2006": {"year": 2006, "day": 18, "month": 3, "categories": {"M13": {"distance": 2, "rank": 23, "pace": 241000000000, "time": 580.0}}, "weekday": "saturday", "livingplace": "Busswil b. Buren"}, "sam. 17.03.2007": {"year": 2007, "day": 17, "month": 3, "categories": {"M13": {"distance": 1, "rank": 30, "pace": 219000000000, "time": 307.2}}, "weekday": "saturday", "livingplace": "Busswil b. Buren"}}, "location": "Kerzers"}, "BCN Tour Les Ponts de Martel": {"latitude": 46.9262933, "longitude": 6.6324944, "race": "BCN Tour Les Ponts de Martel", "date": {"mer. 18.05.2011": {"year": 2011, "day": 18, "month": 5, "categories": {"HJ": {"distance": 13, "rank": 76, "pace": 378000000000, "time": 4845.4}}, "weekday": "wednesday", "livingplace": "La Chaux de Fonds"}}, "location": "Couvet"}}, "birth": 1994}