{"name": "Flury Tamara", "sex": "F", "races": {"Lucerne Marathon, Luzern": {"latitude": 47.05016819999999, "longitude": 8.3093072, "race": "Lucerne Marathon, Luzern", "date": {"dim. 30.10.2011": {"year": 2011, "day": 30, "month": 10, "categories": {"H-F30": {"distance": 21, "rank": 422, "pace": 363000000000, "time": 7674.2}}, "weekday": "sunday", "livingplace": "Luterbach"}}, "location": "Luzern"}, "Derendinger Abendlauf, Derendingen": {"latitude": 47.1952433, "longitude": 7.585593099999999, "race": "Derendinger Abendlauf, Derendingen", "date": {"ven. 24.06.2011": {"year": 2011, "day": 24, "month": 6, "categories": {"VLF": {"distance": 6, "rank": 12, "pace": 320000000000, "time": 1827.0}}, "weekday": "friday", "livingplace": "Luterbach"}}, "location": "Derendingen"}, "Basler Stadtlauf": {"latitude": 47.5595986, "longitude": 7.5885761, "race": "Basler Stadtlauf", "date": {"sam. 29.11.2014": {"year": 2014, "day": 29, "month": 11, "categories": {"F35": {"distance": 6, "rank": 210, "pace": 362000000000, "time": 1992.8}}, "weekday": "saturday", "livingplace": "Einsiedeln"}, "sam. 30.11.2013": {"year": 2013, "day": 30, "month": 11, "categories": {"F35": {"distance": 6, "rank": 228, "pace": 406000000000, "time": 2234.0}}, "weekday": "saturday", "livingplace": "Einsiedeln"}}, "location": "Basel"}, "Schweizer Frauenlauf Bern": {"latitude": 46.9479739, "longitude": 7.4474468, "race": "Schweizer Frauenlauf Bern", "date": {"dim. 19.06.2011": {"year": 2011, "day": 19, "month": 6, "categories": {"5-W35": {"distance": 5, "rank": 167, "pace": 330000000000, "time": 1651.6}}, "weekday": "sunday", "livingplace": "Luterbach"}}, "location": "Bern"}, "Langenthaler Stadtlauf": {"latitude": 47.2120786, "longitude": 7.790562299999999, "race": "Langenthaler Stadtlauf", "date": {"sam. 22.11.2014": {"year": 2014, "day": 22, "month": 11, "categories": {"JogF": {"distance": 5, "rank": 77, "pace": 372000000000, "time": 1864.8}}, "weekday": "saturday", "livingplace": "Einsiedeln"}}, "location": "Langenthal"}, "Winterthur Marathon": {"latitude": 39.8088766, "longitude": -75.6037351, "race": "Winterthur Marathon", "date": {"dim. 31.05.2015": {"year": 2015, "day": 31, "month": 5, "categories": {"10-F40": {"distance": 10, "rank": 37, "pace": 399000000000, "time": 3993.1}}, "weekday": "sunday", "livingplace": "Team Merida Bike 66"}}, "location": "Winterthur"}, "Hallwilerseelauf, Beinwil am See": {"latitude": NaN, "longitude": NaN, "race": "Hallwilerseelauf, Beinwil am See", "date": {"sam. 11.10.2014": {"year": 2014, "day": 11, "month": 10, "categories": {"21-F30": {"distance": 21, "rank": 302, "pace": 447000000000, "time": 9448.2}}, "weekday": "saturday", "livingplace": "Einsiedeln"}, "sam. 15.10.2011": {"year": 2011, "day": 15, "month": 10, "categories": {"21-F30": {"distance": 21, "rank": 244, "pace": 375000000000, "time": 7921.2}}, "weekday": "saturday", "livingplace": "Luterbach"}}, "location": "Beinwil am See"}, "Kerzerslauf": {"latitude": 46.97488999999999, "longitude": 7.1954365, "race": "Kerzerslauf", "date": {"sam. 21.03.2015": {"year": 2015, "day": 21, "month": 3, "categories": {"15-F40": {"distance": 15, "rank": 249, "pace": 396000000000, "time": 5951.2}}, "weekday": "saturday", "livingplace": "Einsiedeln"}, "sam. 17.03.2012": {"year": 2012, "day": 17, "month": 3, "categories": {"15-F35": {"distance": 15, "rank": 184, "pace": 388000000000, "time": 5828.6}}, "weekday": "saturday", "livingplace": "Luterbach"}}, "location": "Kerzers"}, "Emmenlauf Utzenstorf": {"latitude": 47.12816670000001, "longitude": 7.5588034, "race": "Emmenlauf Utzenstorf", "date": {"mer. 17.08.2011": {"year": 2011, "day": 17, "month": 8, "categories": {"Damen2": {"distance": 11, "rank": 22, "pace": 348000000000, "time": 3658.7}}, "weekday": "wednesday", "livingplace": "Luterbach"}}, "location": "Utzenstorf"}, "Z\u00fcrcher Silvesterlauf, Z\u00fcrich": {"latitude": 47.3768866, "longitude": 8.541694, "race": "Z\u00fcrcher Silvesterlauf, Z\u00fcrich", "date": {"dim. 14.12.2014": {"year": 2014, "day": 14, "month": 12, "categories": {"10-F30": {"distance": 10, "rank": 718, "pace": 393000000000, "time": 3937.6}}, "weekday": "sunday", "livingplace": "Einsiedeln"}}, "location": "Z\u00fcrich"}}, "birth": 1975}