{"name": "Fomalont Paul", "sex": "M", "races": {"Tour du Chablais #6 Monthey": {"latitude": 46.3190253, "longitude": 6.970566, "race": "Tour du Chablais #6 Monthey", "date": {"mer. 08.05.2013": {"year": 2013, "day": 8, "month": 5, "categories": {"M-M40": {"distance": 9, "rank": 16, "pace": 234000000000, "time": 2189.1}}, "weekday": "wednesday", "livingplace": "Leysin"}}, "location": "Aigle"}, "Glacier 3000 Run, Gstaad": {"latitude": 46.4717588, "longitude": 7.2865728, "race": "Glacier 3000 Run, Gstaad", "date": {"sam. 04.08.2012": {"year": 2012, "day": 4, "month": 8, "categories": {"M40": {"distance": 26, "rank": 47, "pace": 492000000000, "time": 12796.3}}, "weekday": "saturday", "livingplace": "Leysin"}}, "location": "Gstaad"}, "Morat-Fribourg": {"latitude": 46.92922110000001, "longitude": 7.120184, "race": "Morat-Fribourg", "date": {"sam. 05.10.2013": {"year": 2013, "day": 5, "month": 10, "categories": {"17-M40": {"distance": 17, "rank": 53, "pace": 247000000000, "time": 4322.4}}, "weekday": "saturday", "livingplace": "Leysin"}, "sam. 06.10.2012": {"year": 2012, "day": 6, "month": 10, "categories": {"17-M40": {"distance": 17, "rank": 50, "pace": 249000000000, "time": 4346.1}}, "weekday": "saturday", "livingplace": "Leysin"}, "sam. 04.10.2014": {"year": 2014, "day": 4, "month": 10, "categories": {"17-M40": {"distance": 17, "rank": 103, "pace": 268000000000, "time": 4604.6}}, "weekday": "saturday", "livingplace": "Leysin"}}, "location": "Murten"}, "Tour du Chablais #4 Morgins": {"latitude": NaN, "longitude": NaN, "race": "Tour du Chablais #4 Morgins", "date": {"mer. 18.05.2011": {"year": 2011, "day": 18, "month": 5, "categories": {"M-M40": {"distance": 8, "rank": 11, "pace": 243000000000, "time": 2034.2}}, "weekday": "wednesday", "livingplace": "Leysin"}}, "location": "Les Mosses"}, "20km de Lausanne": {"latitude": 46.5196535, "longitude": 6.6322734, "race": "20km de Lausanne", "date": {"sam. 30.04.2011": {"year": 2011, "day": 30, "month": 4, "categories": {"20-H40": {"distance": 20, "rank": 75, "pace": 263000000000, "time": 5265.4}}, "weekday": "saturday", "livingplace": "Leysin"}}, "location": "Lausanne"}, "Tour du Chablais #1 Lavey": {"latitude": 46.2957462, "longitude": 6.9916269, "race": "Tour du Chablais #1 Lavey", "date": {"mer. 27.04.2011": {"year": 2011, "day": 27, "month": 4, "categories": {"M-M40": {"distance": 9, "rank": 20, "pace": 236000000000, "time": 2129.6}}, "weekday": "wednesday", "livingplace": "Leysin"}}, "location": "Ollon VD"}, "Dreil\u00e4nder-Lauf, Basel": {"latitude": 47.5595986, "longitude": 7.5885761, "race": "Dreil\u00e4nder-Lauf, Basel", "date": {"dim. 16.05.2010": {"year": 2010, "day": 16, "month": 5, "categories": {"21M40": {"distance": 21, "rank": 22, "pace": 256000000000, "time": 5421.0}}, "weekday": "sunday", "livingplace": "Leysin"}, "dim. 22.05.2011": {"year": 2011, "day": 22, "month": 5, "categories": {"21M40": {"distance": 21, "rank": 6, "pace": 249000000000, "time": 5261.7}}, "weekday": "sunday", "livingplace": "Leysin"}}, "location": "Basel"}, "Tour du Chablais #5 Morgins": {"latitude": 46.3603257, "longitude": 6.931504599999999, "race": "Tour du Chablais #5 Morgins", "date": {"mer. 01.05.2013": {"year": 2013, "day": 1, "month": 5, "categories": {"M-M40": {"distance": 8, "rank": 12, "pace": 247000000000, "time": 1879.4}}, "weekday": "wednesday", "livingplace": "Leysin"}}, "location": "Roche VD"}, "Tour du Chablais #2 Yvorne": {"latitude": 46.3835529, "longitude": 6.854975199999999, "race": "Tour du Chablais #2 Yvorne", "date": {"mer. 10.04.2013": {"year": 2013, "day": 10, "month": 4, "categories": {"M-M40": {"distance": 8, "rank": 24, "pace": 262000000000, "time": 2097.4}}, "weekday": "wednesday", "livingplace": "Leysin"}}, "location": "Bouveret"}, "Tour du Chablais #5 Bex": {"latitude": 46.3603257, "longitude": 6.931504599999999, "race": "Tour du Chablais #5 Bex", "date": {"mer. 09.05.2012": {"year": 2012, "day": 9, "month": 5, "categories": {"M-M40": {"distance": 9, "rank": 6, "pace": 224000000000, "time": 1989.3}}, "weekday": "wednesday", "livingplace": "Leysin"}}, "location": "Roche VD"}, "Tour du Chablais #4 Champ\u00e9ry": {"latitude": NaN, "longitude": NaN, "race": "Tour du Chablais #4 Champ\u00e9ry", "date": {"mer. 02.05.2012": {"year": 2012, "day": 2, "month": 5, "categories": {"M-M40": {"distance": 8, "rank": 12, "pace": 233000000000, "time": 1941.6}}, "weekday": "wednesday", "livingplace": "Leysin"}}, "location": "Les Mosses"}, "Lausanne Marathon": {"latitude": 46.5196535, "longitude": 6.6322734, "race": "Lausanne Marathon", "date": {"dim. 26.10.2014": {"year": 2014, "day": 26, "month": 10, "categories": {"21-H40": {"distance": 21, "rank": 31, "pace": 246000000000, "time": 5198.7}}, "weekday": "sunday", "livingplace": "Leysin"}}, "location": "Lausanne"}, "Tour du Chablais #5 Leysin": {"latitude": 46.3603257, "longitude": 6.931504599999999, "race": "Tour du Chablais #5 Leysin", "date": {"mer. 05.05.2010": {"year": 2010, "day": 5, "month": 5, "categories": {"M-M40": {"distance": 8, "rank": 22, "pace": 263000000000, "time": 2228.9}}, "weekday": "wednesday", "livingplace": "Leysin"}}, "location": "Roche VD"}, "Kerzerslauf": {"latitude": 46.97488999999999, "longitude": 7.1954365, "race": "Kerzerslauf", "date": {"sam. 21.03.2015": {"year": 2015, "day": 21, "month": 3, "categories": {"15-M45": {"distance": 15, "rank": 71, "pace": 252000000000, "time": 3786.8}}, "weekday": "saturday", "livingplace": "Leysin"}, "sam. 16.03.2013": {"year": 2013, "day": 16, "month": 3, "categories": {"15-M40": {"distance": 15, "rank": 109, "pace": 258000000000, "time": 3882.5}}, "weekday": "saturday", "livingplace": "Leysin"}}, "location": "Kerzers"}, "Tour du Chablais #3 Collombey-Muraz": {"latitude": 46.1782231, "longitude": 7.0223787, "race": "Tour du Chablais #3 Collombey-Muraz", "date": {"mer. 25.04.2012": {"year": 2012, "day": 25, "month": 4, "categories": {"M-M40": {"distance": 9, "rank": 19, "pace": 238000000000, "time": 2145.1}}, "weekday": "wednesday", "livingplace": "Leysin"}}, "location": "Evionnaz"}, "Lucerne Marathon, Luzern": {"latitude": 47.05016819999999, "longitude": 8.3093072, "race": "Lucerne Marathon, Luzern", "date": {"dim. 28.10.2012": {"year": 2012, "day": 28, "month": 10, "categories": {"M-M40": {"distance": 42, "rank": 188, "pace": 317000000000, "time": 13399.8}}, "weekday": "sunday", "livingplace": "Leysin"}}, "location": "Luzern"}, "Tour du Chablais #1 Martigny": {"latitude": 46.2957462, "longitude": 6.9916269, "race": "Tour du Chablais #1 Martigny", "date": {"mer. 23.04.2014": {"year": 2014, "day": 23, "month": 4, "categories": {"M-M40": {"distance": 9, "rank": 18, "pace": 231000000000, "time": 1969.2}}, "weekday": "wednesday", "livingplace": "Leysin"}}, "location": "Ollon VD"}, "Tour du Chablais #4 St  Maurice": {"latitude": NaN, "longitude": NaN, "race": "Tour du Chablais #4 St  Maurice", "date": {"mer. 24.04.2013": {"year": 2013, "day": 24, "month": 4, "categories": {"M-M40": {"distance": 10, "rank": 15, "pace": 237000000000, "time": 2377.7}}, "weekday": "wednesday", "livingplace": "Leysin"}}, "location": "Les Mosses"}, "Tour du Chablais #3 Le Bouveret": {"latitude": 46.1782231, "longitude": 7.0223787, "race": "Tour du Chablais #3 Le Bouveret", "date": {"mer. 11.05.2011": {"year": 2011, "day": 11, "month": 5, "categories": {"M-M40": {"distance": 10, "rank": 20, "pace": 235000000000, "time": 2355.2}}, "weekday": "wednesday", "livingplace": "Leysin"}}, "location": "Evionnaz"}, "Tour du Chablais #1 Montreux": {"latitude": 46.2957462, "longitude": 6.9916269, "race": "Tour du Chablais #1 Montreux", "date": {"mer. 11.04.2012": {"year": 2012, "day": 11, "month": 4, "categories": {"M-M40": {"distance": 8, "rank": 25, "pace": 248000000000, "time": 1891.1}}, "weekday": "wednesday", "livingplace": "Leysin"}}, "location": "Ollon VD"}, "Tour du Chablais #6 Montreux": {"latitude": 46.3190253, "longitude": 6.970566, "race": "Tour du Chablais #6 Montreux", "date": {"mer. 16.05.2012": {"year": 2012, "day": 16, "month": 5, "categories": {"M-M40": {"distance": 9, "rank": 20, "pace": 232000000000, "time": 2152.8}}, "weekday": "wednesday", "livingplace": "Leysin"}}, "location": "Aigle"}, "Tour du Chablais #2 Bex": {"latitude": 46.3835529, "longitude": 6.854975199999999, "race": "Tour du Chablais #2 Bex", "date": {"mer. 18.04.2012": {"year": 2012, "day": 18, "month": 4, "categories": {"M-M40": {"distance": 8, "rank": 12, "pace": 237000000000, "time": 1901.9}}, "weekday": "wednesday", "livingplace": "Leysin"}}, "location": "Bouveret"}, "Tour du Chablais #3 Bouveret": {"latitude": 46.1782231, "longitude": 7.0223787, "race": "Tour du Chablais #3 Bouveret", "date": {"mer. 17.04.2013": {"year": 2013, "day": 17, "month": 4, "categories": {"M-M40": {"distance": 10, "rank": 27, "pace": 242000000000, "time": 2426.5}}, "weekday": "wednesday", "livingplace": "Leysin"}}, "location": "Evionnaz"}}, "birth": 1970}