{"name": "Forrer Paul", "sex": "M", "races": {"Pfingstlauf Wohlen AG": {"latitude": 47.3493653, "longitude": 8.2768762, "race": "Pfingstlauf Wohlen AG", "date": {"sam. 14.05.2005": {"year": 2005, "day": 14, "month": 5, "categories": {"M60": {"distance": 8, "rank": 5, "pace": 252000000000, "time": 2070.8}}, "weekday": "saturday", "livingplace": "Bassersdorf"}}, "location": "Wohlen AG"}, "ASICS Bremgarter Reusslauf": {"latitude": 47.34917739999999, "longitude": 8.3397905, "race": "ASICS Bremgarter Reusslauf", "date": {"sam. 17.02.2007": {"year": 2007, "day": 17, "month": 2, "categories": {"M60": {"distance": 11, "rank": 25, "pace": 269000000000, "time": 2825.9}}, "weekday": "saturday", "livingplace": "Bassersdorf"}}, "location": "Bremgarten AG"}, "Z\u00fcrcher Silvesterlauf, Z\u00fcrich": {"latitude": 47.3768866, "longitude": 8.541694, "race": "Z\u00fcrcher Silvesterlauf, Z\u00fcrich", "date": {"dim. 11.12.2011": {"year": 2011, "day": 11, "month": 12, "categories": {"8-MenAK4": {"distance": 9, "rank": 211, "pace": 384000000000, "time": 3304.0}}, "weekday": "sunday", "livingplace": "Bassersdorf"}}, "location": "Z\u00fcrich"}, "Hallwilerseelauf, Beinwil am See": {"latitude": NaN, "longitude": NaN, "race": "Hallwilerseelauf, Beinwil am See", "date": {"sam. 14.10.2006": {"year": 2006, "day": 14, "month": 10, "categories": {"53": {"distance": 21, "rank": 13, "pace": 282000000000, "time": 5951.6}}, "weekday": "saturday", "livingplace": "Bassersdorf"}}, "location": "Beinwil am See"}, "Winterthur Marathon": {"latitude": 39.8088766, "longitude": -75.6037351, "race": "Winterthur Marathon", "date": {"dim. 26.05.2002": {"year": 2002, "day": 26, "month": 5, "categories": {"HM60": {"distance": 21, "rank": 2, "pace": 270000000000, "time": 5674.0}}, "weekday": "sunday", "livingplace": "Seuzach"}}, "location": "Winterthur"}, "Int Greifenseelauf, Uster": {"latitude": 47.3482747, "longitude": 8.717873899999999, "race": "Int Greifenseelauf, Uster", "date": {"sam. 22.09.2007": {"year": 2007, "day": 22, "month": 9, "categories": {"H/M65": {"distance": 21, "rank": 11, "pace": 308000000000, "time": 6501.9}}, "weekday": "saturday", "livingplace": "Bassersdorf"}}, "location": "Uster"}}, "birth": 1941}