{"name": "Fournier Brigitte", "sex": "F", "races": {"Tour du Chablais #1 Roche": {"latitude": 46.2957462, "longitude": 6.9916269, "race": "Tour du Chablais #1 Roche", "date": {"mer. 07.04.2010": {"year": 2010, "day": 7, "month": 4, "categories": {"F-F50": {"distance": 9, "rank": 16, "pace": 325000000000, "time": 2913.7}}, "weekday": "wednesday", "livingplace": "Haute Nendaz"}}, "location": "Ollon VD"}, "Tour du Chablais #3 Bex": {"latitude": 46.1782231, "longitude": 7.0223787, "race": "Tour du Chablais #3 Bex", "date": {"mer. 21.04.2010": {"year": 2010, "day": 21, "month": 4, "categories": {"F-F50": {"distance": 10, "rank": 22, "pace": 349000000000, "time": 3490.7}}, "weekday": "wednesday", "livingplace": "Haute Nendaz"}}, "location": "Evionnaz"}, "Morat-Fribourg": {"latitude": 46.92922110000001, "longitude": 7.120184, "race": "Morat-Fribourg", "date": {"sam. 03.10.2009": {"year": 2009, "day": 3, "month": 10, "categories": {"C-W45": {"distance": 17, "rank": 181, "pace": 388000000000, "time": 6677.0}}, "weekday": "saturday", "livingplace": "Haute Nendaz"}, "sam. 04.10.2008": {"year": 2008, "day": 4, "month": 10, "categories": {"C-W45": {"distance": 17, "rank": 179, "pace": 373000000000, "time": 6413.9}}, "weekday": "saturday", "livingplace": "Haute Nendaz"}}, "location": "Murten"}, "Tour du Chablais #3 Le Bouveret": {"latitude": 46.1782231, "longitude": 7.0223787, "race": "Tour du Chablais #3 Le Bouveret", "date": {"mer. 11.05.2011": {"year": 2011, "day": 11, "month": 5, "categories": {"F-F50": {"distance": 10, "rank": 27, "pace": 361000000000, "time": 3618.7}}, "weekday": "wednesday", "livingplace": "Haute Nendaz"}}, "location": "Evionnaz"}, "Schweizer Frauenlauf Bern": {"latitude": 46.9479739, "longitude": 7.4474468, "race": "Schweizer Frauenlauf Bern", "date": {"dim. 10.06.2012": {"year": 2012, "day": 10, "month": 6, "categories": {"10-W50": {"distance": 10, "rank": 160, "pace": 339000000000, "time": 3390.1}}, "weekday": "sunday", "livingplace": "Sornard"}, "dim. 13.06.2010": {"year": 2010, "day": 13, "month": 6, "categories": {"10-W50": {"distance": 10, "rank": 154, "pace": 344000000000, "time": 3446.9}}, "weekday": "sunday", "livingplace": "Haute Nendaz"}}, "location": "Bern"}, "Tour du Chablais #1 Lavey": {"latitude": 46.2957462, "longitude": 6.9916269, "race": "Tour du Chablais #1 Lavey", "date": {"mer. 27.04.2011": {"year": 2011, "day": 27, "month": 4, "categories": {"F-F50": {"distance": 9, "rank": 21, "pace": 347000000000, "time": 3129.1}}, "weekday": "wednesday", "livingplace": "Haute Nendaz"}}, "location": "Ollon VD"}, "Aletsch-Halbmarathon, Bettmeralp": {"latitude": NaN, "longitude": NaN, "race": "Aletsch-Halbmarathon, Bettmeralp", "date": {"dim. 24.06.2012": {"year": 2012, "day": 24, "month": 6, "categories": {"F50": {"distance": 21, "rank": 43, "pace": 568000000000, "time": 12043.6}}, "weekday": "sunday", "livingplace": "Sornard"}}, "location": "Bettmeralp"}, "Tour du Chablais #4 Champ\u00e9ry": {"latitude": NaN, "longitude": NaN, "race": "Tour du Chablais #4 Champ\u00e9ry", "date": {"mer. 02.05.2012": {"year": 2012, "day": 2, "month": 5, "categories": {"F-F50": {"distance": 8, "rank": 15, "pace": 335000000000, "time": 2788.4}}, "weekday": "wednesday", "livingplace": "Haute Nendaz"}}, "location": "Les Mosses"}, "Tour du Chablais #5 Leysin": {"latitude": 46.3603257, "longitude": 6.931504599999999, "race": "Tour du Chablais #5 Leysin", "date": {"mer. 05.05.2010": {"year": 2010, "day": 5, "month": 5, "categories": {"F-F50": {"distance": 8, "rank": 14, "pace": 361000000000, "time": 3052.4}}, "weekday": "wednesday", "livingplace": "Haute Nendaz"}}, "location": "Roche VD"}, "Tour du Chablais #6 Mouthey": {"latitude": 46.3190253, "longitude": 6.970566, "race": "Tour du Chablais #6 Mouthey", "date": {"mer. 12.05.2010": {"year": 2010, "day": 12, "month": 5, "categories": {"F-F50": {"distance": 9, "rank": 17, "pace": 326000000000, "time": 3000.7}}, "weekday": "wednesday", "livingplace": "Haute Nendaz"}}, "location": "Aigle"}, "Tour du Chablais #2 St-Gingolph": {"latitude": 46.3835529, "longitude": 6.854975199999999, "race": "Tour du Chablais #2 St-Gingolph", "date": {"mer. 14.04.2010": {"year": 2010, "day": 14, "month": 4, "categories": {"F-F50": {"distance": 8, "rank": 13, "pace": 356000000000, "time": 2980.4}}, "weekday": "wednesday", "livingplace": "Haute Nendaz"}}, "location": "Bouveret"}, "Tour du Chablais #4 Yvorne": {"latitude": NaN, "longitude": NaN, "race": "Tour du Chablais #4 Yvorne", "date": {"mer. 28.04.2010": {"year": 2010, "day": 28, "month": 4, "categories": {"F-F50": {"distance": 8, "rank": 18, "pace": 362000000000, "time": 3000.9}}, "weekday": "wednesday", "livingplace": "Haute Nendaz"}}, "location": "Les Mosses"}, "Tour du Chablais #2 Bex": {"latitude": 46.3835529, "longitude": 6.854975199999999, "race": "Tour du Chablais #2 Bex", "date": {"mer. 18.04.2012": {"year": 2012, "day": 18, "month": 4, "categories": {"F-F50": {"distance": 8, "rank": 23, "pace": 343000000000, "time": 2745.5}}, "weekday": "wednesday", "livingplace": "Haute Nendaz"}}, "location": "Bouveret"}, "Tour du Chablais #6 Montreux": {"latitude": 46.3190253, "longitude": 6.970566, "race": "Tour du Chablais #6 Montreux", "date": {"mer. 16.05.2012": {"year": 2012, "day": 16, "month": 5, "categories": {"F-F50": {"distance": 9, "rank": 14, "pace": 321000000000, "time": 2969.3}}, "weekday": "wednesday", "livingplace": "Sornard"}}, "location": "Aigle"}}, "birth": 1960}