{"name": "Fournier Sarah", "sex": "F", "races": {"Tour du Chablais #1 Roche": {"latitude": 46.2957462, "longitude": 6.9916269, "race": "Tour du Chablais #1 Roche", "date": {"mer. 07.04.2010": {"year": 2010, "day": 7, "month": 4, "categories": {"F-F20": {"distance": 9, "rank": 15, "pace": 272000000000, "time": 2439.3}}, "weekday": "wednesday", "livingplace": "Martigny"}, "mer. 03.04.2013": {"year": 2013, "day": 3, "month": 4, "categories": {"F-F20": {"distance": 9, "rank": 31, "pace": 289000000000, "time": 2562.5}}, "weekday": "wednesday", "livingplace": "Martigny"}}, "location": "Ollon VD"}, "Morat-Fribourg": {"latitude": 46.92922110000001, "longitude": 7.120184, "race": "Morat-Fribourg", "date": {"sam. 03.10.2009": {"year": 2009, "day": 3, "month": 10, "categories": {"C-W35": {"distance": 17, "rank": 61, "pace": 318000000000, "time": 5467.3}}, "weekday": "saturday", "livingplace": "Martigny"}}, "location": "Murten"}, "Tour du Chablais #5 Morgins": {"latitude": 46.3603257, "longitude": 6.931504599999999, "race": "Tour du Chablais #5 Morgins", "date": {"mer. 01.05.2013": {"year": 2013, "day": 1, "month": 5, "categories": {"F-F20": {"distance": 8, "rank": 32, "pace": 311000000000, "time": 2370.4}}, "weekday": "wednesday", "livingplace": "Martigny"}}, "location": "Roche VD"}, "Tour du Chablais #1 Martigny": {"latitude": 46.2957462, "longitude": 6.9916269, "race": "Tour du Chablais #1 Martigny", "date": {"mer. 23.04.2014": {"year": 2014, "day": 23, "month": 4, "categories": {"F-F40": {"distance": 9, "rank": 13, "pace": 290000000000, "time": 2466.1}}, "weekday": "wednesday", "livingplace": "Martigny"}}, "location": "Ollon VD"}, "Tour du Chablais #4 Champ\u00e9ry": {"latitude": NaN, "longitude": NaN, "race": "Tour du Chablais #4 Champ\u00e9ry", "date": {"mer. 02.05.2012": {"year": 2012, "day": 2, "month": 5, "categories": {"F-F20": {"distance": 8, "rank": 33, "pace": 296000000000, "time": 2464.0}}, "weekday": "wednesday", "livingplace": "Martigny"}}, "location": "Les Mosses"}, "Tour du Chablais #1 Montreux": {"latitude": 46.2957462, "longitude": 6.9916269, "race": "Tour du Chablais #1 Montreux", "date": {"mer. 11.04.2012": {"year": 2012, "day": 11, "month": 4, "categories": {"F-F20": {"distance": 8, "rank": 23, "pace": 300000000000, "time": 2281.8}}, "weekday": "wednesday", "livingplace": "Martigny"}}, "location": "Ollon VD"}, "Tour du Chablais #6 Montreux": {"latitude": 46.3190253, "longitude": 6.970566, "race": "Tour du Chablais #6 Montreux", "date": {"mer. 16.05.2012": {"year": 2012, "day": 16, "month": 5, "categories": {"F-F20": {"distance": 9, "rank": 25, "pace": 287000000000, "time": 2655.7}}, "weekday": "wednesday", "livingplace": "Martigny"}}, "location": "Aigle"}, "Tour du Chablais #3 Collombey-Muraz": {"latitude": 46.1782231, "longitude": 7.0223787, "race": "Tour du Chablais #3 Collombey-Muraz", "date": {"mer. 25.04.2012": {"year": 2012, "day": 25, "month": 4, "categories": {"F-F20": {"distance": 9, "rank": 31, "pace": 292000000000, "time": 2631.0}}, "weekday": "wednesday", "livingplace": "Martigny"}}, "location": "Evionnaz"}, "Tour du Chablais #6 Aigle": {"latitude": 46.3190253, "longitude": 6.970566, "race": "Tour du Chablais #6 Aigle", "date": {"mer. 01.06.2011": {"year": 2011, "day": 1, "month": 6, "categories": {"F-F20": {"distance": 10, "rank": 28, "pace": 277000000000, "time": 2828.8}}, "weekday": "wednesday", "livingplace": "Martigny"}}, "location": "Aigle"}, "Tour du Chablais #4 St  Maurice": {"latitude": NaN, "longitude": NaN, "race": "Tour du Chablais #4 St  Maurice", "date": {"mer. 24.04.2013": {"year": 2013, "day": 24, "month": 4, "categories": {"F-F20": {"distance": 10, "rank": 29, "pace": 300000000000, "time": 3005.7}}, "weekday": "wednesday", "livingplace": "Martigny"}}, "location": "Les Mosses"}, "Tour du Chablais #2 Bex": {"latitude": 46.3835529, "longitude": 6.854975199999999, "race": "Tour du Chablais #2 Bex", "date": {"mer. 18.04.2012": {"year": 2012, "day": 18, "month": 4, "categories": {"F-F20": {"distance": 8, "rank": 26, "pace": 292000000000, "time": 2341.0}}, "weekday": "wednesday", "livingplace": "Martigny"}}, "location": "Bouveret"}, "Tour du Chablais #3 Bouveret": {"latitude": 46.1782231, "longitude": 7.0223787, "race": "Tour du Chablais #3 Bouveret", "date": {"mer. 17.04.2013": {"year": 2013, "day": 17, "month": 4, "categories": {"F-F20": {"distance": 10, "rank": 40, "pace": 304000000000, "time": 3041.2}}, "weekday": "wednesday", "livingplace": "Martigny"}}, "location": "Evionnaz"}}, "birth": 1974}