{"name": "Fournier P\u00e9lagie", "sex": "F", "races": {"Tour du Chablais #1 Roche": {"latitude": 46.2957462, "longitude": 6.9916269, "race": "Tour du Chablais #1 Roche", "date": {"mer. 03.04.2013": {"year": 2013, "day": 3, "month": 4, "categories": {"F-F20": {"distance": 9, "rank": 39, "pace": 294000000000, "time": 2611.3}}, "weekday": "wednesday", "livingplace": "Haute Nendaz"}}, "location": "Ollon VD"}, "Morat-Fribourg": {"latitude": 46.92922110000001, "longitude": 7.120184, "race": "Morat-Fribourg", "date": {"sam. 05.10.2013": {"year": 2013, "day": 5, "month": 10, "categories": {"17-W35": {"distance": 17, "rank": 178, "pace": 343000000000, "time": 5991.9}}, "weekday": "saturday", "livingplace": "Haute Nendaz"}}, "location": "Murten"}, "Schweizer Frauenlauf Bern": {"latitude": 46.9479739, "longitude": 7.4474468, "race": "Schweizer Frauenlauf Bern", "date": {"dim. 09.06.2013": {"year": 2013, "day": 9, "month": 6, "categories": {"10-W35": {"distance": 10, "rank": 40, "pace": 287000000000, "time": 2872.1}}, "weekday": "sunday", "livingplace": "Haute Nendaz"}}, "location": "Bern"}, "20km de Lausanne": {"latitude": 46.5196535, "longitude": 6.6322734, "race": "20km de Lausanne", "date": {"sam. 27.04.2013": {"year": 2013, "day": 27, "month": 4, "categories": {"10-F30": {"distance": 10, "rank": 74, "pace": 298000000000, "time": 2984.5}}, "weekday": "saturday", "livingplace": "CA Vetroz"}}, "location": "Lausanne"}, "Tour du Chablais #5 Morgins": {"latitude": 46.3603257, "longitude": 6.931504599999999, "race": "Tour du Chablais #5 Morgins", "date": {"mer. 01.05.2013": {"year": 2013, "day": 1, "month": 5, "categories": {"F-F20": {"distance": 8, "rank": 24, "pace": 304000000000, "time": 2310.9}}, "weekday": "wednesday", "livingplace": "Haute Nendaz"}}, "location": "Roche VD"}, "Tour du Chablais #3 Bouveret": {"latitude": 46.1782231, "longitude": 7.0223787, "race": "Tour du Chablais #3 Bouveret", "date": {"mer. 17.04.2013": {"year": 2013, "day": 17, "month": 4, "categories": {"F-F20": {"distance": 10, "rank": 35, "pace": 298000000000, "time": 2985.8}}, "weekday": "wednesday", "livingplace": "Haute Nendaz"}}, "location": "Evionnaz"}}, "birth": 1978}