{"name": "Frank Markus", "sex": "M", "races": {"Schlosslauf Rapperswil-Jona": {"latitude": 47.2266239, "longitude": 8.818437399999999, "race": "Schlosslauf Rapperswil-Jona", "date": {"dim. 09.10.2011": {"year": 2011, "day": 9, "month": 10, "categories": {"9-M2": {"distance": 9, "rank": 11, "pace": 226000000000, "time": 2041.7}}, "weekday": "sunday", "livingplace": "Grabs"}}, "location": "Rapperswil SG"}, "Liestaler Stadtlauf": {"latitude": 47.4866143, "longitude": 7.7334272, "race": "Liestaler Stadtlauf", "date": {"mer. 26.08.2009": {"year": 2009, "day": 26, "month": 8, "categories": {"M30": {"distance": 12, "rank": 4, "pace": 249000000000, "time": 2989.5}}, "weekday": "wednesday", "livingplace": "Ch"}}, "location": "Liestal"}, "Z\u00fcrcher Silvesterlauf, Z\u00fcrich": {"latitude": 47.3768866, "longitude": 8.541694, "race": "Z\u00fcrcher Silvesterlauf, Z\u00fcrich", "date": {"dim. 12.12.2010": {"year": 2010, "day": 12, "month": 12, "categories": {"8-MenAK1": {"distance": 9, "rank": 56, "pace": 232000000000, "time": 1995.7}}, "weekday": "sunday", "livingplace": "Grabs"}}, "location": "Z\u00fcrich"}, "Int Greifenseelauf, Uster": {"latitude": 47.3482747, "longitude": 8.717873899999999, "race": "Int Greifenseelauf, Uster", "date": {"sam. 20.09.2008": {"year": 2008, "day": 20, "month": 9, "categories": {"H-M30": {"distance": 21, "rank": 36, "pace": 242000000000, "time": 5109.0}}, "weekday": "saturday", "livingplace": "Grabs"}}, "location": "Uster"}, "Gempenlauf, Dornach": {"latitude": 47.4790491, "longitude": 7.6170412, "race": "Gempenlauf, Dornach", "date": {"mer. 02.06.2010": {"year": 2010, "day": 2, "month": 6, "categories": {"M35": {"distance": 8, "rank": 24, "pace": 299000000000, "time": 2336.7}}, "weekday": "wednesday", "livingplace": "Liestal"}}, "location": "Dornach"}, "Altst\u00e4tter St\u00e4dtlilauf": {"latitude": NaN, "longitude": NaN, "race": "Altst\u00e4tter St\u00e4dtlilauf", "date": {"sam. 12.09.2009": {"year": 2009, "day": 12, "month": 9, "categories": {"S1M": {"distance": 9, "rank": 7, "pace": 231000000000, "time": 2061.2}}, "weekday": "saturday", "livingplace": "Grabs"}}, "location": "Altst\u00e4tten SG"}, "Sihltaler Fr\u00fchlingslauf, Gattikon": {"latitude": 47.2949282, "longitude": 8.5644799, "race": "Sihltaler Fr\u00fchlingslauf, Gattikon", "date": {"jeu. 01.05.2014": {"year": 2014, "day": 1, "month": 5, "categories": {"10-M40": {"distance": 10, "rank": 11, "pace": 229000000000, "time": 2295.2}}, "weekday": "thursday", "livingplace": "Grabs"}}, "location": "Gattikon"}, "Basler Marathon-Tage": {"latitude": 47.5595986, "longitude": 7.5885761, "race": "Basler Marathon-Tage", "date": {"sam. 30.10.2004": {"year": 2004, "day": 30, "month": 10, "categories": {"M-HM/M30": {"distance": 21, "rank": 23, "pace": 240000000000, "time": 5075.9}}, "weekday": "saturday", "livingplace": "Buchs"}}, "location": "Basel"}}, "birth": 1974}