{"name": "Francis Francis", "sex": "M", "races": {"Montreux - Les Rochers de Naye": {"latitude": 46.4312213, "longitude": 6.9106799, "race": "Montreux - Les Rochers de Naye", "date": {"dim. 05.07.2015": {"year": 2015, "day": 5, "month": 7, "categories": {"M-HV\u00e9t1": {"distance": 19, "rank": 99, "pace": 541000000000, "time": 10179.8}}, "weekday": "sunday", "livingplace": "Gingins"}}, "location": "Montreux"}, "Morat-Fribourg": {"latitude": 46.92922110000001, "longitude": 7.120184, "race": "Morat-Fribourg", "date": {"sam. 05.10.2013": {"year": 2013, "day": 5, "month": 10, "categories": {"17-M45": {"distance": 17, "rank": 228, "pace": 289000000000, "time": 5043.4}}, "weekday": "saturday", "livingplace": "Vernier"}, "sam. 01.10.2011": {"year": 2011, "day": 1, "month": 10, "categories": {"17-M40": {"distance": 17, "rank": 419, "pace": 313000000000, "time": 5379.4}}, "weekday": "saturday", "livingplace": "Gingins"}, "sam. 03.10.2015": {"year": 2015, "day": 3, "month": 10, "categories": {"17-M45": {"distance": 17, "rank": 295, "pace": 312000000000, "time": 5369.9}}, "weekday": "saturday", "livingplace": "Vernier"}}, "location": "Murten"}, "Semi-Marathon de la C\u00f4te, Allaman-Nyon": {"latitude": 46.3832683, "longitude": 6.2347852, "race": "Semi-Marathon de la C\u00f4te, Allaman-Nyon", "date": {"dim. 14.09.2014": {"year": 2014, "day": 14, "month": 9, "categories": {"21-H45": {"distance": 21, "rank": 58, "pace": 293000000000, "time": 6186.2}}, "weekday": "sunday", "livingplace": "Gingins"}}, "location": "Nyon"}, "Lausanne Marathon": {"latitude": 46.5196535, "longitude": 6.6322734, "race": "Lausanne Marathon", "date": {"dim. 31.10.2010": {"year": 2010, "day": 31, "month": 10, "categories": {"21-H3": {"distance": 21, "rank": 426, "pace": 302000000000, "time": 6384.6}}, "weekday": "sunday", "livingplace": "Gingins"}, "dim. 30.10.2011": {"year": 2011, "day": 30, "month": 10, "categories": {"21-H3": {"distance": 21, "rank": 422, "pace": 300000000000, "time": 6337.6}}, "weekday": "sunday", "livingplace": "Gingins"}}, "location": "Lausanne"}, "Course de l'Escalade, Gen\u00e8ve": {"latitude": 46.2043907, "longitude": 6.1431577, "race": "Course de l'Escalade, Gen\u00e8ve", "date": {"sam. 01.12.2007": {"year": 2007, "day": 1, "month": 12, "categories": {"DucH2": {"distance": 18, "rank": 804, "pace": 310000000000, "time": 5644.6}}, "weekday": "saturday", "livingplace": "Firmenich"}, "sam. 02.12.2006": {"year": 2006, "day": 2, "month": 12, "categories": {"Hommes2": {"distance": 7, "rank": 1085, "pace": 294000000000, "time": 2133.4}}, "weekday": "saturday", "livingplace": "Firmenich Sa"}}, "location": "Gen\u00e8ve"}, "20km de Lausanne": {"latitude": 46.5196535, "longitude": 6.6322734, "race": "20km de Lausanne", "date": {"sam. 26.04.2014": {"year": 2014, "day": 26, "month": 4, "categories": {"20-H45": {"distance": 20, "rank": 148, "pace": 289000000000, "time": 5794.7}}, "weekday": "saturday", "livingplace": "Vernier"}}, "location": "Lausanne"}}, "birth": 1968}