{"name": "Frei Yoann", "sex": "M", "races": {"Lausanne Marathon": {"latitude": 46.5196535, "longitude": 6.6322734, "race": "Lausanne Marathon", "date": {"sam. 24.10.2015": {"year": 2015, "day": 24, "month": 10, "categories": {"10-H30": {"distance": 10, "rank": 234, "pace": 265000000000, "time": 2650.3}}, "weekday": "saturday", "livingplace": "Tolochenaz"}}, "location": "Lausanne"}, "Course de l'Escalade, Gen\u00e8ve": {"latitude": 46.2043907, "longitude": 6.1431577, "race": "Course de l'Escalade, Gen\u00e8ve", "date": {"sam. 06.12.2014": {"year": 2014, "day": 6, "month": 12, "categories": {"Esc-Hom1": {"distance": 7, "rank": 1053, "pace": 305000000000, "time": 2238.0}}, "weekday": "saturday", "livingplace": "Tolochenaz"}}, "location": "Gen\u00e8ve"}, "Les Traine-Savates, Cheseaux-sur-Lausanne": {"latitude": 46.585452, "longitude": 6.6047712, "race": "Les Traine-Savates, Cheseaux-sur-Lausanne", "date": {"sam. 18.04.2015": {"year": 2015, "day": 18, "month": 4, "categories": {"10-M20": {"distance": 10, "rank": 151, "pace": 278000000000, "time": 2870.4}}, "weekday": "saturday", "livingplace": "Tolochenaz"}}, "location": "Cheseaux-sur-Lausanne"}, "Montreux - Les Rochers de Naye": {"latitude": 46.4312213, "longitude": 6.9106799, "race": "Montreux - Les Rochers de Naye", "date": {"dim. 05.07.2015": {"year": 2015, "day": 5, "month": 7, "categories": {"C-HElite": {"distance": 10, "rank": 19, "pace": 458000000000, "time": 4352.8}}, "weekday": "sunday", "livingplace": "Tolochenaz"}}, "location": "Montreux"}, "Morat-Fribourg": {"latitude": 46.92922110000001, "longitude": 7.120184, "race": "Morat-Fribourg", "date": {"sam. 03.10.2015": {"year": 2015, "day": 3, "month": 10, "categories": {"17-M20": {"distance": 17, "rank": 1146, "pace": 309000000000, "time": 5307.4}}, "weekday": "saturday", "livingplace": "Tolochenaz"}}, "location": "Murten"}, "20km de Lausanne": {"latitude": 46.5196535, "longitude": 6.6322734, "race": "20km de Lausanne", "date": {"sam. 25.04.2015": {"year": 2015, "day": 25, "month": 4, "categories": {"10-H30": {"distance": 10, "rank": 232, "pace": 276000000000, "time": 2763.2}}, "weekday": "saturday", "livingplace": "Tolochenaz"}}, "location": "Lausanne"}, "Noviodurun, Nyon": {"latitude": 46.3832683, "longitude": 6.2347852, "race": "Noviodurun, Nyon", "date": {"sam. 01.11.2014": {"year": 2014, "day": 1, "month": 11, "categories": {"Hom1": {"distance": 6, "rank": 20, "pace": 277000000000, "time": 1795.8}}, "weekday": "saturday", "livingplace": "Tolochenaz"}}, "location": "Nyon"}, "Winterthur Marathon": {"latitude": 39.8088766, "longitude": -75.6037351, "race": "Winterthur Marathon", "date": {"dim. 31.05.2015": {"year": 2015, "day": 31, "month": 5, "categories": {"10-M30": {"distance": 10, "rank": 27, "pace": 269000000000, "time": 2697.9}}, "weekday": "sunday", "livingplace": "Tolochenaz"}}, "location": "Winterthur"}}, "birth": 1985}