{"name": "Fr\u00e9sard Christophe", "sex": "M", "races": {"BCN Tour La Chaux-de-fonds": {"latitude": 47.1034892, "longitude": 6.832783800000001, "race": "BCN Tour La Chaux-de-fonds", "date": {"mer. 12.05.2010": {"year": 2010, "day": 12, "month": 5, "categories": {"HS1": {"distance": 11, "rank": 12, "pace": 282000000000, "time": 3025.6}}, "weekday": "wednesday", "livingplace": "Muriaux"}}, "location": "La Chaux-de-Fonds"}, "BCN Tour Le Locle": {"latitude": 46.999113, "longitude": 6.733554799999999, "race": "BCN Tour Le Locle", "date": {"mer. 05.05.2010": {"year": 2010, "day": 5, "month": 5, "categories": {"HS1": {"distance": 11, "rank": 10, "pace": 228000000000, "time": 2491.3}}, "weekday": "wednesday", "livingplace": "Muriaux"}}, "location": "Les Ponts-de-Martel"}, "BCN Tour M\u00f4tier": {"latitude": 46.9262933, "longitude": 6.6324944, "race": "BCN Tour M\u00f4tier", "date": {"mer. 19.05.2010": {"year": 2010, "day": 19, "month": 5, "categories": {"HS1": {"distance": 10, "rank": 146, "pace": 297000000000, "time": 2942.9}}, "weekday": "wednesday", "livingplace": "Muriaux"}}, "location": "Couvet"}, "BCN Tour Colombier": {"latitude": 46.9668714, "longitude": 6.8589727, "race": "BCN Tour Colombier", "date": {"mer. 21.04.2010": {"year": 2010, "day": 21, "month": 4, "categories": {"HS1": {"distance": 10, "rank": 10, "pace": 255000000000, "time": 2554.7}}, "weekday": "wednesday", "livingplace": "Muriaux"}}, "location": "Colombier NE"}, "BCN Tour Neuch\u00e2tel": {"latitude": 46.9899874, "longitude": 6.9292732, "race": "BCN Tour Neuch\u00e2tel", "date": {"mer. 26.05.2010": {"year": 2010, "day": 26, "month": 5, "categories": {"HS1": {"distance": 10, "rank": 168, "pace": 365000000000, "time": 3545.8}}, "weekday": "wednesday", "livingplace": "Muriaux"}}, "location": "Neuch\u00e2tel"}}, "birth": 1971}