{"name": "Fricker Thomas", "sex": "M", "races": {"Morat-Fribourg": {"latitude": 46.92922110000001, "longitude": 7.120184, "race": "Morat-Fribourg", "date": {"sam. 04.10.2008": {"year": 2008, "day": 4, "month": 10, "categories": {"C-M40": {"distance": 17, "rank": 55, "pace": 245000000000, "time": 4213.9}}, "weekday": "saturday", "livingplace": "Zunzgen"}}, "location": "Murten"}, "Bieler Lauftage, Biel Bienne": {"latitude": 47.1367785, "longitude": 7.2467909, "race": "Bieler Lauftage, Biel Bienne", "date": {"jeu. 11.06.2015": {"year": 2015, "day": 11, "month": 6, "categories": {"TS2-M45": {"distance": 56, "rank": 4, "pace": 338000000000, "time": 18957.8}}, "weekday": "thursday", "livingplace": "Seltisberg"}}, "location": "Biel/Bienne"}, "Basler Stadtlauf": {"latitude": 47.5595986, "longitude": 7.5885761, "race": "Basler Stadtlauf", "date": {"sam. 24.11.2007": {"year": 2007, "day": 24, "month": 11, "categories": {"M": {"distance": 6, "rank": 57, "pace": 236000000000, "time": 1301.4}}, "weekday": "saturday", "livingplace": "Zunzgen"}, "sam. 26.11.2005": {"year": 2005, "day": 26, "month": 11, "categories": {"M": {"distance": 6, "rank": 70, "pace": 238000000000, "time": 1310.6}}, "weekday": "saturday", "livingplace": "Zunzgen"}}, "location": "Basel"}, "Les Traine-Savates, Cheseaux-sur-Lausanne": {"latitude": 46.585452, "longitude": 6.6047712, "race": "Les Traine-Savates, Cheseaux-sur-Lausanne", "date": {"sam. 12.04.2008": {"year": 2008, "day": 12, "month": 4, "categories": {"MV1": {"distance": 10, "rank": 33, "pace": 237000000000, "time": 2473.9}}, "weekday": "saturday", "livingplace": "Zunzgen"}}, "location": "Cheseaux-sur-Lausanne"}, "Gempenlauf, Dornach": {"latitude": 47.4790491, "longitude": 7.6170412, "race": "Gempenlauf, Dornach", "date": {"mer. 04.06.2008": {"year": 2008, "day": 4, "month": 6, "categories": {"M40": {"distance": 8, "rank": 16, "pace": 289000000000, "time": 2255.1}}, "weekday": "wednesday", "livingplace": "Berg"}}, "location": "Dornach"}, "Course p\u00e9destre Thyon-Dixence, Thyon": {"latitude": NaN, "longitude": NaN, "race": "Course p\u00e9destre Thyon-Dixence, Thyon", "date": {"dim. 03.08.2008": {"year": 2008, "day": 3, "month": 8, "categories": {"V1": {"distance": 16, "rank": 39, "pace": 405000000000, "time": 6632.1}}, "weekday": "sunday", "livingplace": "Zunzgen"}}, "location": "Thyon-Les Collons"}}, "birth": 1968}