{"name": "Friche Pascal", "sex": "M", "races": {"BCN Tour Le Landeron": {"latitude": 46.9668714, "longitude": 6.8589727, "race": "BCN Tour Le Landeron", "date": {"mer. 22.04.2009": {"year": 2009, "day": 22, "month": 4, "categories": {"HS2": {"distance": 11, "rank": 258, "pace": 387000000000, "time": 4300.2}}, "weekday": "wednesday", "livingplace": "Le Landeron"}}, "location": "Colombier NE"}, "BCN Tour Ponts-de-Martel": {"latitude": 47.0624261, "longitude": 6.9175754, "race": "BCN Tour Ponts-de-Martel", "date": {"mer. 28.04.2010": {"year": 2010, "day": 28, "month": 4, "categories": {"HS2": {"distance": 11, "rank": 296, "pace": 407000000000, "time": 4566.7}}, "weekday": "wednesday", "livingplace": "Le Landeron"}}, "location": "Ch\u00e9zard-St-Martin"}, "BCN Tour M\u00f4tier": {"latitude": 46.9262933, "longitude": 6.6324944, "race": "BCN Tour M\u00f4tier", "date": {"mer. 19.05.2010": {"year": 2010, "day": 19, "month": 5, "categories": {"HS2": {"distance": 10, "rank": 272, "pace": 367000000000, "time": 3637.2}}, "weekday": "wednesday", "livingplace": "Le Landeron"}}, "location": "Couvet"}, "BCN Tour Boudry": {"latitude": 46.9668714, "longitude": 6.8589727, "race": "BCN Tour Boudry", "date": {"mer. 26.04.2006": {"year": 2006, "day": 26, "month": 4, "categories": {"HS2": {"distance": 10, "rank": 254, "pace": 402000000000, "time": 4103.3}}, "weekday": "wednesday", "livingplace": "Le Landeron"}}, "location": "Colombier NE"}, "BCN Tour Neuch\u00e2tel": {"latitude": 46.9899874, "longitude": 6.9292732, "race": "BCN Tour Neuch\u00e2tel", "date": {"mer. 26.05.2010": {"year": 2010, "day": 26, "month": 5, "categories": {"HS2": {"distance": 10, "rank": 342, "pace": 533000000000, "time": 5175.7}}, "weekday": "wednesday", "livingplace": "Le Landeron"}, "mer. 30.05.2012": {"year": 2012, "day": 30, "month": 5, "categories": {"HS2": {"distance": 11, "rank": 325, "pace": 418000000000, "time": 4681.7}}, "weekday": "wednesday", "livingplace": "Le Landeron"}}, "location": "Neuch\u00e2tel"}, "BCN Tour La Chaux-de-fonds": {"latitude": 47.1034892, "longitude": 6.832783800000001, "race": "BCN Tour La Chaux-de-fonds", "date": {"mer. 12.05.2010": {"year": 2010, "day": 12, "month": 5, "categories": {"HS2": {"distance": 11, "rank": 297, "pace": 531000000000, "time": 5684.3}}, "weekday": "wednesday", "livingplace": "Le Landeron"}}, "location": "La Chaux-de-Fonds"}, "BCN Tour Colombier": {"latitude": 46.9668714, "longitude": 6.8589727, "race": "BCN Tour Colombier", "date": {"mer. 23.04.2008": {"year": 2008, "day": 23, "month": 4, "categories": {"HS2": {"distance": 10, "rank": 252, "pace": 404000000000, "time": 4129.9}}, "weekday": "wednesday", "livingplace": "Le Landeron"}, "mer. 21.04.2010": {"year": 2010, "day": 21, "month": 4, "categories": {"HS2": {"distance": 10, "rank": 243, "pace": 373000000000, "time": 3737.2}}, "weekday": "wednesday", "livingplace": "Le Landeron"}}, "location": "Colombier NE"}, "BCN Tour Le Locle": {"latitude": 46.999113, "longitude": 6.733554799999999, "race": "BCN Tour Le Locle", "date": {"mer. 05.05.2010": {"year": 2010, "day": 5, "month": 5, "categories": {"HS2": {"distance": 11, "rank": 254, "pace": 382000000000, "time": 4169.6}}, "weekday": "wednesday", "livingplace": "Le Landeron"}}, "location": "Les Ponts-de-Martel"}}, "birth": 1965}