{"name": "Froidevaux Maya", "sex": "F", "races": {"Tour du Pays de Vaud etape 5 - La Sarraz": {"latitude": 46.5993131, "longitude": 6.539251200000001, "race": "Tour du Pays de Vaud etape 5 - La Sarraz", "date": {"mer. 10.09.2008": {"year": 2008, "day": 10, "month": 9, "categories": {"Dam": {"distance": 9, "rank": 6, "pace": 291000000000, "time": 2506.0}}, "weekday": "wednesday", "livingplace": "Lausanne"}}, "location": "Penthaz"}, "Morat-Fribourg": {"latitude": 46.92922110000001, "longitude": 7.120184, "race": "Morat-Fribourg", "date": {"sam. 04.10.2008": {"year": 2008, "day": 4, "month": 10, "categories": {"C-W20": {"distance": 17, "rank": 91, "pace": 310000000000, "time": 5334.6}}, "weekday": "saturday", "livingplace": "Lausanne"}, "sam. 06.10.2007": {"year": 2007, "day": 6, "month": 10, "categories": {"C/W20": {"distance": 17, "rank": 102, "pace": 316000000000, "time": 5440.9}}, "weekday": "saturday", "livingplace": "Lausanne"}}, "location": "Murten"}, "Tour du Pays de Vaud etape 2 - Genolier": {"latitude": 46.5955273, "longitude": 6.7702883, "race": "Tour du Pays de Vaud etape 2 - Genolier", "date": {"mer. 20.08.2008": {"year": 2008, "day": 20, "month": 8, "categories": {"Dam": {"distance": 8, "rank": 6, "pace": 293000000000, "time": 2432.6}}, "weekday": "wednesday", "livingplace": "Lausanne"}}, "location": "M\u00e9zi\u00e8res VD"}, "Tour du Pays de Vaud etape 3 - Aubonne": {"latitude": 46.7829756, "longitude": 6.5728678, "race": "Tour du Pays de Vaud etape 3 - Aubonne", "date": {"mer. 27.08.2008": {"year": 2008, "day": 27, "month": 8, "categories": {"Dam": {"distance": 8, "rank": 6, "pace": 320000000000, "time": 2498.8}}, "weekday": "wednesday", "livingplace": "Lausanne"}}, "location": "Champvent"}, "Tour du Pays de Vaud etape 1 - Le Mont sur Lausanne": {"latitude": 46.7784736, "longitude": 6.641183, "race": "Tour du Pays de Vaud etape 1 - Le Mont sur Lausanne", "date": {"mer. 13.08.2008": {"year": 2008, "day": 13, "month": 8, "categories": {"Dam": {"distance": 8, "rank": 7, "pace": 293000000000, "time": 2463.3}}, "weekday": "wednesday", "livingplace": "Lausanne"}}, "location": "Yverdon-les-Bains"}, "20km de Lausanne": {"latitude": 46.5196535, "longitude": 6.6322734, "race": "20km de Lausanne", "date": {"sam. 24.04.2010": {"year": 2010, "day": 24, "month": 4, "categories": {"20-F20": {"distance": 20, "rank": 19, "pace": 298000000000, "time": 5967.4}}, "weekday": "saturday", "livingplace": "Lausanne"}, "sam. 25.04.2009": {"year": 2009, "day": 25, "month": 4, "categories": {"20-F20": {"distance": 20, "rank": 24, "pace": 298000000000, "time": 5977.5}}, "weekday": "saturday", "livingplace": "Lausanne"}, "sam. 22.04.2006": {"year": 2006, "day": 22, "month": 4, "categories": {"10/F20": {"distance": 10, "rank": 35, "pace": 302000000000, "time": 3027.7}}, "weekday": "saturday", "livingplace": "Lausanne"}}, "location": "Lausanne"}, "Les Traine-Savates, Cheseaux-sur-Lausanne": {"latitude": 46.585452, "longitude": 6.6047712, "race": "Les Traine-Savates, Cheseaux-sur-Lausanne", "date": {"sam. 04.04.2009": {"year": 2009, "day": 4, "month": 4, "categories": {"DamSen": {"distance": 10, "rank": 23, "pace": 290000000000, "time": 3024.2}}, "weekday": "saturday", "livingplace": "Lausanne"}}, "location": "Cheseaux-sur-Lausanne"}}, "birth": 1982}