{"name": "Froidevaux Pierre-Andr\u00e9", "sex": "M", "races": {"10km Schweizer Meisterschaften Lyss": {"latitude": 47.0746504, "longitude": 7.3077022, "race": "10km Schweizer Meisterschaften Lyss", "date": {"sam. 02.04.2011": {"year": 2011, "day": 2, "month": 4, "categories": {"10-M60": {"distance": 10, "rank": 13, "pace": 294000000000, "time": 2947.0}}, "weekday": "saturday", "livingplace": "Sonceboz Sombeval"}}, "location": "Lyss"}, "Lenzburger Lauf": {"latitude": 47.3904443, "longitude": 8.172154500000001, "race": "Lenzburger Lauf", "date": {"sam. 24.05.2014": {"year": 2014, "day": 24, "month": 5, "categories": {"11-M60": {"distance": 12, "rank": 6, "pace": 308000000000, "time": 3578.2}}, "weekday": "saturday", "livingplace": "Cross Club Nidau"}}, "location": "Lenzburg"}, "La Trotteuse-Tissot, La Chaux-de-Fonds": {"latitude": 47.1034892, "longitude": 6.832783800000001, "race": "La Trotteuse-Tissot, La Chaux-de-Fonds", "date": {"sam. 18.12.2010": {"year": 2010, "day": 18, "month": 12, "categories": {"GC-H60": {"distance": 8, "rank": 14, "pace": 320000000000, "time": 2560.2}}, "weekday": "saturday", "livingplace": "Camicase speed"}, "sam. 17.12.2011": {"year": 2011, "day": 17, "month": 12, "categories": {"GC-H60": {"distance": 8, "rank": 25, "pace": 341000000000, "time": 2735.1}}, "weekday": "saturday", "livingplace": "Sonceboz Sombeval"}, "sam. 14.12.2013": {"year": 2013, "day": 14, "month": 12, "categories": {"GC-H60": {"distance": 8, "rank": 14, "pace": 302000000000, "time": 2418.0}}, "weekday": "saturday", "livingplace": "Sonceboz Sombeval"}}, "location": "La Chaux-de-Fonds"}, "Bieler Lauftage, Biel Bienne": {"latitude": 47.1367785, "longitude": 7.2467909, "race": "Bieler Lauftage, Biel Bienne", "date": {"ven. 15.06.2007": {"year": 2007, "day": 15, "month": 6, "categories": {"B/M60": {"distance": 15, "rank": 3, "pace": 278000000000, "time": 4036.9}}, "weekday": "friday", "livingplace": "Sonceboz Sombeval"}}, "location": "Biel/Bienne"}, "Int Greifenseelauf, Uster": {"latitude": 47.3482747, "longitude": 8.717873899999999, "race": "Int Greifenseelauf, Uster", "date": {"sam. 22.09.2007": {"year": 2007, "day": 22, "month": 9, "categories": {"K/M60": {"distance": 10, "rank": 2, "pace": 272000000000, "time": 2721.3}}, "weekday": "saturday", "livingplace": "Sonceboz Sombeval"}}, "location": "Uster"}}, "birth": 1947}