{"name": "Fuchsmann Thierry", "sex": "M", "races": {"Tour du Pays de Vaud printanier #2 Yverdon-les-Bains": {"latitude": 46.6698891, "longitude": 6.7975224, "race": "Tour du Pays de Vaud printanier #2 Yverdon-les-Bains", "date": {"mer. 05.06.2013": {"year": 2013, "day": 5, "month": 6, "categories": {"H-Sen1": {"distance": 9, "rank": 24, "pace": 265000000000, "time": 2413.2}}, "weekday": "wednesday", "livingplace": "Grancy"}}, "location": "Moudon"}, "Glacier 3000 Run, Gstaad": {"latitude": 46.4717588, "longitude": 7.2865728, "race": "Glacier 3000 Run, Gstaad", "date": {"sam. 06.08.2011": {"year": 2011, "day": 6, "month": 8, "categories": {"M30": {"distance": 26, "rank": 86, "pace": 589000000000, "time": 15315.3}}, "weekday": "saturday", "livingplace": "Grancy"}}, "location": "Gstaad"}, "Tour du Pays de Vaud printanier #2 Yens": {"latitude": 46.6698891, "longitude": 6.7975224, "race": "Tour du Pays de Vaud printanier #2 Yens", "date": {"mer. 06.06.2012": {"year": 2012, "day": 6, "month": 6, "categories": {"H-Sen1": {"distance": 9, "rank": 9, "pace": 246000000000, "time": 2245.4}}, "weekday": "wednesday", "livingplace": "Grancy"}}, "location": "Moudon"}, "Tour du Pays de Vaud printanier #1 Chavornay": {"latitude": 46.3832683, "longitude": 6.2347852, "race": "Tour du Pays de Vaud printanier #1 Chavornay", "date": {"mer. 30.05.2012": {"year": 2012, "day": 30, "month": 5, "categories": {"H-Sen1": {"distance": 9, "rank": 11, "pace": 252000000000, "time": 2256.7}}, "weekday": "wednesday", "livingplace": "Grancy"}}, "location": "Nyon"}, "Tour du Pays de Vaud printanier #1 Moudon": {"latitude": 46.3832683, "longitude": 6.2347852, "race": "Tour du Pays de Vaud printanier #1 Moudon", "date": {"mer. 29.05.2013": {"year": 2013, "day": 29, "month": 5, "categories": {"H-Sen1": {"distance": 8, "rank": 20, "pace": 257000000000, "time": 2200.3}}, "weekday": "wednesday", "livingplace": "Grancy"}}, "location": "Nyon"}, "Montreux - Les Rochers de Naye": {"latitude": 46.4312213, "longitude": 6.9106799, "race": "Montreux - Les Rochers de Naye", "date": {"dim. 07.07.2013": {"year": 2013, "day": 7, "month": 7, "categories": {"M-HElite": {"distance": 19, "rank": 118, "pace": 487000000000, "time": 9157.6}}, "weekday": "sunday", "livingplace": "Grancy"}}, "location": "Montreux"}, "20km de Lausanne": {"latitude": 46.5196535, "longitude": 6.6322734, "race": "20km de Lausanne", "date": {"sam. 28.04.2007": {"year": 2007, "day": 28, "month": 4, "categories": {"10H30": {"distance": 10, "rank": 49, "pace": 248000000000, "time": 2486.0}}, "weekday": "saturday", "livingplace": "Clarmont"}}, "location": "Lausanne"}, "Course p\u00e9destre Thyon-Dixence, Thyon": {"latitude": NaN, "longitude": NaN, "race": "Course p\u00e9destre Thyon-Dixence, Thyon", "date": {"dim. 05.08.2012": {"year": 2012, "day": 5, "month": 8, "categories": {"HomElite": {"distance": 16, "rank": 58, "pace": 414000000000, "time": 6783.8}}, "weekday": "sunday", "livingplace": "Grancy"}, "dim. 04.08.2013": {"year": 2013, "day": 4, "month": 8, "categories": {"HomElite": {"distance": 16, "rank": 87, "pace": 434000000000, "time": 7100.1}}, "weekday": "sunday", "livingplace": "Grancy"}}, "location": "Thyon-Les Collons"}}, "birth": 1974}