{"name": "Fuchs Michael", "sex": "M", "races": {"Lucerne Marathon, Luzern": {"latitude": 47.05016819999999, "longitude": 8.3093072, "race": "Lucerne Marathon, Luzern", "date": {"dim. 28.10.2012": {"year": 2012, "day": 28, "month": 10, "categories": {"H-M30": {"distance": 21, "rank": 495, "pace": 299000000000, "time": 6313.1}}, "weekday": "sunday", "livingplace": "Gebenstorf"}}, "location": "Luzern"}, "Lenzburger Lauf": {"latitude": 47.3904443, "longitude": 8.172154500000001, "race": "Lenzburger Lauf", "date": {"sam. 28.05.2011": {"year": 2011, "day": 28, "month": 5, "categories": {"11-M30": {"distance": 12, "rank": 29, "pace": 292000000000, "time": 3398.3}}, "weekday": "saturday", "livingplace": "Gebenstorf"}}, "location": "Lenzburg"}, "Badener Limmat-Lauf, Baden": {"latitude": 48.5699281, "longitude": 8.5303972, "race": "Badener Limmat-Lauf, Baden", "date": {"sam. 26.03.2011": {"year": 2011, "day": 26, "month": 3, "categories": {"M30": {"distance": 13, "rank": 75, "pace": 302000000000, "time": 3994.7}}, "weekday": "saturday", "livingplace": "Gebenstorf"}}, "location": "Baden"}, "Z\u00fcrich Marathon, Teamrun und Cityrun": {"latitude": 47.3768866, "longitude": 8.541694, "race": "Z\u00fcrich Marathon, Teamrun und Cityrun", "date": {"dim. 22.04.2012": {"year": 2012, "day": 22, "month": 4, "categories": {"10-M30": {"distance": 10, "rank": 273, "pace": 341000000000, "time": 3413.9}}, "weekday": "sunday", "livingplace": "Gebenstorf"}}, "location": "Z\u00fcrich"}, "Hallwilerseelauf, Beinwil am See": {"latitude": NaN, "longitude": NaN, "race": "Hallwilerseelauf, Beinwil am See", "date": {"sam. 15.10.2011": {"year": 2011, "day": 15, "month": 10, "categories": {"10-Mann": {"distance": 10, "rank": 149, "pace": 269000000000, "time": 2693.7}}, "weekday": "saturday", "livingplace": "Gebenstorf"}, "sam. 13.10.2012": {"year": 2012, "day": 13, "month": 10, "categories": {"10-Mann": {"distance": 10, "rank": 142, "pace": 267000000000, "time": 2670.1}}, "weekday": "saturday", "livingplace": "Gebenstorf"}}, "location": "Beinwil am See"}, "Pfingstlauf Wohlen AG": {"latitude": 47.3493653, "longitude": 8.2768762, "race": "Pfingstlauf Wohlen AG", "date": {"sam. 11.06.2011": {"year": 2011, "day": 11, "month": 6, "categories": {"8-10-M30": {"distance": 10, "rank": 36, "pace": 286000000000, "time": 2865.2}}, "weekday": "saturday", "livingplace": "Gebenstorf"}}, "location": "Wohlen AG"}, "Kerzerslauf": {"latitude": 46.97488999999999, "longitude": 7.1954365, "race": "Kerzerslauf", "date": {"sam. 17.03.2012": {"year": 2012, "day": 17, "month": 3, "categories": {"15-M20": {"distance": 15, "rank": 397, "pace": 299000000000, "time": 4498.5}}, "weekday": "saturday", "livingplace": "Gebenstorf"}}, "location": "Kerzers"}}, "birth": 1980}