{"name": "Furer Christian", "sex": "M", "races": {"crossrun, Therwil": {"latitude": 47.4990611, "longitude": 7.5532808, "race": "crossrun, Therwil", "date": {"dim. 31.08.2014": {"year": 2014, "day": 31, "month": 8, "categories": {"M30": {"distance": 10, "rank": 18, "pace": 330000000000, "time": 3305.5}}, "weekday": "sunday", "livingplace": "Courroux"}}, "location": "Therwil"}, "Liestaler Stadtlauf": {"latitude": 47.4866143, "longitude": 7.7334272, "race": "Liestaler Stadtlauf", "date": {"mer. 27.08.2014": {"year": 2014, "day": 27, "month": 8, "categories": {"M30": {"distance": 12, "rank": 39, "pace": 334000000000, "time": 4011.7}}, "weekday": "wednesday", "livingplace": "Courroux"}}, "location": "Liestal"}, "Thuner Stadtlauf, Thun": {"latitude": 46.7579868, "longitude": 7.6279881, "race": "Thuner Stadtlauf, Thun", "date": {"dim. 24.08.2014": {"year": 2014, "day": 24, "month": 8, "categories": {"10-M30": {"distance": 11, "rank": 113, "pace": 322000000000, "time": 3467.2}}, "weekday": "sunday", "livingplace": "Courroux"}}, "location": "Thun"}, "IWB Basel Marathon": {"latitude": 47.5595986, "longitude": 7.5885761, "race": "IWB Basel Marathon", "date": {"dim. 23.09.2012": {"year": 2012, "day": 23, "month": 9, "categories": {"H-21-M30": {"distance": 21, "rank": 221, "pace": 388000000000, "time": 8202.0}}, "weekday": "sunday", "livingplace": "Basel"}, "dim. 28.09.2014": {"year": 2014, "day": 28, "month": 9, "categories": {"21-M30": {"distance": 21, "rank": 189, "pace": 332000000000, "time": 7023.2}}, "weekday": "sunday", "livingplace": "Courroux"}, "dim. 22.09.2013": {"year": 2013, "day": 22, "month": 9, "categories": {"H-21-M30": {"distance": 21, "rank": 192, "pace": 338000000000, "time": 7138.8}}, "weekday": "sunday", "livingplace": "Basel"}}, "location": "Basel"}, "Basler Stadtlauf": {"latitude": 47.5595986, "longitude": 7.5885761, "race": "Basler Stadtlauf", "date": {"sam. 29.11.2014": {"year": 2014, "day": 29, "month": 11, "categories": {"M35": {"distance": 6, "rank": 214, "pace": 284000000000, "time": 1562.1}}, "weekday": "saturday", "livingplace": "Courroux"}}, "location": "Basel"}, "Muttenzer Herbstlauf": {"latitude": 47.5279292, "longitude": 7.6476369, "race": "Muttenzer Herbstlauf", "date": {"dim. 26.10.2014": {"year": 2014, "day": 26, "month": 10, "categories": {"10-M30": {"distance": 10, "rank": 35, "pace": 330000000000, "time": 3302.0}}, "weekday": "sunday", "livingplace": "Courroux"}}, "location": "Muttenz"}, "Lausanne Marathon": {"latitude": 46.5196535, "longitude": 6.6322734, "race": "Lausanne Marathon", "date": {"dim. 27.10.2013": {"year": 2013, "day": 27, "month": 10, "categories": {"21-H2": {"distance": 21, "rank": 764, "pace": 336000000000, "time": 7096.2}}, "weekday": "sunday", "livingplace": "Basel"}}, "location": "Lausanne"}, "20km de Lausanne": {"latitude": 46.5196535, "longitude": 6.6322734, "race": "20km de Lausanne", "date": {"sam. 26.04.2014": {"year": 2014, "day": 26, "month": 4, "categories": {"10-H30": {"distance": 10, "rank": 978, "pace": 353000000000, "time": 3539.9}}, "weekday": "saturday", "livingplace": "Basel"}}, "location": "Lausanne"}, "Dreil\u00e4nder-Lauf, Basel": {"latitude": 47.5595986, "longitude": 7.5885761, "race": "Dreil\u00e4nder-Lauf, Basel", "date": {"dim. 22.05.2011": {"year": 2011, "day": 22, "month": 5, "categories": {"21M30": {"distance": 21, "rank": 144, "pace": 422000000000, "time": 8911.5}}, "weekday": "sunday", "livingplace": "Basel"}, "dim. 25.05.2014": {"year": 2014, "day": 25, "month": 5, "categories": {"HM30": {"distance": 21, "rank": 112, "pace": 342000000000, "time": 7228.0}}, "weekday": "sunday", "livingplace": "Courroux"}}, "location": "Basel"}}, "birth": 1975}