{"name": "Furter Urs", "sex": "M", "races": {"Tour du Chablais #1 Roche": {"latitude": 46.2957462, "longitude": 6.9916269, "race": "Tour du Chablais #1 Roche", "date": {"mer. 07.04.2010": {"year": 2010, "day": 7, "month": 4, "categories": {"M-M40": {"distance": 9, "rank": 160, "pace": 314000000000, "time": 2815.8}}, "weekday": "wednesday", "livingplace": "Noville"}}, "location": "Ollon VD"}, "Tour du Chablais #2 Rennaz": {"latitude": 46.3835529, "longitude": 6.854975199999999, "race": "Tour du Chablais #2 Rennaz", "date": {"mer. 04.05.2011": {"year": 2011, "day": 4, "month": 5, "categories": {"M-M40": {"distance": 9, "rank": 129, "pace": 299000000000, "time": 2800.3}}, "weekday": "wednesday", "livingplace": "Noville"}}, "location": "Bouveret"}, "Tour du Chablais #4 St  Maurice": {"latitude": NaN, "longitude": NaN, "race": "Tour du Chablais #4 St  Maurice", "date": {"mer. 24.04.2013": {"year": 2013, "day": 24, "month": 4, "categories": {"M-M40": {"distance": 10, "rank": 126, "pace": 317000000000, "time": 3172.8}}, "weekday": "wednesday", "livingplace": "Noville"}}, "location": "Les Mosses"}, "Course de l'Escalade, Gen\u00e8ve": {"latitude": 46.2043907, "longitude": 6.1431577, "race": "Course de l'Escalade, Gen\u00e8ve", "date": {"sam. 01.12.2007": {"year": 2007, "day": 1, "month": 12, "categories": {"Hommes3": {"distance": 7, "rank": 451, "pace": 290000000000, "time": 2105.4}}, "weekday": "saturday", "livingplace": "Noville"}, "sam. 02.12.2006": {"year": 2006, "day": 2, "month": 12, "categories": {"Hommes3": {"distance": 7, "rank": 1302, "pace": 306000000000, "time": 2222.2}}, "weekday": "saturday", "livingplace": "Noville"}, "sam. 03.12.2005": {"year": 2005, "day": 3, "month": 12, "categories": {"Hommes3": {"distance": 7, "rank": 1348, "pace": 308000000000, "time": 2236.6}}, "weekday": "saturday", "livingplace": "Noville"}}, "location": "Gen\u00e8ve"}, "Tour du Chablais #3 Le Bouveret": {"latitude": 46.1782231, "longitude": 7.0223787, "race": "Tour du Chablais #3 Le Bouveret", "date": {"mer. 11.05.2011": {"year": 2011, "day": 11, "month": 5, "categories": {"M-M40": {"distance": 10, "rank": 120, "pace": 298000000000, "time": 2988.2}}, "weekday": "wednesday", "livingplace": "Noville"}}, "location": "Evionnaz"}, "Tour du Chablais #6 Monthey": {"latitude": 46.3190253, "longitude": 6.970566, "race": "Tour du Chablais #6 Monthey", "date": {"mer. 08.05.2013": {"year": 2013, "day": 8, "month": 5, "categories": {"M-M40": {"distance": 9, "rank": 118, "pace": 304000000000, "time": 2842.6}}, "weekday": "wednesday", "livingplace": "Noville"}}, "location": "Aigle"}, "Tour du Chablais #5 Morgins": {"latitude": 46.3603257, "longitude": 6.931504599999999, "race": "Tour du Chablais #5 Morgins", "date": {"mer. 01.05.2013": {"year": 2013, "day": 1, "month": 5, "categories": {"M-M40": {"distance": 8, "rank": 106, "pace": 334000000000, "time": 2545.2}}, "weekday": "wednesday", "livingplace": "Noville"}}, "location": "Roche VD"}, "Tour du Chablais #1 Lavey": {"latitude": 46.2957462, "longitude": 6.9916269, "race": "Tour du Chablais #1 Lavey", "date": {"mer. 27.04.2011": {"year": 2011, "day": 27, "month": 4, "categories": {"M-M40": {"distance": 9, "rank": 130, "pace": 310000000000, "time": 2797.3}}, "weekday": "wednesday", "livingplace": "Noville"}}, "location": "Ollon VD"}, "Tour du Chablais #2 Yvorne": {"latitude": 46.3835529, "longitude": 6.854975199999999, "race": "Tour du Chablais #2 Yvorne", "date": {"mer. 10.04.2013": {"year": 2013, "day": 10, "month": 4, "categories": {"M-M40": {"distance": 8, "rank": 130, "pace": 362000000000, "time": 2902.7}}, "weekday": "wednesday", "livingplace": "Noville"}}, "location": "Bouveret"}, "Tour du Chablais #1 Martigny": {"latitude": 46.2957462, "longitude": 6.9916269, "race": "Tour du Chablais #1 Martigny", "date": {"mer. 23.04.2014": {"year": 2014, "day": 23, "month": 4, "categories": {"M-M40": {"distance": 9, "rank": 101, "pace": 301000000000, "time": 2566.0}}, "weekday": "wednesday", "livingplace": "Noville"}}, "location": "Ollon VD"}, "Tour du Chablais #2 St-Gingolph": {"latitude": 46.3835529, "longitude": 6.854975199999999, "race": "Tour du Chablais #2 St-Gingolph", "date": {"mer. 14.04.2010": {"year": 2010, "day": 14, "month": 4, "categories": {"M-M40": {"distance": 8, "rank": 153, "pace": 340000000000, "time": 2842.6}}, "weekday": "wednesday", "livingplace": "Noville"}}, "location": "Bouveret"}, "Tour du Chablais #5 Bex": {"latitude": 46.3603257, "longitude": 6.931504599999999, "race": "Tour du Chablais #5 Bex", "date": {"mer. 09.05.2012": {"year": 2012, "day": 9, "month": 5, "categories": {"M-M40": {"distance": 9, "rank": 108, "pace": 306000000000, "time": 2717.7}}, "weekday": "wednesday", "livingplace": "Noville"}}, "location": "Roche VD"}, "Tour du Chablais #3 Bouveret": {"latitude": 46.1782231, "longitude": 7.0223787, "race": "Tour du Chablais #3 Bouveret", "date": {"mer. 17.04.2013": {"year": 2013, "day": 17, "month": 4, "categories": {"M-M40": {"distance": 10, "rank": 121, "pace": 316000000000, "time": 3165.3}}, "weekday": "wednesday", "livingplace": "Noville"}}, "location": "Evionnaz"}, "Tour du Chablais #1 Montreux": {"latitude": 46.2957462, "longitude": 6.9916269, "race": "Tour du Chablais #1 Montreux", "date": {"mer. 11.04.2012": {"year": 2012, "day": 11, "month": 4, "categories": {"M-M40": {"distance": 8, "rank": 141, "pace": 328000000000, "time": 2499.4}}, "weekday": "wednesday", "livingplace": "Noville"}}, "location": "Ollon VD"}, "Tour du Chablais #6 Montreux": {"latitude": 46.3190253, "longitude": 6.970566, "race": "Tour du Chablais #6 Montreux", "date": {"mer. 16.05.2012": {"year": 2012, "day": 16, "month": 5, "categories": {"M-M40": {"distance": 9, "rank": 128, "pace": 295000000000, "time": 2730.8}}, "weekday": "wednesday", "livingplace": "Noville"}}, "location": "Aigle"}, "Lausanne Marathon": {"latitude": 46.5196535, "longitude": 6.6322734, "race": "Lausanne Marathon", "date": {"dim. 31.10.2010": {"year": 2010, "day": 31, "month": 10, "categories": {"21-H3": {"distance": 21, "rank": 388, "pace": 297000000000, "time": 6276.8}}, "weekday": "sunday", "livingplace": "Noville"}, "dim. 30.10.2011": {"year": 2011, "day": 30, "month": 10, "categories": {"21-H3": {"distance": 21, "rank": 528, "pace": 310000000000, "time": 6554.9}}, "weekday": "sunday", "livingplace": "Noville"}, "sam. 24.10.2015": {"year": 2015, "day": 24, "month": 10, "categories": {"21-H40": {"distance": 21, "rank": 479, "pace": 322000000000, "time": 6809.8}}, "weekday": "saturday", "livingplace": "Noville"}, "dim. 26.10.2014": {"year": 2014, "day": 26, "month": 10, "categories": {"21-H40": {"distance": 21, "rank": 466, "pace": 317000000000, "time": 6709.7}}, "weekday": "sunday", "livingplace": "Noville"}, "dim. 27.10.2013": {"year": 2013, "day": 27, "month": 10, "categories": {"21-H3": {"distance": 21, "rank": 440, "pace": 312000000000, "time": 6592.3}}, "weekday": "sunday", "livingplace": "Noville"}}, "location": "Lausanne"}, "Morat-Fribourg": {"latitude": 46.92922110000001, "longitude": 7.120184, "race": "Morat-Fribourg", "date": {"sam. 06.10.2012": {"year": 2012, "day": 6, "month": 10, "categories": {"17-M45": {"distance": 17, "rank": 499, "pace": 337000000000, "time": 5886.3}}, "weekday": "saturday", "livingplace": "Noville"}, "sam. 03.10.2015": {"year": 2015, "day": 3, "month": 10, "categories": {"17-M45": {"distance": 17, "rank": 492, "pace": 346000000000, "time": 5951.8}}, "weekday": "saturday", "livingplace": "Noville"}, "sam. 05.10.2013": {"year": 2013, "day": 5, "month": 10, "categories": {"17-M45": {"distance": 17, "rank": 428, "pace": 315000000000, "time": 5513.2}}, "weekday": "saturday", "livingplace": "Noville"}, "sam. 02.10.2010": {"year": 2010, "day": 2, "month": 10, "categories": {"17-M40": {"distance": 17, "rank": 506, "pace": 329000000000, "time": 5662.3}}, "weekday": "saturday", "livingplace": "Noville"}, "sam. 01.10.2011": {"year": 2011, "day": 1, "month": 10, "categories": {"17-M45": {"distance": 17, "rank": 497, "pace": 335000000000, "time": 5759.4}}, "weekday": "saturday", "livingplace": "Noville"}, "sam. 04.10.2014": {"year": 2014, "day": 4, "month": 10, "categories": {"17-M45": {"distance": 17, "rank": 384, "pace": 320000000000, "time": 5497.2}}, "weekday": "saturday", "livingplace": "Noville"}}, "location": "Murten"}, "Tour du Chablais #3 Bex": {"latitude": 46.1782231, "longitude": 7.0223787, "race": "Tour du Chablais #3 Bex", "date": {"mer. 21.04.2010": {"year": 2010, "day": 21, "month": 4, "categories": {"M-M40": {"distance": 10, "rank": 147, "pace": 320000000000, "time": 3200.5}}, "weekday": "wednesday", "livingplace": "Noville"}}, "location": "Evionnaz"}, "Tour du Chablais #2 Bex": {"latitude": 46.3835529, "longitude": 6.854975199999999, "race": "Tour du Chablais #2 Bex", "date": {"mer. 18.04.2012": {"year": 2012, "day": 18, "month": 4, "categories": {"M-M40": {"distance": 8, "rank": 137, "pace": 322000000000, "time": 2580.0}}, "weekday": "wednesday", "livingplace": "Noville"}}, "location": "Bouveret"}, "Tour du Chablais #3 Collombey-Muraz": {"latitude": 46.1782231, "longitude": 7.0223787, "race": "Tour du Chablais #3 Collombey-Muraz", "date": {"mer. 25.04.2012": {"year": 2012, "day": 25, "month": 4, "categories": {"M-M40": {"distance": 9, "rank": 118, "pace": 309000000000, "time": 2776.3}}, "weekday": "wednesday", "livingplace": "Noville"}}, "location": "Evionnaz"}}, "birth": 1966}