{"name": "Gagliardi Aur\u00e9lien", "sex": "M", "races": {"Tour du Chablais #1 Roche": {"latitude": 46.2957462, "longitude": 6.9916269, "race": "Tour du Chablais #1 Roche", "date": {"mer. 03.04.2013": {"year": 2013, "day": 3, "month": 4, "categories": {"M-M20": {"distance": 9, "rank": 91, "pace": 262000000000, "time": 2327.6}}, "weekday": "wednesday", "livingplace": "Monthey"}}, "location": "Ollon VD"}, "Tour du Chablais #6 Monthey": {"latitude": 46.3190253, "longitude": 6.970566, "race": "Tour du Chablais #6 Monthey", "date": {"mer. 08.05.2013": {"year": 2013, "day": 8, "month": 5, "categories": {"M-M20": {"distance": 9, "rank": 100, "pace": 264000000000, "time": 2470.1}}, "weekday": "wednesday", "livingplace": "Monthey"}}, "location": "Aigle"}, "Tour du Chablais #2 Yvorne": {"latitude": 46.3835529, "longitude": 6.854975199999999, "race": "Tour du Chablais #2 Yvorne", "date": {"mer. 10.04.2013": {"year": 2013, "day": 10, "month": 4, "categories": {"M-M20": {"distance": 8, "rank": 104, "pace": 289000000000, "time": 2317.4}}, "weekday": "wednesday", "livingplace": "Monthey"}}, "location": "Bouveret"}, "Tour du Chablais #5 Morgins": {"latitude": 46.3603257, "longitude": 6.931504599999999, "race": "Tour du Chablais #5 Morgins", "date": {"mer. 01.05.2013": {"year": 2013, "day": 1, "month": 5, "categories": {"M-M20": {"distance": 8, "rank": 90, "pace": 277000000000, "time": 2112.2}}, "weekday": "wednesday", "livingplace": "Monthey"}}, "location": "Roche VD"}, "Tour du Chablais #5 Bex": {"latitude": 46.3603257, "longitude": 6.931504599999999, "race": "Tour du Chablais #5 Bex", "date": {"mer. 09.05.2012": {"year": 2012, "day": 9, "month": 5, "categories": {"M-M20": {"distance": 9, "rank": 65, "pace": 251000000000, "time": 2228.6}}, "weekday": "wednesday", "livingplace": "Monthey"}}, "location": "Roche VD"}, "Tour du Chablais #4 Champ\u00e9ry": {"latitude": NaN, "longitude": NaN, "race": "Tour du Chablais #4 Champ\u00e9ry", "date": {"mer. 02.05.2012": {"year": 2012, "day": 2, "month": 5, "categories": {"M-M20": {"distance": 8, "rank": 71, "pace": 255000000000, "time": 2119.3}}, "weekday": "wednesday", "livingplace": "Monthey"}}, "location": "Les Mosses"}, "Tour du Chablais #1 Montreux": {"latitude": 46.2957462, "longitude": 6.9916269, "race": "Tour du Chablais #1 Montreux", "date": {"mer. 11.04.2012": {"year": 2012, "day": 11, "month": 4, "categories": {"M-M20": {"distance": 8, "rank": 81, "pace": 269000000000, "time": 2045.3}}, "weekday": "wednesday", "livingplace": "Monthey"}}, "location": "Ollon VD"}, "Tour du Chablais #6 Montreux": {"latitude": 46.3190253, "longitude": 6.970566, "race": "Tour du Chablais #6 Montreux", "date": {"mer. 16.05.2012": {"year": 2012, "day": 16, "month": 5, "categories": {"M-M20": {"distance": 9, "rank": 71, "pace": 249000000000, "time": 2305.9}}, "weekday": "wednesday", "livingplace": "Monthey"}}, "location": "Aigle"}, "Tour du Chablais #3 Collombey-Muraz": {"latitude": 46.1782231, "longitude": 7.0223787, "race": "Tour du Chablais #3 Collombey-Muraz", "date": {"mer. 25.04.2012": {"year": 2012, "day": 25, "month": 4, "categories": {"M-M20": {"distance": 9, "rank": 92, "pace": 267000000000, "time": 2399.3}}, "weekday": "wednesday", "livingplace": "Monthey"}}, "location": "Evionnaz"}, "Tour du Chablais #4 St  Maurice": {"latitude": NaN, "longitude": NaN, "race": "Tour du Chablais #4 St  Maurice", "date": {"mer. 24.04.2013": {"year": 2013, "day": 24, "month": 4, "categories": {"M-M20": {"distance": 10, "rank": 95, "pace": 267000000000, "time": 2670.2}}, "weekday": "wednesday", "livingplace": "Monthey"}}, "location": "Les Mosses"}, "Tour du Chablais #2 Bex": {"latitude": 46.3835529, "longitude": 6.854975199999999, "race": "Tour du Chablais #2 Bex", "date": {"mer. 18.04.2012": {"year": 2012, "day": 18, "month": 4, "categories": {"M-M20": {"distance": 8, "rank": 86, "pace": 263000000000, "time": 2104.3}}, "weekday": "wednesday", "livingplace": "Monthey"}}, "location": "Bouveret"}, "Tour du Chablais #3 Bouveret": {"latitude": 46.1782231, "longitude": 7.0223787, "race": "Tour du Chablais #3 Bouveret", "date": {"mer. 17.04.2013": {"year": 2013, "day": 17, "month": 4, "categories": {"M-M20": {"distance": 10, "rank": 95, "pace": 266000000000, "time": 2667.1}}, "weekday": "wednesday", "livingplace": "Monthey"}}, "location": "Evionnaz"}}, "birth": 1981}