{"name": "Gagnebin Lanval", "sex": "M", "races": {"Morat-Fribourg": {"latitude": 46.92922110000001, "longitude": 7.120184, "race": "Morat-Fribourg", "date": {"sam. 03.10.2009": {"year": 2009, "day": 3, "month": 10, "categories": {"C-M20": {"distance": 17, "rank": 422, "pace": 273000000000, "time": 4697.1}}, "weekday": "saturday", "livingplace": "Corcelles"}, "sam. 01.10.2011": {"year": 2011, "day": 1, "month": 10, "categories": {"17-M20": {"distance": 17, "rank": 845, "pace": 296000000000, "time": 5084.7}}, "weekday": "saturday", "livingplace": "Corcelles"}}, "location": "Murten"}, "BCN Tour Le Landeron": {"latitude": 46.9668714, "longitude": 6.8589727, "race": "BCN Tour Le Landeron", "date": {"mer. 22.04.2009": {"year": 2009, "day": 22, "month": 4, "categories": {"HS1": {"distance": 11, "rank": 67, "pace": 273000000000, "time": 3038.9}}, "weekday": "wednesday", "livingplace": "Corcelles"}}, "location": "Colombier NE"}, "BCN Tour #1 Corcelles": {"latitude": 46.9668714, "longitude": 6.8589727, "race": "BCN Tour #1 Corcelles", "date": {"mer. 24.04.2013": {"year": 2013, "day": 24, "month": 4, "categories": {"HS1": {"distance": 10, "rank": 91, "pace": 278000000000, "time": 2726.3}}, "weekday": "wednesday", "livingplace": "Corcelles"}}, "location": "Colombier NE"}, "BCN Tour Auvernier": {"latitude": 46.9668714, "longitude": 6.8589727, "race": "BCN Tour Auvernier", "date": {"mer. 20.04.2011": {"year": 2011, "day": 20, "month": 4, "categories": {"HS1": {"distance": 11, "rank": 105, "pace": 297000000000, "time": 3211.9}}, "weekday": "wednesday", "livingplace": "Corcelles"}}, "location": "Colombier NE"}, "BCN Tour #4 Fleurier": {"latitude": 47.1034892, "longitude": 6.832783800000001, "race": "BCN Tour #4 Fleurier", "date": {"mer. 15.05.2013": {"year": 2013, "day": 15, "month": 5, "categories": {"HS1": {"distance": 9, "rank": 104, "pace": 282000000000, "time": 2446.1}}, "weekday": "wednesday", "livingplace": "Corcelles"}}, "location": "La Chaux-de-Fonds"}, "BCN Tour #2 La Chaux-de-Fonds": {"latitude": 47.0624261, "longitude": 6.9175754, "race": "BCN Tour #2 La Chaux-de-Fonds", "date": {"mer. 01.05.2013": {"year": 2013, "day": 1, "month": 5, "categories": {"HS1": {"distance": 11, "rank": 111, "pace": 276000000000, "time": 2956.5}}, "weekday": "wednesday", "livingplace": "Corcelles"}}, "location": "Ch\u00e9zard-St-Martin"}, "BCN Tour La Chaux-de-Fonds": {"latitude": 47.1034892, "longitude": 6.832783800000001, "race": "BCN Tour La Chaux-de-Fonds", "date": {"mer. 23.05.2012": {"year": 2012, "day": 23, "month": 5, "categories": {"HS1": {"distance": 11, "rank": 108, "pace": 283000000000, "time": 3063.0}}, "weekday": "wednesday", "livingplace": "Corcelles"}, "mer. 11.05.2011": {"year": 2011, "day": 11, "month": 5, "categories": {"HS1": {"distance": 11, "rank": 103, "pace": 324000000000, "time": 3469.0}}, "weekday": "wednesday", "livingplace": "Corcelles"}}, "location": "La Chaux-de-Fonds"}, "BCN Tour Les Ponts-de-Martel": {"latitude": 46.999113, "longitude": 6.733554799999999, "race": "BCN Tour Les Ponts-de-Martel", "date": {"mer. 09.05.2012": {"year": 2012, "day": 9, "month": 5, "categories": {"HS1": {"distance": 10, "rank": 82, "pace": 281000000000, "time": 2894.5}}, "weekday": "wednesday", "livingplace": "Corcelles"}}, "location": "Les Ponts-de-Martel"}, "BCN Tour Neuch\u00e2tel": {"latitude": 46.9899874, "longitude": 6.9292732, "race": "BCN Tour Neuch\u00e2tel", "date": {"mer. 26.05.2010": {"year": 2010, "day": 26, "month": 5, "categories": {"HS1": {"distance": 10, "rank": 92, "pace": 305000000000, "time": 2967.4}}, "weekday": "wednesday", "livingplace": "Corcelles"}, "mer. 30.05.2012": {"year": 2012, "day": 30, "month": 5, "categories": {"HS1": {"distance": 11, "rank": 32, "pace": 262000000000, "time": 2945.2}}, "weekday": "wednesday", "livingplace": "Corcelles"}, "mer. 25.05.2011": {"year": 2011, "day": 25, "month": 5, "categories": {"HS1": {"distance": 11, "rank": 109, "pace": 290000000000, "time": 3317.0}}, "weekday": "wednesday", "livingplace": "Corcelles"}}, "location": "Neuch\u00e2tel"}, "BCN Tour #5 Colombier": {"latitude": 46.9262933, "longitude": 6.6324944, "race": "BCN Tour #5 Colombier", "date": {"mer. 22.05.2013": {"year": 2013, "day": 22, "month": 5, "categories": {"HS1": {"distance": 11, "rank": 101, "pace": 259000000000, "time": 2724.9}}, "weekday": "wednesday", "livingplace": "Corcelles"}}, "location": "Couvet"}, "BCN Tour Ponts-de-Martel": {"latitude": 47.0624261, "longitude": 6.9175754, "race": "BCN Tour Ponts-de-Martel", "date": {"mer. 28.04.2010": {"year": 2010, "day": 28, "month": 4, "categories": {"HS1": {"distance": 11, "rank": 77, "pace": 288000000000, "time": 3232.2}}, "weekday": "wednesday", "livingplace": "Corcelles"}}, "location": "Ch\u00e9zard-St-Martin"}, "BCN Tour Cornaux": {"latitude": 46.9668714, "longitude": 6.8589727, "race": "BCN Tour Cornaux", "date": {"mer. 25.04.2012": {"year": 2012, "day": 25, "month": 4, "categories": {"HS1": {"distance": 11, "rank": 71, "pace": 305000000000, "time": 3357.3}}, "weekday": "wednesday", "livingplace": "Corcelles"}}, "location": "Colombier NE"}, "BCN Tour #3 Dombresson": {"latitude": 46.999113, "longitude": 6.733554799999999, "race": "BCN Tour #3 Dombresson", "date": {"mer. 08.05.2013": {"year": 2013, "day": 8, "month": 5, "categories": {"HS1": {"distance": 10, "rank": 107, "pace": 275000000000, "time": 2722.9}}, "weekday": "wednesday", "livingplace": "Corcelles"}}, "location": "Les Ponts-de-Martel"}, "BCN Tour M\u00f4tier": {"latitude": 46.9262933, "longitude": 6.6324944, "race": "BCN Tour M\u00f4tier", "date": {"mer. 19.05.2010": {"year": 2010, "day": 19, "month": 5, "categories": {"HS1": {"distance": 10, "rank": 80, "pace": 268000000000, "time": 2662.5}}, "weekday": "wednesday", "livingplace": "Corcelles"}}, "location": "Couvet"}, "BCN Tour Fontaine Cernier": {"latitude": 47.0624261, "longitude": 6.9175754, "race": "BCN Tour Fontaine Cernier", "date": {"mer. 27.04.2011": {"year": 2011, "day": 27, "month": 4, "categories": {"HS1": {"distance": 10, "rank": 97, "pace": 273000000000, "time": 2818.2}}, "weekday": "wednesday", "livingplace": "Corcelles"}}, "location": "Ch\u00e9zard-St-Martin"}, "BCN Tour Le Locle": {"latitude": 46.999113, "longitude": 6.733554799999999, "race": "BCN Tour Le Locle", "date": {"mer. 05.05.2010": {"year": 2010, "day": 5, "month": 5, "categories": {"HS1": {"distance": 11, "rank": 72, "pace": 277000000000, "time": 3027.8}}, "weekday": "wednesday", "livingplace": "Corcelles"}}, "location": "Les Ponts-de-Martel"}, "BCN Tour Couvet": {"latitude": 47.0624261, "longitude": 6.9175754, "race": "BCN Tour Couvet", "date": {"mer. 02.05.2012": {"year": 2012, "day": 2, "month": 5, "categories": {"HS1": {"distance": 11, "rank": 101, "pace": 292000000000, "time": 3263.3}}, "weekday": "wednesday", "livingplace": "Corcelles"}}, "location": "Ch\u00e9zard-St-Martin"}, "BCN Tour #6 Neuch\u00e2tel": {"latitude": 46.9899874, "longitude": 6.9292732, "race": "BCN Tour #6 Neuch\u00e2tel", "date": {"mer. 29.05.2013": {"year": 2013, "day": 29, "month": 5, "categories": {"HS1": {"distance": 11, "rank": 133, "pace": 301000000000, "time": 3316.6}}, "weekday": "wednesday", "livingplace": "Corcelles"}}, "location": "Neuch\u00e2tel"}, "BCN Tour La Br\u00e9vine": {"latitude": 46.999113, "longitude": 6.733554799999999, "race": "BCN Tour La Br\u00e9vine", "date": {"mer. 04.05.2011": {"year": 2011, "day": 4, "month": 5, "categories": {"HS1": {"distance": 10, "rank": 105, "pace": 295000000000, "time": 2957.9}}, "weekday": "wednesday", "livingplace": "Corcelles"}}, "location": "Les Ponts-de-Martel"}, "BCN Tour Les Ponts de Martel": {"latitude": 46.9262933, "longitude": 6.6324944, "race": "BCN Tour Les Ponts de Martel", "date": {"mer. 18.05.2011": {"year": 2011, "day": 18, "month": 5, "categories": {"HS1": {"distance": 13, "rank": 89, "pace": 287000000000, "time": 3681.4}}, "weekday": "wednesday", "livingplace": "Corcelles"}}, "location": "Couvet"}, "BCN Tour La Chaux-de-fonds": {"latitude": 47.1034892, "longitude": 6.832783800000001, "race": "BCN Tour La Chaux-de-fonds", "date": {"mer. 12.05.2010": {"year": 2010, "day": 12, "month": 5, "categories": {"HS1": {"distance": 11, "rank": 89, "pace": 349000000000, "time": 3739.8}}, "weekday": "wednesday", "livingplace": "Corcelles"}}, "location": "La Chaux-de-Fonds"}, "BCN Tour Colombier": {"latitude": 46.9668714, "longitude": 6.8589727, "race": "BCN Tour Colombier", "date": {"mer. 16.05.2012": {"year": 2012, "day": 16, "month": 5, "categories": {"HS1": {"distance": 11, "rank": 81, "pace": 274000000000, "time": 2968.8}}, "weekday": "wednesday", "livingplace": "Corcelles"}, "mer. 23.04.2008": {"year": 2008, "day": 23, "month": 4, "categories": {"HS1": {"distance": 10, "rank": 138, "pace": 328000000000, "time": 3351.7}}, "weekday": "wednesday", "livingplace": "Corcelles"}, "mer. 21.04.2010": {"year": 2010, "day": 21, "month": 4, "categories": {"HS1": {"distance": 10, "rank": 69, "pace": 303000000000, "time": 3039.3}}, "weekday": "wednesday", "livingplace": "Corcelles"}}, "location": "Colombier NE"}}, "birth": 1974}