{"name": "Gaiani Michael", "sex": "M", "races": {"Tour du Pays de Vaud #3 - Mezi\u00e8res": {"latitude": 46.7784736, "longitude": 6.641183, "race": "Tour du Pays de Vaud #3 - Mezi\u00e8res", "date": {"mer. 22.08.2012": {"year": 2012, "day": 22, "month": 8, "categories": {"H-Sen1": {"distance": 8, "rank": 168, "pace": 377000000000, "time": 3170.5}}, "weekday": "wednesday", "livingplace": "Gland"}}, "location": "Yverdon-les-Bains"}, "Tour du Pays de Vaud #2 - Genolier": {"latitude": 46.5955273, "longitude": 6.7702883, "race": "Tour du Pays de Vaud #2 - Genolier", "date": {"mer. 15.08.2012": {"year": 2012, "day": 15, "month": 8, "categories": {"H-Sen1": {"distance": 9, "rank": 79, "pace": 282000000000, "time": 2404.8}}, "weekday": "wednesday", "livingplace": "Gland"}}, "location": "M\u00e9zi\u00e8res VD"}, "Tour du pays de Vaud #1 - Penthaz": {"latitude": 46.5993131, "longitude": 6.539251200000001, "race": "Tour du pays de Vaud #1 - Penthaz", "date": {"mer. 08.08.2012": {"year": 2012, "day": 8, "month": 8, "categories": {"H-Sen1": {"distance": 9, "rank": 167, "pace": 348000000000, "time": 2975.7}}, "weekday": "wednesday", "livingplace": "Gland"}}, "location": "Penthaz"}, "Morat-Fribourg": {"latitude": 46.92922110000001, "longitude": 7.120184, "race": "Morat-Fribourg", "date": {"sam. 06.10.2012": {"year": 2012, "day": 6, "month": 10, "categories": {"17-M20": {"distance": 17, "rank": 1145, "pace": 308000000000, "time": 5383.9}}, "weekday": "saturday", "livingplace": "Gland"}}, "location": "Murten"}, "Course de l'Escalade, Gen\u00e8ve": {"latitude": 46.2043907, "longitude": 6.1431577, "race": "Course de l'Escalade, Gen\u00e8ve", "date": {"sam. 01.12.2012": {"year": 2012, "day": 1, "month": 12, "categories": {"Esc-Hom2": {"distance": 7, "rank": 375, "pace": 273000000000, "time": 1984.3}}, "weekday": "saturday", "livingplace": "Gland"}}, "location": "Gen\u00e8ve"}}, "birth": 1981}