{"name": "Gaillard Lucien", "sex": "M", "races": {"Lausanne Marathon": {"latitude": 46.5196535, "longitude": 6.6322734, "race": "Lausanne Marathon", "date": {"sam. 24.10.2015": {"year": 2015, "day": 24, "month": 10, "categories": {"42-H20": {"distance": 42, "rank": 86, "pace": 340000000000, "time": 14374.7}}, "weekday": "saturday", "livingplace": "Aigle"}}, "location": "Lausanne"}, "Morat-Fribourg": {"latitude": 46.92922110000001, "longitude": 7.120184, "race": "Morat-Fribourg", "date": {"sam. 04.10.2014": {"year": 2014, "day": 4, "month": 10, "categories": {"17-M20": {"distance": 17, "rank": 751, "pace": 290000000000, "time": 4980.1}}, "weekday": "saturday", "livingplace": "Aigle"}}, "location": "Murten"}, "Corrida Bulloise, Bulle": {"latitude": 46.6154512, "longitude": 7.057726799999999, "race": "Corrida Bulloise, Bulle", "date": {"sam. 16.11.2013": {"year": 2013, "day": 16, "month": 11, "categories": {"PopHomm": {"distance": 6, "rank": 166, "pace": 263000000000, "time": 1619.2}}, "weekday": "saturday", "livingplace": "Aigle"}, "sam. 15.11.2014": {"year": 2014, "day": 15, "month": 11, "categories": {"Pop-Hom": {"distance": 6, "rank": 54, "pace": 242000000000, "time": 1489.4}}, "weekday": "saturday", "livingplace": "Aigle"}}, "location": "Bulle"}, "Groupe E Tour Fribourg #2, Charmey": {"latitude": 46.6175845, "longitude": 7.1654493, "race": "Groupe E Tour Fribourg #2, Charmey", "date": {"mer. 27.08.2014": {"year": 2014, "day": 27, "month": 8, "categories": {"H-Elite": {"distance": 10, "rank": 28, "pace": 284000000000, "time": 2747.3}}, "weekday": "wednesday", "livingplace": "Aigle"}}, "location": "Charmey (Gruy\u00e8re)"}, "Montreux - Les Rochers de Naye": {"latitude": 46.4312213, "longitude": 6.9106799, "race": "Montreux - Les Rochers de Naye", "date": {"dim. 05.07.2015": {"year": 2015, "day": 5, "month": 7, "categories": {"M-HElite": {"distance": 19, "rank": 61, "pace": 427000000000, "time": 8035.8}}, "weekday": "sunday", "livingplace": "Aigle"}}, "location": "Montreux"}, "Sierre-Zinal, Sierre": {"latitude": 46.29413110000001, "longitude": 7.533536199999999, "race": "Sierre-Zinal, Sierre", "date": {"dim. 09.08.2015": {"year": 2015, "day": 9, "month": 8, "categories": {"ElitesHo": {"distance": 31, "rank": 207, "pace": 455000000000, "time": 14115.4}}, "weekday": "sunday", "livingplace": "Aigle"}}, "location": "Sierre"}, "20km de Lausanne": {"latitude": 46.5196535, "longitude": 6.6322734, "race": "20km de Lausanne", "date": {"sam. 25.04.2015": {"year": 2015, "day": 25, "month": 4, "categories": {"20-H20": {"distance": 20, "rank": 97, "pace": 253000000000, "time": 5076.1}}, "weekday": "saturday", "livingplace": "Aigle"}}, "location": "Lausanne"}, "Aletsch-Halbmarathon, Bettmeralp": {"latitude": NaN, "longitude": NaN, "race": "Aletsch-Halbmarathon, Bettmeralp", "date": {"dim. 28.06.2015": {"year": 2015, "day": 28, "month": 6, "categories": {"M20": {"distance": 21, "rank": 102, "pace": 396000000000, "time": 8372.8}}, "weekday": "sunday", "livingplace": "Aigle"}}, "location": "Bettmeralp"}, "Course p\u00e9destre Thyon-Dixence, Thyon": {"latitude": NaN, "longitude": NaN, "race": "Course p\u00e9destre Thyon-Dixence, Thyon", "date": {"dim. 03.08.2014": {"year": 2014, "day": 3, "month": 8, "categories": {"HomElite": {"distance": 16, "rank": 42, "pace": 385000000000, "time": 6302.2}}, "weekday": "sunday", "livingplace": "Aigle"}}, "location": "Thyon-Les Collons"}}, "birth": 1988}