{"name": "Gameiro Ricardo", "sex": "M", "races": {"Morat-Fribourg": {"latitude": 46.92922110000001, "longitude": 7.120184, "race": "Morat-Fribourg", "date": {"sam. 05.10.2013": {"year": 2013, "day": 5, "month": 10, "categories": {"17-M20": {"distance": 17, "rank": 1666, "pace": 323000000000, "time": 5646.6}}, "weekday": "saturday", "livingplace": "Fribourg"}, "sam. 06.10.2012": {"year": 2012, "day": 6, "month": 10, "categories": {"17-M20": {"distance": 17, "rank": 1609, "pace": 340000000000, "time": 5945.5}}, "weekday": "saturday", "livingplace": "Fribourg"}, "sam. 03.10.2015": {"year": 2015, "day": 3, "month": 10, "categories": {"17-M20": {"distance": 17, "rank": 2053, "pace": 375000000000, "time": 6451.9}}, "weekday": "saturday", "livingplace": "Fribourg"}}, "location": "Murten"}, "Corrida Bulloise, Bulle": {"latitude": 46.6154512, "longitude": 7.057726799999999, "race": "Corrida Bulloise, Bulle", "date": {"sam. 17.11.2012": {"year": 2012, "day": 17, "month": 11, "categories": {"M20": {"distance": 8, "rank": 150, "pace": 332000000000, "time": 2706.6}}, "weekday": "saturday", "livingplace": "Fribourg"}}, "location": "Bulle"}, "Groupe E Tour Fribourg #5 Fribourg": {"latitude": 46.8128615, "longitude": 7.131657799999999, "race": "Groupe E Tour Fribourg #5 Fribourg", "date": {"mer. 18.09.2013": {"year": 2013, "day": 18, "month": 9, "categories": {"HE": {"distance": 10, "rank": 39, "pace": 306000000000, "time": 3065.1}}, "weekday": "wednesday", "livingplace": "Fribourg"}}, "location": "Givisiez"}, "Groupe E Tour Fribourg #3 Charmey": {"latitude": 46.97488999999999, "longitude": 7.1954365, "race": "Groupe E Tour Fribourg #3 Charmey", "date": {"mer. 04.09.2013": {"year": 2013, "day": 4, "month": 9, "categories": {"HE": {"distance": 11, "rank": 44, "pace": 341000000000, "time": 3710.0}}, "weekday": "wednesday", "livingplace": "Fribourg"}}, "location": "Kerzers"}, "Groupe E Tour Fribourg #2 Kerzers": {"latitude": 46.6175845, "longitude": 7.1654493, "race": "Groupe E Tour Fribourg #2 Kerzers", "date": {"mer. 28.08.2013": {"year": 2013, "day": 28, "month": 8, "categories": {"HE": {"distance": 12, "rank": 26, "pace": 303000000000, "time": 3599.7}}, "weekday": "wednesday", "livingplace": "Fribourg"}}, "location": "Charmey (Gruy\u00e8re)"}, "Kerzerslauf": {"latitude": 46.97488999999999, "longitude": 7.1954365, "race": "Kerzerslauf", "date": {"sam. 16.03.2013": {"year": 2013, "day": 16, "month": 3, "categories": {"15-M20": {"distance": 15, "rank": 441, "pace": 315000000000, "time": 4725.0}}, "weekday": "saturday", "livingplace": "Fribourg"}}, "location": "Kerzers"}}, "birth": 1984}