{"name": "G\u00e4mperle Roman", "sex": "M", "races": {"BCN Tour Couvet": {"latitude": 47.0624261, "longitude": 6.9175754, "race": "BCN Tour Couvet", "date": {"mer. 02.05.2012": {"year": 2012, "day": 2, "month": 5, "categories": {"HS2": {"distance": 11, "rank": 264, "pace": 360000000000, "time": 4014.8}}, "weekday": "wednesday", "livingplace": "Ins"}}, "location": "Ch\u00e9zard-St-Martin"}, "Morat-Fribourg": {"latitude": 46.92922110000001, "longitude": 7.120184, "race": "Morat-Fribourg", "date": {"dim. 07.10.2001": {"year": 2001, "day": 7, "month": 10, "categories": {"M20": {"distance": 17, "rank": 1435, "pace": 308000000000, "time": 5297.7}}, "weekday": "sunday", "livingplace": "Ins"}, "dim. 06.10.2002": {"year": 2002, "day": 6, "month": 10, "categories": {"M20": {"distance": 17, "rank": 1407, "pace": 307000000000, "time": 5278.1}}, "weekday": "sunday", "livingplace": "Ins"}}, "location": "Murten"}, "BCN Tour Fontaine Cernier": {"latitude": 47.0624261, "longitude": 6.9175754, "race": "BCN Tour Fontaine Cernier", "date": {"mer. 27.04.2011": {"year": 2011, "day": 27, "month": 4, "categories": {"HS2": {"distance": 10, "rank": 224, "pace": 314000000000, "time": 3234.2}}, "weekday": "wednesday", "livingplace": "Ins"}}, "location": "Ch\u00e9zard-St-Martin"}, "BCN Tour Le Locle": {"latitude": 46.999113, "longitude": 6.733554799999999, "race": "BCN Tour Le Locle", "date": {"mer. 05.05.2010": {"year": 2010, "day": 5, "month": 5, "categories": {"HS2": {"distance": 11, "rank": 221, "pace": 349000000000, "time": 3804.6}}, "weekday": "wednesday", "livingplace": "Ins"}}, "location": "Les Ponts-de-Martel"}, "BCN Tour Neuch\u00e2tel": {"latitude": 46.9899874, "longitude": 6.9292732, "race": "BCN Tour Neuch\u00e2tel", "date": {"mer. 26.05.2010": {"year": 2010, "day": 26, "month": 5, "categories": {"HS2": {"distance": 10, "rank": 211, "pace": 394000000000, "time": 3821.8}}, "weekday": "wednesday", "livingplace": "Ins"}, "mer. 30.05.2012": {"year": 2012, "day": 30, "month": 5, "categories": {"HS2": {"distance": 11, "rank": 269, "pace": 371000000000, "time": 4158.2}}, "weekday": "wednesday", "livingplace": "Ins"}, "mer. 25.05.2011": {"year": 2011, "day": 25, "month": 5, "categories": {"HS2": {"distance": 11, "rank": 228, "pace": 346000000000, "time": 3946.8}}, "weekday": "wednesday", "livingplace": "Ins"}}, "location": "Neuch\u00e2tel"}, "BCN Tour Auvernier": {"latitude": 46.9668714, "longitude": 6.8589727, "race": "BCN Tour Auvernier", "date": {"mer. 20.04.2011": {"year": 2011, "day": 20, "month": 4, "categories": {"HS2": {"distance": 11, "rank": 212, "pace": 342000000000, "time": 3702.9}}, "weekday": "wednesday", "livingplace": "Ins"}}, "location": "Colombier NE"}, "BCN Tour #4 Fleurier": {"latitude": 47.1034892, "longitude": 6.832783800000001, "race": "BCN Tour #4 Fleurier", "date": {"mer. 15.05.2013": {"year": 2013, "day": 15, "month": 5, "categories": {"HS2": {"distance": 9, "rank": 166, "pace": 312000000000, "time": 2704.0}}, "weekday": "wednesday", "livingplace": "Ins"}}, "location": "La Chaux-de-Fonds"}, "Kerzerslauf": {"latitude": 46.97488999999999, "longitude": 7.1954365, "race": "Kerzerslauf", "date": {"sam. 15.03.2003": {"year": 2003, "day": 15, "month": 3, "categories": {"M35": {"distance": 15, "rank": 302, "pace": 293000000000, "time": 4400.6}}, "weekday": "saturday", "livingplace": "Ins"}, "sam. 19.03.2011": {"year": 2011, "day": 19, "month": 3, "categories": {"15-M45": {"distance": 15, "rank": 423, "pace": 309000000000, "time": 4641.6}}, "weekday": "saturday", "livingplace": "Ins"}, "sam. 16.03.2013": {"year": 2013, "day": 16, "month": 3, "categories": {"15-M45": {"distance": 15, "rank": 515, "pace": 339000000000, "time": 5087.8}}, "weekday": "saturday", "livingplace": "Ins"}}, "location": "Kerzers"}, "BCN Tour #1 Corcelles": {"latitude": 46.9668714, "longitude": 6.8589727, "race": "BCN Tour #1 Corcelles", "date": {"mer. 24.04.2013": {"year": 2013, "day": 24, "month": 4, "categories": {"HS2": {"distance": 10, "rank": 196, "pace": 315000000000, "time": 3093.9}}, "weekday": "wednesday", "livingplace": "Ins"}}, "location": "Colombier NE"}, "BCN Tour La Chaux-de-Fonds": {"latitude": 47.1034892, "longitude": 6.832783800000001, "race": "BCN Tour La Chaux-de-Fonds", "date": {"mer. 11.05.2011": {"year": 2011, "day": 11, "month": 5, "categories": {"HS2": {"distance": 11, "rank": 213, "pace": 375000000000, "time": 4018.3}}, "weekday": "wednesday", "livingplace": "Ins"}}, "location": "La Chaux-de-Fonds"}, "BCN Tour Colombier": {"latitude": 46.9668714, "longitude": 6.8589727, "race": "BCN Tour Colombier", "date": {"mer. 23.04.2008": {"year": 2008, "day": 23, "month": 4, "categories": {"HS2": {"distance": 10, "rank": 192, "pace": 346000000000, "time": 3537.0}}, "weekday": "wednesday", "livingplace": "Ins"}, "mer. 21.04.2010": {"year": 2010, "day": 21, "month": 4, "categories": {"HS2": {"distance": 10, "rank": 258, "pace": 385000000000, "time": 3854.4}}, "weekday": "wednesday", "livingplace": "Ins"}}, "location": "Colombier NE"}, "BCN Tour Les Ponts-de-Martel": {"latitude": 46.999113, "longitude": 6.733554799999999, "race": "BCN Tour Les Ponts-de-Martel", "date": {"mer. 09.05.2012": {"year": 2012, "day": 9, "month": 5, "categories": {"HS2": {"distance": 10, "rank": 270, "pace": 353000000000, "time": 3636.2}}, "weekday": "wednesday", "livingplace": "Ins"}}, "location": "Les Ponts-de-Martel"}, "BCN Tour Ponts-de-Martel": {"latitude": 47.0624261, "longitude": 6.9175754, "race": "BCN Tour Ponts-de-Martel", "date": {"mer. 28.04.2010": {"year": 2010, "day": 28, "month": 4, "categories": {"HS2": {"distance": 11, "rank": 241, "pace": 352000000000, "time": 3948.1}}, "weekday": "wednesday", "livingplace": "Ins"}}, "location": "Ch\u00e9zard-St-Martin"}, "BCN Tour #5 Colombier": {"latitude": 46.9262933, "longitude": 6.6324944, "race": "BCN Tour #5 Colombier", "date": {"mer. 22.05.2013": {"year": 2013, "day": 22, "month": 5, "categories": {"HS2": {"distance": 11, "rank": 203, "pace": 290000000000, "time": 3052.9}}, "weekday": "wednesday", "livingplace": "Ins"}}, "location": "Couvet"}, "BCN Tour #2 La Chaux-de-Fonds": {"latitude": 47.0624261, "longitude": 6.9175754, "race": "BCN Tour #2 La Chaux-de-Fonds", "date": {"mer. 01.05.2013": {"year": 2013, "day": 1, "month": 5, "categories": {"HS2": {"distance": 11, "rank": 257, "pace": 320000000000, "time": 3433.4}}, "weekday": "wednesday", "livingplace": "Ins"}}, "location": "Ch\u00e9zard-St-Martin"}, "BCN Tour La Chaux-de-fonds": {"latitude": 47.1034892, "longitude": 6.832783800000001, "race": "BCN Tour La Chaux-de-fonds", "date": {"mer. 12.05.2010": {"year": 2010, "day": 12, "month": 5, "categories": {"HS2": {"distance": 11, "rank": 224, "pace": 424000000000, "time": 4537.8}}, "weekday": "wednesday", "livingplace": "Ins"}}, "location": "La Chaux-de-Fonds"}, "BCN Tour Cornaux": {"latitude": 46.9668714, "longitude": 6.8589727, "race": "BCN Tour Cornaux", "date": {"mer. 25.04.2012": {"year": 2012, "day": 25, "month": 4, "categories": {"HS2": {"distance": 11, "rank": 248, "pace": 388000000000, "time": 4275.0}}, "weekday": "wednesday", "livingplace": "Ins"}}, "location": "Colombier NE"}, "BCN Tour #3 Dombresson": {"latitude": 46.999113, "longitude": 6.733554799999999, "race": "BCN Tour #3 Dombresson", "date": {"mer. 08.05.2013": {"year": 2013, "day": 8, "month": 5, "categories": {"HS2": {"distance": 10, "rank": 229, "pace": 310000000000, "time": 3078.0}}, "weekday": "wednesday", "livingplace": "Ins"}}, "location": "Les Ponts-de-Martel"}, "BCN Tour #6 Neuch\u00e2tel": {"latitude": 46.9899874, "longitude": 6.9292732, "race": "BCN Tour #6 Neuch\u00e2tel", "date": {"mer. 29.05.2013": {"year": 2013, "day": 29, "month": 5, "categories": {"HS2": {"distance": 11, "rank": 195, "pace": 327000000000, "time": 3602.9}}, "weekday": "wednesday", "livingplace": "Ins"}}, "location": "Neuch\u00e2tel"}}, "birth": 1965}