{"name": "Gannon Philippe", "sex": "M", "races": {"Montreux - Les Rochers de Naye": {"latitude": 46.4312213, "longitude": 6.9106799, "race": "Montreux - Les Rochers de Naye", "date": {"dim. 06.07.2014": {"year": 2014, "day": 6, "month": 7, "categories": {"M-HElite": {"distance": 19, "rank": 137, "pace": 463000000000, "time": 8705.3}}, "weekday": "sunday", "livingplace": "Lausanne"}, "dim. 08.07.2012": {"year": 2012, "day": 8, "month": 7, "categories": {"M-HElite": {"distance": 19, "rank": 41, "pace": 409000000000, "time": 7691.1}}, "weekday": "sunday", "livingplace": "Lausanne"}}, "location": "Montreux"}, "Course de l'Escalade, Gen\u00e8ve": {"latitude": 46.2043907, "longitude": 6.1431577, "race": "Course de l'Escalade, Gen\u00e8ve", "date": {"sam. 03.12.2011": {"year": 2011, "day": 3, "month": 12, "categories": {"H-H2": {"distance": 7, "rank": 356, "pace": 267000000000, "time": 1937.6}}, "weekday": "saturday", "livingplace": "Lausanne"}}, "location": "Gen\u00e8ve"}, "Lausanne Marathon": {"latitude": 46.5196535, "longitude": 6.6322734, "race": "Lausanne Marathon", "date": {"dim. 30.10.2011": {"year": 2011, "day": 30, "month": 10, "categories": {"10-H2": {"distance": 10, "rank": 58, "pace": 236000000000, "time": 2368.7}}, "weekday": "sunday", "livingplace": "Lausanne"}}, "location": "Lausanne"}, "Sierre-Zinal, Sierre": {"latitude": 46.29413110000001, "longitude": 7.533536199999999, "race": "Sierre-Zinal, Sierre", "date": {"dim. 10.08.2014": {"year": 2014, "day": 10, "month": 8, "categories": {"ElitesHo": {"distance": 31, "rank": 582, "pace": 626000000000, "time": 19428.2}}, "weekday": "sunday", "livingplace": "Lausanne"}, "dim. 11.08.2013": {"year": 2013, "day": 11, "month": 8, "categories": {"Elites": {"distance": 31, "rank": 327, "pace": 533000000000, "time": 16523.6}}, "weekday": "sunday", "livingplace": "Lausanne"}}, "location": "Sierre"}, "20km de Lausanne": {"latitude": 46.5196535, "longitude": 6.6322734, "race": "20km de Lausanne", "date": {"sam. 28.04.2012": {"year": 2012, "day": 28, "month": 4, "categories": {"10-H30": {"distance": 10, "rank": 32, "pace": 239000000000, "time": 2392.8}}, "weekday": "saturday", "livingplace": "Les \"On y va a donf`\""}}, "location": "Lausanne"}, "Les Traine-Savates, Cheseaux-sur-Lausanne": {"latitude": 46.585452, "longitude": 6.6047712, "race": "Les Traine-Savates, Cheseaux-sur-Lausanne", "date": {"sam. 18.04.2015": {"year": 2015, "day": 18, "month": 4, "categories": {"10-M20": {"distance": 10, "rank": 75, "pace": 253000000000, "time": 2608.6}}, "weekday": "saturday", "livingplace": "Lausanne"}}, "location": "Cheseaux-sur-Lausanne"}}, "birth": 1980}