{"name": "Gar\u00e7on Sam", "sex": "M", "races": {"Tour du Chablais #1 Roche": {"latitude": 46.2957462, "longitude": 6.9916269, "race": "Tour du Chablais #1 Roche", "date": {"mer. 07.04.2010": {"year": 2010, "day": 7, "month": 4, "categories": {"M-M50": {"distance": 9, "rank": 24, "pace": 273000000000, "time": 2444.4}}, "weekday": "wednesday", "livingplace": "Barboleusaz"}}, "location": "Ollon VD"}, "Tour du Chablais #2 Rennaz": {"latitude": 46.3835529, "longitude": 6.854975199999999, "race": "Tour du Chablais #2 Rennaz", "date": {"mer. 04.05.2011": {"year": 2011, "day": 4, "month": 5, "categories": {"M-M50": {"distance": 9, "rank": 36, "pace": 269000000000, "time": 2520.3}}, "weekday": "wednesday", "livingplace": "Barboleusaz"}}, "location": "Bouveret"}, "Tour du pays de Vaud #5 - Penthaz": {"latitude": 46.5993131, "longitude": 6.539251200000001, "race": "Tour du pays de Vaud #5 - Penthaz", "date": {"mer. 07.09.2011": {"year": 2011, "day": 7, "month": 9, "categories": {"H-Sen3": {"distance": 8, "rank": 19, "pace": 294000000000, "time": 2460.4}}, "weekday": "wednesday", "livingplace": "Gryon"}}, "location": "Penthaz"}, "Tour du Chablais #3 Bex": {"latitude": 46.1782231, "longitude": 7.0223787, "race": "Tour du Chablais #3 Bex", "date": {"mer. 21.04.2010": {"year": 2010, "day": 21, "month": 4, "categories": {"M-M50": {"distance": 10, "rank": 20, "pace": 273000000000, "time": 2730.1}}, "weekday": "wednesday", "livingplace": "Barboleusaz"}}, "location": "Evionnaz"}, "Morat-Fribourg": {"latitude": 46.92922110000001, "longitude": 7.120184, "race": "Morat-Fribourg", "date": {"sam. 02.10.2010": {"year": 2010, "day": 2, "month": 10, "categories": {"17-M50": {"distance": 17, "rank": 218, "pace": 315000000000, "time": 5412.8}}, "weekday": "saturday", "livingplace": "Barboleusaz"}}, "location": "Murten"}, "Tour du Chablais #3 Le Bouveret": {"latitude": 46.1782231, "longitude": 7.0223787, "race": "Tour du Chablais #3 Le Bouveret", "date": {"mer. 11.05.2011": {"year": 2011, "day": 11, "month": 5, "categories": {"M-M50": {"distance": 10, "rank": 30, "pace": 271000000000, "time": 2713.4}}, "weekday": "wednesday", "livingplace": "Barboleusaz"}}, "location": "Evionnaz"}, "Tour du Chablais #4 Morgins": {"latitude": NaN, "longitude": NaN, "race": "Tour du Chablais #4 Morgins", "date": {"mer. 18.05.2011": {"year": 2011, "day": 18, "month": 5, "categories": {"M-M50": {"distance": 8, "rank": 28, "pace": 289000000000, "time": 2421.4}}, "weekday": "wednesday", "livingplace": "Barboleusaz"}}, "location": "Les Mosses"}, "Tour du Chablais #1 Lavey": {"latitude": 46.2957462, "longitude": 6.9916269, "race": "Tour du Chablais #1 Lavey", "date": {"mer. 27.04.2011": {"year": 2011, "day": 27, "month": 4, "categories": {"M-M50": {"distance": 9, "rank": 34, "pace": 272000000000, "time": 2454.1}}, "weekday": "wednesday", "livingplace": "Barboleusaz"}}, "location": "Ollon VD"}, "Tour du Chablais #5 Leysin": {"latitude": 46.3603257, "longitude": 6.931504599999999, "race": "Tour du Chablais #5 Leysin", "date": {"mer. 05.05.2010": {"year": 2010, "day": 5, "month": 5, "categories": {"M-M50": {"distance": 8, "rank": 26, "pace": 299000000000, "time": 2527.4}}, "weekday": "wednesday", "livingplace": "Barboleusaz"}}, "location": "Roche VD"}, "Montreux - Les Rochers de Naye": {"latitude": 46.4312213, "longitude": 6.9106799, "race": "Montreux - Les Rochers de Naye", "date": {"dim. 10.07.2011": {"year": 2011, "day": 10, "month": 7, "categories": {"C-HV\u00e9t2": {"distance": 10, "rank": 4, "pace": 462000000000, "time": 4390.1}}, "weekday": "sunday", "livingplace": "Barboleusaz"}}, "location": "Montreux"}, "Tour du Chablais #6 Mouthey": {"latitude": 46.3190253, "longitude": 6.970566, "race": "Tour du Chablais #6 Mouthey", "date": {"mer. 12.05.2010": {"year": 2010, "day": 12, "month": 5, "categories": {"M-M50": {"distance": 9, "rank": 35, "pace": 267000000000, "time": 2463.7}}, "weekday": "wednesday", "livingplace": "Barboleusaz"}}, "location": "Aigle"}, "Tour du Chablais #5 Les Mosses": {"latitude": 46.3603257, "longitude": 6.931504599999999, "race": "Tour du Chablais #5 Les Mosses", "date": {"mer. 25.05.2011": {"year": 2011, "day": 25, "month": 5, "categories": {"M-M50": {"distance": 8, "rank": 22, "pace": 292000000000, "time": 2342.8}}, "weekday": "wednesday", "livingplace": "Barboleusaz"}}, "location": "Roche VD"}, "Lausanne Marathon": {"latitude": 46.5196535, "longitude": 6.6322734, "race": "Lausanne Marathon", "date": {"dim. 31.10.2010": {"year": 2010, "day": 31, "month": 10, "categories": {"21-H4": {"distance": 21, "rank": 93, "pace": 286000000000, "time": 6054.5}}, "weekday": "sunday", "livingplace": "Barboleusaz"}}, "location": "Lausanne"}, "Tour du Chablais #6 Aigle": {"latitude": 46.3190253, "longitude": 6.970566, "race": "Tour du Chablais #6 Aigle", "date": {"mer. 01.06.2011": {"year": 2011, "day": 1, "month": 6, "categories": {"M-M50": {"distance": 10, "rank": 28, "pace": 263000000000, "time": 2687.8}}, "weekday": "wednesday", "livingplace": "Barboleusaz"}}, "location": "Aigle"}, "Tour du Chablais #2 St-Gingolph": {"latitude": 46.3835529, "longitude": 6.854975199999999, "race": "Tour du Chablais #2 St-Gingolph", "date": {"mer. 14.04.2010": {"year": 2010, "day": 14, "month": 4, "categories": {"M-M50": {"distance": 8, "rank": 27, "pace": 293000000000, "time": 2454.4}}, "weekday": "wednesday", "livingplace": "Barboleusaz"}}, "location": "Bouveret"}, "Tour du Chablais #4 Yvorne": {"latitude": NaN, "longitude": NaN, "race": "Tour du Chablais #4 Yvorne", "date": {"mer. 28.04.2010": {"year": 2010, "day": 28, "month": 4, "categories": {"M-M50": {"distance": 8, "rank": 27, "pace": 293000000000, "time": 2432.7}}, "weekday": "wednesday", "livingplace": "Barboleusaz"}}, "location": "Les Mosses"}}, "birth": 1957}