{"name": "G\u00e4umann Miriam", "sex": "F", "races": {"Lucerne Marathon, Luzern": {"latitude": 47.05016819999999, "longitude": 8.3093072, "race": "Lucerne Marathon, Luzern", "date": {"dim. 25.10.2009": {"year": 2009, "day": 25, "month": 10, "categories": {"H-F20": {"distance": 21, "rank": 52, "pace": 297000000000, "time": 6273.8}}, "weekday": "sunday", "livingplace": "Bern"}}, "location": "Luzern"}, "Basel City Marathon": {"latitude": 47.5595986, "longitude": 7.5885761, "race": "Basel City Marathon", "date": {"dim. 03.09.2006": {"year": 2006, "day": 3, "month": 9, "categories": {"H-F20": {"distance": 21, "rank": 12, "pace": 307000000000, "time": 6481.8}}, "weekday": "sunday", "livingplace": "Thun"}}, "location": "Basel"}, "Morat-Fribourg": {"latitude": 46.92922110000001, "longitude": 7.120184, "race": "Morat-Fribourg", "date": {"sam. 02.10.2010": {"year": 2010, "day": 2, "month": 10, "categories": {"17-W20": {"distance": 17, "rank": 114, "pace": 323000000000, "time": 5551.0}}, "weekday": "saturday", "livingplace": "Bern"}}, "location": "Murten"}, "20km de Lausanne": {"latitude": 46.5196535, "longitude": 6.6322734, "race": "20km de Lausanne", "date": {"sam. 24.04.2010": {"year": 2010, "day": 24, "month": 4, "categories": {"20-F20": {"distance": 20, "rank": 30, "pace": 311000000000, "time": 6238.5}}, "weekday": "saturday", "livingplace": "Bern"}}, "location": "Lausanne"}, "Int Greifenseelauf, Uster": {"latitude": 47.3482747, "longitude": 8.717873899999999, "race": "Int Greifenseelauf, Uster", "date": {"sam. 22.09.2007": {"year": 2007, "day": 22, "month": 9, "categories": {"K/W20": {"distance": 21, "rank": 104, "pace": 317000000000, "time": 6702.2}}, "weekday": "saturday", "livingplace": "Thun"}, "sam. 19.09.2009": {"year": 2009, "day": 19, "month": 9, "categories": {"H-W20": {"distance": 21, "rank": 68, "pace": 304000000000, "time": 6417.8}}, "weekday": "saturday", "livingplace": "Bern"}}, "location": "Uster"}}, "birth": 1982}