{"name": "Gauthier Tonny", "sex": "M", "races": {"BCN Tour Couvet": {"latitude": 47.0624261, "longitude": 6.9175754, "race": "BCN Tour Couvet", "date": {"mer. 02.05.2012": {"year": 2012, "day": 2, "month": 5, "categories": {"HS1": {"distance": 11, "rank": 42, "pace": 261000000000, "time": 2914.0}}, "weekday": "wednesday", "livingplace": "Les Gras"}}, "location": "Ch\u00e9zard-St-Martin"}, "BCN Tour La Br\u00e9vine": {"latitude": 46.999113, "longitude": 6.733554799999999, "race": "BCN Tour La Br\u00e9vine", "date": {"mer. 04.05.2011": {"year": 2011, "day": 4, "month": 5, "categories": {"HS1": {"distance": 10, "rank": 65, "pace": 275000000000, "time": 2758.4}}, "weekday": "wednesday", "livingplace": "Les Gras"}}, "location": "Les Ponts-de-Martel"}, "BCN Tour Fontaine Cernier": {"latitude": 47.0624261, "longitude": 6.9175754, "race": "BCN Tour Fontaine Cernier", "date": {"mer. 27.04.2011": {"year": 2011, "day": 27, "month": 4, "categories": {"HS1": {"distance": 10, "rank": 87, "pace": 266000000000, "time": 2746.2}}, "weekday": "wednesday", "livingplace": "Les Gras"}}, "location": "Ch\u00e9zard-St-Martin"}, "La Trotteuse-Tissot, La Chaux-de-Fonds": {"latitude": 47.1034892, "longitude": 6.832783800000001, "race": "La Trotteuse-Tissot, La Chaux-de-Fonds", "date": {"sam. 14.12.2013": {"year": 2013, "day": 14, "month": 12, "categories": {"GC-H30": {"distance": 8, "rank": 19, "pace": 233000000000, "time": 1870.7}}, "weekday": "saturday", "livingplace": "Les Gras"}, "sam. 12.12.2015": {"year": 2015, "day": 12, "month": 12, "categories": {"GC-H30": {"distance": 8, "rank": 31, "pace": 240000000000, "time": 1922.1}}, "weekday": "saturday", "livingplace": "Les Gras"}}, "location": "La Chaux-de-Fonds"}, "BCN Tour #1 Corcelles": {"latitude": 46.9668714, "longitude": 6.8589727, "race": "BCN Tour #1 Corcelles", "date": {"mer. 24.04.2013": {"year": 2013, "day": 24, "month": 4, "categories": {"HS1": {"distance": 10, "rank": 18, "pace": 243000000000, "time": 2385.2}}, "weekday": "wednesday", "livingplace": "Les Gras"}}, "location": "Colombier NE"}, "BCN Tour Auvernier": {"latitude": 46.9668714, "longitude": 6.8589727, "race": "BCN Tour Auvernier", "date": {"mer. 20.04.2011": {"year": 2011, "day": 20, "month": 4, "categories": {"HS1": {"distance": 11, "rank": 61, "pace": 278000000000, "time": 3004.4}}, "weekday": "wednesday", "livingplace": "Les Gras"}}, "location": "Colombier NE"}, "BCN Tour #4 Fleurier": {"latitude": 47.1034892, "longitude": 6.832783800000001, "race": "BCN Tour #4 Fleurier", "date": {"mer. 15.05.2013": {"year": 2013, "day": 15, "month": 5, "categories": {"HS1": {"distance": 9, "rank": 15, "pace": 241000000000, "time": 2088.3}}, "weekday": "wednesday", "livingplace": "Les Gras"}}, "location": "La Chaux-de-Fonds"}, "BCN Tour Colombier": {"latitude": 47.1034892, "longitude": 6.832783800000001, "race": "BCN Tour Colombier", "date": {"mer. 16.05.2012": {"year": 2012, "day": 16, "month": 5, "categories": {"HS1": {"distance": 11, "rank": 204, "pace": 328000000000, "time": 3549.0}}, "weekday": "wednesday", "livingplace": "Les Gras"}}, "location": "La Chaux-de-Fonds"}, "Lausanne Marathon": {"latitude": 46.5196535, "longitude": 6.6322734, "race": "Lausanne Marathon", "date": {"sam. 24.10.2015": {"year": 2015, "day": 24, "month": 10, "categories": {"21-H30": {"distance": 21, "rank": 102, "pace": 259000000000, "time": 5478.5}}, "weekday": "saturday", "livingplace": "Les Gras"}}, "location": "Lausanne"}, "BCN Tour La Chaux-de-Fonds": {"latitude": 47.1034892, "longitude": 6.832783800000001, "race": "BCN Tour La Chaux-de-Fonds", "date": {"mer. 23.05.2012": {"year": 2012, "day": 23, "month": 5, "categories": {"HS1": {"distance": 11, "rank": 66, "pace": 267000000000, "time": 2887.6}}, "weekday": "wednesday", "livingplace": "Les Gras"}, "mer. 11.05.2011": {"year": 2011, "day": 11, "month": 5, "categories": {"HS1": {"distance": 11, "rank": 83, "pace": 315000000000, "time": 3380.1}}, "weekday": "wednesday", "livingplace": "Les Gras"}}, "location": "La Chaux-de-Fonds"}, "BCN Tour #6 Neuch\u00e2tel": {"latitude": 46.9899874, "longitude": 6.9292732, "race": "BCN Tour #6 Neuch\u00e2tel", "date": {"mer. 29.05.2013": {"year": 2013, "day": 29, "month": 5, "categories": {"HS1": {"distance": 11, "rank": 22, "pace": 249000000000, "time": 2741.5}}, "weekday": "wednesday", "livingplace": "Les Gras"}}, "location": "Neuch\u00e2tel"}, "BCN Tour Les Ponts-de-Martel": {"latitude": 46.999113, "longitude": 6.733554799999999, "race": "BCN Tour Les Ponts-de-Martel", "date": {"mer. 09.05.2012": {"year": 2012, "day": 9, "month": 5, "categories": {"HS1": {"distance": 10, "rank": 243, "pace": 364000000000, "time": 3753.1}}, "weekday": "wednesday", "livingplace": "Les Gras"}}, "location": "Les Ponts-de-Martel"}, "BCN Tour Neuch\u00e2tel": {"latitude": 46.9899874, "longitude": 6.9292732, "race": "BCN Tour Neuch\u00e2tel", "date": {"mer. 30.05.2012": {"year": 2012, "day": 30, "month": 5, "categories": {"HS1": {"distance": 11, "rank": 55, "pace": 276000000000, "time": 3094.8}}, "weekday": "wednesday", "livingplace": "Les Gras"}, "mer. 25.05.2011": {"year": 2011, "day": 25, "month": 5, "categories": {"HS1": {"distance": 11, "rank": 85, "pace": 280000000000, "time": 3192.3}}, "weekday": "wednesday", "livingplace": "Les Gras"}}, "location": "Neuch\u00e2tel"}, "BCN Tour Les Ponts de Martel": {"latitude": 46.9262933, "longitude": 6.6324944, "race": "BCN Tour Les Ponts de Martel", "date": {"mer. 18.05.2011": {"year": 2011, "day": 18, "month": 5, "categories": {"HS1": {"distance": 13, "rank": 68, "pace": 280000000000, "time": 3586.4}}, "weekday": "wednesday", "livingplace": "Les Gras"}}, "location": "Couvet"}, "BCN Tour #5 Colombier": {"latitude": 46.9262933, "longitude": 6.6324944, "race": "BCN Tour #5 Colombier", "date": {"mer. 22.05.2013": {"year": 2013, "day": 22, "month": 5, "categories": {"HS1": {"distance": 11, "rank": 26, "pace": 227000000000, "time": 2393.9}}, "weekday": "wednesday", "livingplace": "Les Gras"}}, "location": "Couvet"}, "BCN Tour #2 La Chaux-de-Fonds": {"latitude": 47.0624261, "longitude": 6.9175754, "race": "BCN Tour #2 La Chaux-de-Fonds", "date": {"mer. 01.05.2013": {"year": 2013, "day": 1, "month": 5, "categories": {"HS1": {"distance": 11, "rank": 25, "pace": 242000000000, "time": 2591.2}}, "weekday": "wednesday", "livingplace": "Les Gras"}}, "location": "Ch\u00e9zard-St-Martin"}, "BCN Tour Cornaux": {"latitude": 46.9668714, "longitude": 6.8589727, "race": "BCN Tour Cornaux", "date": {"mer. 25.04.2012": {"year": 2012, "day": 25, "month": 4, "categories": {"HS1": {"distance": 11, "rank": 38, "pace": 276000000000, "time": 3046.0}}, "weekday": "wednesday", "livingplace": "Les Gras"}}, "location": "Colombier NE"}, "BCN Tour #3 Dombresson": {"latitude": 46.999113, "longitude": 6.733554799999999, "race": "BCN Tour #3 Dombresson", "date": {"mer. 08.05.2013": {"year": 2013, "day": 8, "month": 5, "categories": {"HS1": {"distance": 10, "rank": 32, "pace": 246000000000, "time": 2437.6}}, "weekday": "wednesday", "livingplace": "Les Gras"}}, "location": "Les Ponts-de-Martel"}}, "birth": 1976}