{"name": "Gay Alexandre", "sex": "M", "races": {"Tour du Pays de Vaud #2 - Genolier": {"latitude": 46.5955273, "longitude": 6.7702883, "race": "Tour du Pays de Vaud #2 - Genolier", "date": {"mer. 15.08.2012": {"year": 2012, "day": 15, "month": 8, "categories": {"H-Sen2": {"distance": 9, "rank": 71, "pace": 286000000000, "time": 2435.9}}, "weekday": "wednesday", "livingplace": "Morges"}}, "location": "M\u00e9zi\u00e8res VD"}, "Les Traine-Savates, Cheseaux-sur-Lausanne": {"latitude": 46.585452, "longitude": 6.6047712, "race": "Les Traine-Savates, Cheseaux-sur-Lausanne", "date": {"sam. 18.04.2015": {"year": 2015, "day": 18, "month": 4, "categories": {"10-M40": {"distance": 10, "rank": 104, "pace": 282000000000, "time": 2908.6}}, "weekday": "saturday", "livingplace": "Morges"}, "sam. 12.04.2014": {"year": 2014, "day": 12, "month": 4, "categories": {"10-M40": {"distance": 10, "rank": 77, "pace": 272000000000, "time": 2810.2}}, "weekday": "saturday", "livingplace": "Morges"}}, "location": "Cheseaux-sur-Lausanne"}, "Morat-Fribourg": {"latitude": 46.92922110000001, "longitude": 7.120184, "race": "Morat-Fribourg", "date": {"sam. 01.10.2011": {"year": 2011, "day": 1, "month": 10, "categories": {"17-M45": {"distance": 17, "rank": 318, "pace": 306000000000, "time": 5270.4}}, "weekday": "saturday", "livingplace": "Morges"}, "sam. 06.10.2012": {"year": 2012, "day": 6, "month": 10, "categories": {"17-M45": {"distance": 17, "rank": 220, "pace": 294000000000, "time": 5131.6}}, "weekday": "saturday", "livingplace": "Morges"}, "sam. 04.10.2014": {"year": 2014, "day": 4, "month": 10, "categories": {"17-M45": {"distance": 17, "rank": 265, "pace": 303000000000, "time": 5214.4}}, "weekday": "saturday", "livingplace": "Morges"}}, "location": "Murten"}, "Semi-Marathon de la C\u00f4te, Allaman-Nyon": {"latitude": 46.3832683, "longitude": 6.2347852, "race": "Semi-Marathon de la C\u00f4te, Allaman-Nyon", "date": {"dim. 14.09.2014": {"year": 2014, "day": 14, "month": 9, "categories": {"21-H45": {"distance": 21, "rank": 52, "pace": 290000000000, "time": 6133.7}}, "weekday": "sunday", "livingplace": "Morges"}}, "location": "Nyon"}, "Tour du Pays de Vaud printanier #3 - Yens": {"latitude": 46.7829756, "longitude": 6.5728678, "race": "Tour du Pays de Vaud printanier #3 - Yens", "date": {"mer. 12.06.2013": {"year": 2013, "day": 12, "month": 6, "categories": {"H-Sen2": {"distance": 9, "rank": 42, "pace": 293000000000, "time": 2675.2}}, "weekday": "wednesday", "livingplace": "Morges"}, "mer. 18.06.2014": {"year": 2014, "day": 18, "month": 6, "categories": {"H-Sen2": {"distance": 9, "rank": 23, "pace": 271000000000, "time": 2474.5}}, "weekday": "wednesday", "livingplace": "Morges"}}, "location": "Champvent"}, "Tour du pays de Vaud #6 - St  Prex": {"latitude": 46.4829113, "longitude": 6.458343500000001, "race": "Tour du pays de Vaud #6 - St  Prex", "date": {"mer. 14.09.2011": {"year": 2011, "day": 14, "month": 9, "categories": {"H-Sen2": {"distance": 9, "rank": 105, "pace": 282000000000, "time": 2431.0}}, "weekday": "wednesday", "livingplace": "Morges"}}, "location": "St-Prex"}, "Tour du pays de Vaud #1 - Penthaz": {"latitude": 46.5993131, "longitude": 6.539251200000001, "race": "Tour du pays de Vaud #1 - Penthaz", "date": {"mer. 08.08.2012": {"year": 2012, "day": 8, "month": 8, "categories": {"H-Sen2": {"distance": 9, "rank": 69, "pace": 285000000000, "time": 2439.0}}, "weekday": "wednesday", "livingplace": "Morges"}}, "location": "Penthaz"}, "Tour du Pays de Vaud #4 - La Sarraz": {"latitude": 46.7088129, "longitude": 6.5707689, "race": "Tour du Pays de Vaud #4 - La Sarraz", "date": {"mer. 29.08.2012": {"year": 2012, "day": 29, "month": 8, "categories": {"H-Sen2": {"distance": 9, "rank": 69, "pace": 276000000000, "time": 2354.2}}, "weekday": "wednesday", "livingplace": "Morges"}, "mer. 04.09.2013": {"year": 2013, "day": 4, "month": 9, "categories": {"H-Sen2": {"distance": 9, "rank": 83, "pace": 291000000000, "time": 2477.1}}, "weekday": "wednesday", "livingplace": "Morges"}}, "location": "Chavornay"}, "20km de Lausanne": {"latitude": 46.5196535, "longitude": 6.6322734, "race": "20km de Lausanne", "date": {"sam. 26.04.2014": {"year": 2014, "day": 26, "month": 4, "categories": {"10-H45": {"distance": 10, "rank": 54, "pace": 270000000000, "time": 2705.7}}, "weekday": "saturday", "livingplace": "Morges"}}, "location": "Lausanne"}, "Tour du Pays de Vaud printanier #2 Yens": {"latitude": 46.6698891, "longitude": 6.7975224, "race": "Tour du Pays de Vaud printanier #2 Yens", "date": {"mer. 06.06.2012": {"year": 2012, "day": 6, "month": 6, "categories": {"H-Sen2": {"distance": 9, "rank": 34, "pace": 288000000000, "time": 2621.4}}, "weekday": "wednesday", "livingplace": "Morges"}}, "location": "Moudon"}}, "birth": 1966}