{"name": "Geissmann Esty", "sex": "F", "races": {"Pfingstlauf Wohlen AG": {"latitude": 47.3493653, "longitude": 8.2768762, "race": "Pfingstlauf Wohlen AG", "date": {"sam. 30.05.2009": {"year": 2009, "day": 30, "month": 5, "categories": {"8-F40": {"distance": 8, "rank": 19, "pace": 294000000000, "time": 2415.2}}, "weekday": "saturday", "livingplace": "esty@sunrise.ch"}}, "location": "Wohlen AG"}, "Rotseelauf, Ebikon": {"latitude": NaN, "longitude": NaN, "race": "Rotseelauf, Ebikon", "date": {"sam. 04.04.2009": {"year": 2009, "day": 4, "month": 4, "categories": {"F40": {"distance": 10, "rank": 32, "pace": 311000000000, "time": 3110.7}}, "weekday": "saturday", "livingplace": "Allschwil"}}, "location": "Ebikon"}, "ASICS Bremgarter Reusslauf": {"latitude": 47.34917739999999, "longitude": 8.3397905, "race": "ASICS Bremgarter Reusslauf", "date": {"sam. 27.02.2010": {"year": 2010, "day": 27, "month": 2, "categories": {"F40": {"distance": 11, "rank": 110, "pace": 313000000000, "time": 3449.1}}, "weekday": "saturday", "livingplace": "Allschwil"}}, "location": "Bremgarten AG"}, "Lenzburger Lauf": {"latitude": 47.3904443, "longitude": 8.172154500000001, "race": "Lenzburger Lauf", "date": {"sam. 29.05.2010": {"year": 2010, "day": 29, "month": 5, "categories": {"11-F40": {"distance": 12, "rank": 15, "pace": 354000000000, "time": 4110.8}}, "weekday": "saturday", "livingplace": "Allschwil"}}, "location": "Lenzburg"}, "Liestaler Stadtlauf": {"latitude": 47.4866143, "longitude": 7.7334272, "race": "Liestaler Stadtlauf", "date": {"mer. 31.08.2011": {"year": 2011, "day": 31, "month": 8, "categories": {"W50": {"distance": 12, "rank": 4, "pace": 338000000000, "time": 4067.5}}, "weekday": "wednesday", "livingplace": "Allschwil"}}, "location": "Liestal"}, "Kerzerslauf": {"latitude": 46.97488999999999, "longitude": 7.1954365, "race": "Kerzerslauf", "date": {"sam. 20.03.2010": {"year": 2010, "day": 20, "month": 3, "categories": {"15-F45": {"distance": 15, "rank": 111, "pace": 327000000000, "time": 4909.8}}, "weekday": "saturday", "livingplace": "Allschwil"}}, "location": "Kerzers"}, "Z\u00fcrcher Silvesterlauf, Z\u00fcrich": {"latitude": 47.3768866, "longitude": 8.541694, "race": "Z\u00fcrcher Silvesterlauf, Z\u00fcrich", "date": {"dim. 14.12.2008": {"year": 2008, "day": 14, "month": 12, "categories": {"DaAK2-8": {"distance": 9, "rank": 103, "pace": 300000000000, "time": 2582.9}}, "weekday": "sunday", "livingplace": "Allschwil"}}, "location": "Z\u00fcrich"}}, "birth": 1961}