{"name": "Gendroz Raoul", "sex": "M", "races": {"Tour du Pays de Vaud etape 5 - La Sarraz": {"latitude": 46.5993131, "longitude": 6.539251200000001, "race": "Tour du Pays de Vaud etape 5 - La Sarraz", "date": {"mer. 09.09.2009": {"year": 2009, "day": 9, "month": 9, "categories": {"HS1": {"distance": 9, "rank": 26, "pace": 240000000000, "time": 2024.2}}, "weekday": "wednesday", "livingplace": "Corcelles le Jorat"}, "mer. 10.09.2008": {"year": 2008, "day": 10, "month": 9, "categories": {"HomSen1": {"distance": 9, "rank": 19, "pace": 231000000000, "time": 1987.7}}, "weekday": "wednesday", "livingplace": "Corcelles le Jorat"}}, "location": "Penthaz"}, "Tour du Pays de Vaud etape 1 - Le Mont sur Lausanne": {"latitude": 46.7784736, "longitude": 6.641183, "race": "Tour du Pays de Vaud etape 1 - Le Mont sur Lausanne", "date": {"mer. 13.08.2008": {"year": 2008, "day": 13, "month": 8, "categories": {"HomSen1": {"distance": 8, "rank": 27, "pace": 248000000000, "time": 2090.9}}, "weekday": "wednesday", "livingplace": "Corcelles le Jorat"}}, "location": "Yverdon-les-Bains"}, "Morat-Fribourg": {"latitude": 46.92922110000001, "longitude": 7.120184, "race": "Morat-Fribourg", "date": {"sam. 03.10.2009": {"year": 2009, "day": 3, "month": 10, "categories": {"C-M20": {"distance": 17, "rank": 377, "pace": 271000000000, "time": 4658.2}}, "weekday": "saturday", "livingplace": "Corcelles le Jorat"}, "sam. 04.10.2008": {"year": 2008, "day": 4, "month": 10, "categories": {"C-M20": {"distance": 17, "rank": 349, "pace": 266000000000, "time": 4573.3}}, "weekday": "saturday", "livingplace": "Corcelles le Jorat"}, "sam. 06.10.2007": {"year": 2007, "day": 6, "month": 10, "categories": {"C/M20": {"distance": 17, "rank": 523, "pace": 278000000000, "time": 4780.7}}, "weekday": "saturday", "livingplace": "Corcelles le Jorat"}}, "location": "Murten"}, "Tour du Pays de Vaud #2, Mezi\u00e8res": {"latitude": 46.5955273, "longitude": 6.7702883, "race": "Tour du Pays de Vaud #2, Mezi\u00e8res", "date": {"mer. 20.08.2014": {"year": 2014, "day": 20, "month": 8, "categories": {"H-Sen1": {"distance": 8, "rank": 83, "pace": 319000000000, "time": 2590.8}}, "weekday": "wednesday", "livingplace": "Corcelles le Jorat"}}, "location": "M\u00e9zi\u00e8res VD"}, "Tour du Pays de Vaud etape 2 - Genolier": {"latitude": 46.5955273, "longitude": 6.7702883, "race": "Tour du Pays de Vaud etape 2 - Genolier", "date": {"mer. 20.08.2008": {"year": 2008, "day": 20, "month": 8, "categories": {"HomSen1": {"distance": 8, "rank": 106, "pace": 347000000000, "time": 2884.9}}, "weekday": "wednesday", "livingplace": "Corcelles le Jorat"}}, "location": "M\u00e9zi\u00e8res VD"}, "Tour du Pays de Vaud etape 3 - Aubonne": {"latitude": 46.7829756, "longitude": 6.5728678, "race": "Tour du Pays de Vaud etape 3 - Aubonne", "date": {"mer. 27.08.2008": {"year": 2008, "day": 27, "month": 8, "categories": {"HomSen1": {"distance": 8, "rank": 23, "pace": 261000000000, "time": 2043.0}}, "weekday": "wednesday", "livingplace": "Corcelles le Jorat"}}, "location": "Champvent"}, "Lausanne Marathon": {"latitude": 46.5196535, "longitude": 6.6322734, "race": "Lausanne Marathon", "date": {"sam. 24.10.2015": {"year": 2015, "day": 24, "month": 10, "categories": {"10-H30": {"distance": 10, "rank": 635, "pace": 331000000000, "time": 3316.0}}, "weekday": "saturday", "livingplace": "Corcelles le Jorat"}}, "location": "Lausanne"}, "Course de l'Escalade, Gen\u00e8ve": {"latitude": 46.2043907, "longitude": 6.1431577, "race": "Course de l'Escalade, Gen\u00e8ve", "date": {"sam. 06.12.2003": {"year": 2003, "day": 6, "month": 12, "categories": {"Hommes1": {"distance": 7, "rank": 620, "pace": 291000000000, "time": 2115.2}}, "weekday": "saturday", "livingplace": "Corcelles"}}, "location": "Gen\u00e8ve"}, "20km de Lausanne": {"latitude": 46.5196535, "longitude": 6.6322734, "race": "20km de Lausanne", "date": {"sam. 28.04.2007": {"year": 2007, "day": 28, "month": 4, "categories": {"20H20": {"distance": 20, "rank": 76, "pace": 276000000000, "time": 5533.2}}, "weekday": "saturday", "livingplace": "Corcelles le Jorat"}, "sam. 25.04.2015": {"year": 2015, "day": 25, "month": 4, "categories": {"10-H30": {"distance": 10, "rank": 567, "pace": 307000000000, "time": 3074.2}}, "weekday": "saturday", "livingplace": "Association Cerebral Vaud"}, "sam. 22.04.2006": {"year": 2006, "day": 22, "month": 4, "categories": {"20/H20": {"distance": 20, "rank": 96, "pace": 289000000000, "time": 5799.4}}, "weekday": "saturday", "livingplace": "Corcelles le Jorat"}}, "location": "Lausanne"}, "Kerzerslauf": {"latitude": 46.97488999999999, "longitude": 7.1954365, "race": "Kerzerslauf", "date": {"sam. 21.03.2009": {"year": 2009, "day": 21, "month": 3, "categories": {"15-M20": {"distance": 15, "rank": 235, "pace": 267000000000, "time": 4009.3}}, "weekday": "saturday", "livingplace": "Corcelles le Jorat"}}, "location": "Kerzers"}}, "birth": 1978}