{"name": "Genolet Sandra", "sex": "F", "races": {"Tour du Pays de Vaud etape 5 - La Sarraz": {"latitude": 46.5993131, "longitude": 6.539251200000001, "race": "Tour du Pays de Vaud etape 5 - La Sarraz", "date": {"mer. 10.09.2008": {"year": 2008, "day": 10, "month": 9, "categories": {"DamSen2": {"distance": 9, "rank": 40, "pace": 357000000000, "time": 3071.3}}, "weekday": "wednesday", "livingplace": "Chigny"}}, "location": "Penthaz"}, "20km de Lausanne": {"latitude": 46.5196535, "longitude": 6.6322734, "race": "20km de Lausanne", "date": {"sam. 30.04.2011": {"year": 2011, "day": 30, "month": 4, "categories": {"20-F45": {"distance": 20, "rank": 91, "pace": 373000000000, "time": 7463.4}}, "weekday": "saturday", "livingplace": "Chigny"}}, "location": "Lausanne"}, "Morat-Fribourg": {"latitude": 46.92922110000001, "longitude": 7.120184, "race": "Morat-Fribourg", "date": {"dim. 05.10.2003": {"year": 2003, "day": 5, "month": 10, "categories": {"W35": {"distance": 17, "rank": 184, "pace": 375000000000, "time": 6447.7}}, "weekday": "sunday", "livingplace": "Bursins"}}, "location": "Murten"}, "Basler Marathon-Tage": {"latitude": 47.5595986, "longitude": 7.5885761, "race": "Basler Marathon-Tage", "date": {"sam. 30.10.2004": {"year": 2004, "day": 30, "month": 10, "categories": {"S-HM/W40": {"distance": 21, "rank": 50, "pace": 364000000000, "time": 7681.9}}, "weekday": "saturday", "livingplace": "Bursins"}}, "location": "Basel"}, "Tour du Pays de Vaud etape 3 - Aubonne": {"latitude": 46.7829756, "longitude": 6.5728678, "race": "Tour du Pays de Vaud etape 3 - Aubonne", "date": {"mer. 27.08.2008": {"year": 2008, "day": 27, "month": 8, "categories": {"DamSen2": {"distance": 8, "rank": 50, "pace": 407000000000, "time": 3177.9}}, "weekday": "wednesday", "livingplace": "Chigny"}}, "location": "Champvent"}}, "birth": 1964}