{"name": "Genolet Pierre-Michel", "sex": "M", "races": {"Tour du Pays de Vaud etape 5 - La Sarraz": {"latitude": 46.5993131, "longitude": 6.539251200000001, "race": "Tour du Pays de Vaud etape 5 - La Sarraz", "date": {"mer. 10.09.2008": {"year": 2008, "day": 10, "month": 9, "categories": {"HomSen3": {"distance": 9, "rank": 70, "pace": 322000000000, "time": 2774.7}}, "weekday": "wednesday", "livingplace": "Pully"}}, "location": "Penthaz"}, "Course de l'Escalade, Gen\u00e8ve": {"latitude": 46.2043907, "longitude": 6.1431577, "race": "Course de l'Escalade, Gen\u00e8ve", "date": {"sam. 07.12.2002": {"year": 2002, "day": 7, "month": 12, "categories": {"Hommes3": {"distance": 7, "rank": 321, "pace": 268000000000, "time": 1943.3}}, "weekday": "saturday", "livingplace": "Pully"}}, "location": "Gen\u00e8ve"}, "Tour du Pays de Vaud etape 1 - Le Mont sur Lausanne": {"latitude": 46.7784736, "longitude": 6.641183, "race": "Tour du Pays de Vaud etape 1 - Le Mont sur Lausanne", "date": {"mer. 13.08.2008": {"year": 2008, "day": 13, "month": 8, "categories": {"HomSen3": {"distance": 8, "rank": 57, "pace": 318000000000, "time": 2671.7}}, "weekday": "wednesday", "livingplace": "Pully"}}, "location": "Yverdon-les-Bains"}, "20km de Lausanne": {"latitude": 46.5196535, "longitude": 6.6322734, "race": "20km de Lausanne", "date": {"sam. 30.04.2011": {"year": 2011, "day": 30, "month": 4, "categories": {"10-H50": {"distance": 10, "rank": 231, "pace": 358000000000, "time": 3584.9}}, "weekday": "saturday", "livingplace": "Se bouger pour sa sante 3"}, "sam. 25.04.2009": {"year": 2009, "day": 25, "month": 4, "categories": {"10-H50": {"distance": 10, "rank": 134, "pace": 330000000000, "time": 3308.6}}, "weekday": "saturday", "livingplace": "Ton toubib se bouge 3"}}, "location": "Lausanne"}, "Tour du pays de Vaud #5 - Penthaz": {"latitude": 46.5993131, "longitude": 6.539251200000001, "race": "Tour du pays de Vaud #5 - Penthaz", "date": {"mer. 07.09.2011": {"year": 2011, "day": 7, "month": 9, "categories": {"H-Sen3": {"distance": 8, "rank": 76, "pace": 384000000000, "time": 3208.3}}, "weekday": "wednesday", "livingplace": "Pully"}}, "location": "Penthaz"}, "Tour du Pays de Vaud #2 - Genolier": {"latitude": 46.5955273, "longitude": 6.7702883, "race": "Tour du Pays de Vaud #2 - Genolier", "date": {"mer. 17.08.2011": {"year": 2011, "day": 17, "month": 8, "categories": {"H-Sen3": {"distance": 9, "rank": 70, "pace": 356000000000, "time": 3027.2}}, "weekday": "wednesday", "livingplace": "Pully"}}, "location": "M\u00e9zi\u00e8res VD"}, "Montreux - Les Rochers de Naye": {"latitude": 46.4312213, "longitude": 6.9106799, "race": "Montreux - Les Rochers de Naye", "date": {"dim. 30.06.2002": {"year": 2002, "day": 30, "month": 6, "categories": {"V\u00e9t1": {"distance": 20, "rank": 60, "pace": 482000000000, "time": 9787.5}}, "weekday": "sunday", "livingplace": "Pully"}}, "location": "Montreux"}, "Morat-Fribourg": {"latitude": 46.92922110000001, "longitude": 7.120184, "race": "Morat-Fribourg", "date": {"dim. 05.10.2003": {"year": 2003, "day": 5, "month": 10, "categories": {"M45": {"distance": 17, "rank": 353, "pace": 312000000000, "time": 5357.3}}, "weekday": "sunday", "livingplace": "Pully"}, "dim. 07.10.2001": {"year": 2001, "day": 7, "month": 10, "categories": {"M40": {"distance": 17, "rank": 500, "pace": 311000000000, "time": 5347.9}}, "weekday": "sunday", "livingplace": "Pully"}}, "location": "Murten"}, "Tour du Pays de Vaud etape 2 - Genolier": {"latitude": 46.5955273, "longitude": 6.7702883, "race": "Tour du Pays de Vaud etape 2 - Genolier", "date": {"mer. 20.08.2008": {"year": 2008, "day": 20, "month": 8, "categories": {"HomSen3": {"distance": 8, "rank": 62, "pace": 314000000000, "time": 2610.5}}, "weekday": "wednesday", "livingplace": "Pully"}, "mer. 19.08.2009": {"year": 2009, "day": 19, "month": 8, "categories": {"HSen3": {"distance": 8, "rank": 71, "pace": 339000000000, "time": 2751.1}}, "weekday": "wednesday", "livingplace": "Pully"}}, "location": "M\u00e9zi\u00e8res VD"}, "Tour du Pays de Vaud etape 3 - Aubonne": {"latitude": 46.7829756, "longitude": 6.5728678, "race": "Tour du Pays de Vaud etape 3 - Aubonne", "date": {"mer. 27.08.2008": {"year": 2008, "day": 27, "month": 8, "categories": {"HomSen3": {"distance": 8, "rank": 69, "pace": 354000000000, "time": 2764.0}}, "weekday": "wednesday", "livingplace": "Pully"}}, "location": "Champvent"}, "Lausanne Marathon": {"latitude": 46.5196535, "longitude": 6.6322734, "race": "Lausanne Marathon", "date": {"dim. 31.10.2010": {"year": 2010, "day": 31, "month": 10, "categories": {"21-H4": {"distance": 21, "rank": 274, "pace": 335000000000, "time": 7077.5}}, "weekday": "sunday", "livingplace": "Pully"}}, "location": "Lausanne"}, "Tour du pays de Vaud #6 - St  Prex": {"latitude": 46.4829113, "longitude": 6.458343500000001, "race": "Tour du pays de Vaud #6 - St  Prex", "date": {"mer. 14.09.2011": {"year": 2011, "day": 14, "month": 9, "categories": {"H-Sen3": {"distance": 9, "rank": 110, "pace": 357000000000, "time": 3078.1}}, "weekday": "wednesday", "livingplace": "Pully"}}, "location": "St-Prex"}, "Tour du pays de Vaud #1 - Penthaz": {"latitude": 46.5993131, "longitude": 6.539251200000001, "race": "Tour du pays de Vaud #1 - Penthaz", "date": {"mer. 08.08.2012": {"year": 2012, "day": 8, "month": 8, "categories": {"H-Sen3": {"distance": 9, "rank": 76, "pace": 361000000000, "time": 3084.1}}, "weekday": "wednesday", "livingplace": "Pully"}}, "location": "Penthaz"}}, "birth": 1958}