{"name": "Genoud Jean-Fran\u00e7ois", "sex": "M", "races": {"Tour du Chablais #2 Rennaz": {"latitude": 46.3835529, "longitude": 6.854975199999999, "race": "Tour du Chablais #2 Rennaz", "date": {"mer. 04.05.2011": {"year": 2011, "day": 4, "month": 5, "categories": {"M-M50": {"distance": 9, "rank": 62, "pace": 295000000000, "time": 2761.8}}, "weekday": "wednesday", "livingplace": "Noes"}}, "location": "Bouveret"}, "Tour du Chablais #1 Roche": {"latitude": 46.2957462, "longitude": 6.9916269, "race": "Tour du Chablais #1 Roche", "date": {"mer. 03.04.2013": {"year": 2013, "day": 3, "month": 4, "categories": {"M-M50": {"distance": 9, "rank": 42, "pace": 274000000000, "time": 2428.5}}, "weekday": "wednesday", "livingplace": "Noes"}}, "location": "Ollon VD"}, "Morat-Fribourg": {"latitude": 46.92922110000001, "longitude": 7.120184, "race": "Morat-Fribourg", "date": {"sam. 02.10.2010": {"year": 2010, "day": 2, "month": 10, "categories": {"17-M45": {"distance": 17, "rank": 223, "pace": 295000000000, "time": 5078.9}}, "weekday": "saturday", "livingplace": "Noes"}, "sam. 06.10.2012": {"year": 2012, "day": 6, "month": 10, "categories": {"17-M50": {"distance": 17, "rank": 129, "pace": 290000000000, "time": 5062.0}}, "weekday": "saturday", "livingplace": "Noes"}, "sam. 06.10.2007": {"year": 2007, "day": 6, "month": 10, "categories": {"C/M45": {"distance": 17, "rank": 329, "pace": 304000000000, "time": 5224.9}}, "weekday": "saturday", "livingplace": "Noes"}}, "location": "Murten"}, "Tour du Chablais #3 Le Bouveret": {"latitude": 46.1782231, "longitude": 7.0223787, "race": "Tour du Chablais #3 Le Bouveret", "date": {"mer. 11.05.2011": {"year": 2011, "day": 11, "month": 5, "categories": {"M-M50": {"distance": 10, "rank": 54, "pace": 294000000000, "time": 2946.7}}, "weekday": "wednesday", "livingplace": "Noes"}}, "location": "Evionnaz"}, "Tour du Chablais #4 Morgins": {"latitude": NaN, "longitude": NaN, "race": "Tour du Chablais #4 Morgins", "date": {"mer. 18.05.2011": {"year": 2011, "day": 18, "month": 5, "categories": {"M-M50": {"distance": 8, "rank": 48, "pace": 313000000000, "time": 2616.7}}, "weekday": "wednesday", "livingplace": "Noes"}}, "location": "Les Mosses"}, "Tour du Chablais #6 Monthey": {"latitude": 46.3190253, "longitude": 6.970566, "race": "Tour du Chablais #6 Monthey", "date": {"mer. 08.05.2013": {"year": 2013, "day": 8, "month": 5, "categories": {"M-M50": {"distance": 9, "rank": 36, "pace": 272000000000, "time": 2540.5}}, "weekday": "wednesday", "livingplace": "Noes"}}, "location": "Aigle"}, "Sierre-Zinal, Sierre": {"latitude": 46.29413110000001, "longitude": 7.533536199999999, "race": "Sierre-Zinal, Sierre", "date": {"dim. 12.08.2012": {"year": 2012, "day": 12, "month": 8, "categories": {"V\u00e9t_II": {"distance": 31, "rank": 24, "pace": 494000000000, "time": 15333.1}}, "weekday": "sunday", "livingplace": "Noes"}, "dim. 11.08.2013": {"year": 2013, "day": 11, "month": 8, "categories": {"V\u00e9t_II": {"distance": 31, "rank": 40, "pace": 508000000000, "time": 15772.9}}, "weekday": "sunday", "livingplace": "Noes"}}, "location": "Sierre"}, "Tour du Chablais #1 Lavey": {"latitude": 46.2957462, "longitude": 6.9916269, "race": "Tour du Chablais #1 Lavey", "date": {"mer. 27.04.2011": {"year": 2011, "day": 27, "month": 4, "categories": {"M-M50": {"distance": 9, "rank": 62, "pace": 303000000000, "time": 2734.3}}, "weekday": "wednesday", "livingplace": "Noes"}}, "location": "Ollon VD"}, "Tour du Chablais #2 Yvorne": {"latitude": 46.3835529, "longitude": 6.854975199999999, "race": "Tour du Chablais #2 Yvorne", "date": {"mer. 10.04.2013": {"year": 2013, "day": 10, "month": 4, "categories": {"M-M50": {"distance": 8, "rank": 35, "pace": 312000000000, "time": 2498.5}}, "weekday": "wednesday", "livingplace": "Noes"}}, "location": "Bouveret"}, "Tour du Chablais #5 Morgins": {"latitude": 46.3603257, "longitude": 6.931504599999999, "race": "Tour du Chablais #5 Morgins", "date": {"mer. 01.05.2013": {"year": 2013, "day": 1, "month": 5, "categories": {"M-M50": {"distance": 8, "rank": 28, "pace": 298000000000, "time": 2270.9}}, "weekday": "wednesday", "livingplace": "Noes"}}, "location": "Roche VD"}, "Tour du Chablais #5 Bex": {"latitude": 46.3603257, "longitude": 6.931504599999999, "race": "Tour du Chablais #5 Bex", "date": {"mer. 09.05.2012": {"year": 2012, "day": 9, "month": 5, "categories": {"M-M50": {"distance": 9, "rank": 29, "pace": 270000000000, "time": 2399.1}}, "weekday": "wednesday", "livingplace": "Noes"}}, "location": "Roche VD"}, "Tour du Chablais #6 Aigle": {"latitude": 46.3190253, "longitude": 6.970566, "race": "Tour du Chablais #6 Aigle", "date": {"mer. 01.06.2011": {"year": 2011, "day": 1, "month": 6, "categories": {"M-M50": {"distance": 10, "rank": 56, "pace": 295000000000, "time": 3011.0}}, "weekday": "wednesday", "livingplace": "Noes"}}, "location": "Aigle"}, "Tour du Chablais #4 St  Maurice": {"latitude": NaN, "longitude": NaN, "race": "Tour du Chablais #4 St  Maurice", "date": {"mer. 24.04.2013": {"year": 2013, "day": 24, "month": 4, "categories": {"M-M50": {"distance": 10, "rank": 36, "pace": 284000000000, "time": 2848.4}}, "weekday": "wednesday", "livingplace": "Noes"}}, "location": "Les Mosses"}}, "birth": 1961}