{"name": "Genolet Robin", "sex": "M", "races": {"Tour du Pays de Vaud etape 5 - La Sarraz": {"latitude": 46.5993131, "longitude": 6.539251200000001, "race": "Tour du Pays de Vaud etape 5 - La Sarraz", "date": {"mer. 09.09.2009": {"year": 2009, "day": 9, "month": 9, "categories": {"HJun": {"distance": 9, "rank": 25, "pace": 355000000000, "time": 2988.1}}, "weekday": "wednesday", "livingplace": "Pully"}}, "location": "Penthaz"}, "Tour du pays de Vaud #1 \u2013 St  Prex": {"latitude": 46.7784736, "longitude": 6.641183, "race": "Tour du pays de Vaud #1 \u2013 St  Prex", "date": {"mer. 11.08.2010": {"year": 2010, "day": 11, "month": 8, "categories": {"HJun": {"distance": 8, "rank": 16, "pace": 349000000000, "time": 2931.9}}, "weekday": "wednesday", "livingplace": "Pully"}}, "location": "Yverdon-les-Bains"}, "Tour du Pays de Vaud #2 - Genolier": {"latitude": 46.5955273, "longitude": 6.7702883, "race": "Tour du Pays de Vaud #2 - Genolier", "date": {"mer. 17.08.2011": {"year": 2011, "day": 17, "month": 8, "categories": {"H-Jun": {"distance": 9, "rank": 17, "pace": 347000000000, "time": 2953.5}}, "weekday": "wednesday", "livingplace": "Pully"}}, "location": "M\u00e9zi\u00e8res VD"}, "Tour du pays de Vaud #6 - St  Prex": {"latitude": 46.4829113, "longitude": 6.458343500000001, "race": "Tour du pays de Vaud #6 - St  Prex", "date": {"mer. 14.09.2011": {"year": 2011, "day": 14, "month": 9, "categories": {"H-Jun": {"distance": 9, "rank": 24, "pace": 330000000000, "time": 2840.5}}, "weekday": "wednesday", "livingplace": "Pully"}}, "location": "St-Prex"}, "Tour du Pays de Vaud etape 2 - Genolier": {"latitude": 46.5955273, "longitude": 6.7702883, "race": "Tour du Pays de Vaud etape 2 - Genolier", "date": {"mer. 19.08.2009": {"year": 2009, "day": 19, "month": 8, "categories": {"HJun": {"distance": 8, "rank": 17, "pace": 348000000000, "time": 2821.4}}, "weekday": "wednesday", "livingplace": "Pully"}}, "location": "M\u00e9zi\u00e8res VD"}, "Lausanne Marathon": {"latitude": 46.5196535, "longitude": 6.6322734, "race": "Lausanne Marathon", "date": {"dim. 31.10.2010": {"year": 2010, "day": 31, "month": 10, "categories": {"21-JG": {"distance": 21, "rank": 57, "pace": 361000000000, "time": 7627.0}}, "weekday": "sunday", "livingplace": "Pully"}}, "location": "Lausanne"}, "Tour du Pays de Vaud etape 1 - Le Mont sur Lausanne": {"latitude": 46.7784736, "longitude": 6.641183, "race": "Tour du Pays de Vaud etape 1 - Le Mont sur Lausanne", "date": {"mer. 12.08.2009": {"year": 2009, "day": 12, "month": 8, "categories": {"HJun": {"distance": 9, "rank": 22, "pace": 351000000000, "time": 3269.9}}, "weekday": "wednesday", "livingplace": "Pully"}}, "location": "Yverdon-les-Bains"}, "20km de Lausanne": {"latitude": 46.5196535, "longitude": 6.6322734, "race": "20km de Lausanne", "date": {"sam. 30.04.2011": {"year": 2011, "day": 30, "month": 4, "categories": {"10-Hesp": {"distance": 10, "rank": 227, "pace": 351000000000, "time": 3516.7}}, "weekday": "saturday", "livingplace": "Se bouger pour sa sante 3"}, "sam. 25.04.2009": {"year": 2009, "day": 25, "month": 4, "categories": {"10-Hesp": {"distance": 10, "rank": 199, "pace": 330000000000, "time": 3308.8}}, "weekday": "saturday", "livingplace": "Ton toubib se bouge 3"}}, "location": "Lausanne"}, "Tour du pays de Vaud #1 - Penthaz": {"latitude": 46.5993131, "longitude": 6.539251200000001, "race": "Tour du pays de Vaud #1 - Penthaz", "date": {"mer. 08.08.2012": {"year": 2012, "day": 8, "month": 8, "categories": {"H-Jun": {"distance": 9, "rank": 21, "pace": 341000000000, "time": 2916.6}}, "weekday": "wednesday", "livingplace": "Pully"}}, "location": "Penthaz"}, "Tour du pays de Vaud #5 - Penthaz": {"latitude": 46.5993131, "longitude": 6.539251200000001, "race": "Tour du pays de Vaud #5 - Penthaz", "date": {"mer. 07.09.2011": {"year": 2011, "day": 7, "month": 9, "categories": {"H-Jun": {"distance": 8, "rank": 17, "pace": 390000000000, "time": 3261.3}}, "weekday": "wednesday", "livingplace": "Pully"}}, "location": "Penthaz"}}, "birth": 1993}