{"name": "Gerber Christine", "sex": "F", "races": {"Int  Bieler Cross, Biel-Bienne": {"latitude": 47.1367785, "longitude": 7.2467909, "race": "Int  Bieler Cross, Biel-Bienne", "date": {"dim. 13.11.2011": {"year": 2011, "day": 13, "month": 11, "categories": {"F40": {"distance": 6, "rank": 2, "pace": 235000000000, "time": 1508.1}}, "weekday": "sunday", "livingplace": "La Chaux de Fonds"}, "dim. 09.11.2014": {"year": 2014, "day": 9, "month": 11, "categories": {"F40": {"distance": 6, "rank": 1, "pace": 234000000000, "time": 1498.1}}, "weekday": "sunday", "livingplace": "La Chaux de Fonds"}}, "location": "Biel/Bienne"}, "Sierre-Zinal, Sierre": {"latitude": 46.29413110000001, "longitude": 7.533536199999999, "race": "Sierre-Zinal, Sierre", "date": {"dim. 09.08.2015": {"year": 2015, "day": 9, "month": 8, "categories": {"Femm_II": {"distance": 31, "rank": 2, "pace": 423000000000, "time": 13117.3}}, "weekday": "sunday", "livingplace": "La Chaux de Fonds"}}, "location": "Sierre"}, "Glacier 3000 Run, Gstaad": {"latitude": 46.4717588, "longitude": 7.2865728, "race": "Glacier 3000 Run, Gstaad", "date": {"sam. 09.08.2014": {"year": 2014, "day": 9, "month": 8, "categories": {"F40": {"distance": 26, "rank": 2, "pace": 451000000000, "time": 11734.0}}, "weekday": "saturday", "livingplace": "La Chaux de Fonds"}}, "location": "Gstaad"}, "Kerzerslauf": {"latitude": 46.97488999999999, "longitude": 7.1954365, "race": "Kerzerslauf", "date": {"sam. 21.03.2015": {"year": 2015, "day": 21, "month": 3, "categories": {"15-F50": {"distance": 15, "rank": 2, "pace": 249000000000, "time": 3745.5}}, "weekday": "saturday", "livingplace": "La Chaux de Fonds"}, "sam. 15.03.2014": {"year": 2014, "day": 15, "month": 3, "categories": {"15-F45": {"distance": 15, "rank": 3, "pace": 252000000000, "time": 3790.6}}, "weekday": "saturday", "livingplace": "La Chaux de Fonds"}}, "location": "Kerzers"}, "D\u00e9fi Val-de-Travers, Couvet": {"latitude": 46.9262933, "longitude": 6.6324944, "race": "D\u00e9fi Val-de-Travers, Couvet", "date": {"sam. 19.06.2010": {"year": 2010, "day": 19, "month": 6, "categories": {"21-FSen2": {"distance": 20, "rank": 1, "pace": 298000000000, "time": 5890.1}}, "weekday": "saturday", "livingplace": "La Chaux de Fonds"}}, "location": "Couvet"}}, "birth": 1965}