{"name": "Gerber S\u00e9bastien", "sex": "M", "races": {"Tour du Chablais #1 Roche": {"latitude": 46.2957462, "longitude": 6.9916269, "race": "Tour du Chablais #1 Roche", "date": {"mer. 07.04.2010": {"year": 2010, "day": 7, "month": 4, "categories": {"M-M20": {"distance": 9, "rank": 21, "pace": 222000000000, "time": 1989.1}}, "weekday": "wednesday", "livingplace": "Duillier"}}, "location": "Ollon VD"}, "Lausanne Marathon": {"latitude": 46.5196535, "longitude": 6.6322734, "race": "Lausanne Marathon", "date": {"dim. 27.10.2013": {"year": 2013, "day": 27, "month": 10, "categories": {"21-H2": {"distance": 21, "rank": 17, "pace": 237000000000, "time": 5017.7}}, "weekday": "sunday", "livingplace": "Murist"}}, "location": "Lausanne"}, "Humani'Trail, Les Diablerets": {"latitude": 46.351389, "longitude": 7.158055999999999, "race": "Humani'Trail, Les Diablerets", "date": {"sam. 21.09.2013": {"year": 2013, "day": 21, "month": 9, "categories": {"25-HS": {"distance": 25, "rank": 5, "pace": 425000000000, "time": 10632.4}}, "weekday": "saturday", "livingplace": "Murist"}}, "location": "Les Diablerets"}, "Morat-Fribourg": {"latitude": 46.92922110000001, "longitude": 7.120184, "race": "Morat-Fribourg", "date": {"sam. 05.10.2013": {"year": 2013, "day": 5, "month": 10, "categories": {"17-M20": {"distance": 17, "rank": 83, "pace": 232000000000, "time": 4052.8}}, "weekday": "saturday", "livingplace": "Murist"}, "sam. 02.10.2010": {"year": 2010, "day": 2, "month": 10, "categories": {"17-M20": {"distance": 17, "rank": 158, "pace": 253000000000, "time": 4351.4}}, "weekday": "saturday", "livingplace": "Duillier"}, "sam. 01.10.2011": {"year": 2011, "day": 1, "month": 10, "categories": {"17-M20": {"distance": 17, "rank": 95, "pace": 237000000000, "time": 4074.4}}, "weekday": "saturday", "livingplace": "Duillier"}}, "location": "Murten"}, "Noviodurun, Nyon": {"latitude": 46.3832683, "longitude": 6.2347852, "race": "Noviodurun, Nyon", "date": {"sam. 01.11.2014": {"year": 2014, "day": 1, "month": 11, "categories": {"Hom2": {"distance": 6, "rank": 9, "pace": 214000000000, "time": 1390.2}}, "weekday": "saturday", "livingplace": "Murist"}}, "location": "Nyon"}}, "birth": 1982}