{"name": "Gerber Laurence", "sex": "F", "races": {"A travers Carouge - Run to Run": {"latitude": 46.1829674, "longitude": 6.1378539, "race": "A travers Carouge - Run to Run", "date": {"sam. 20.09.2008": {"year": 2008, "day": 20, "month": 9, "categories": {"W40/10": {"distance": 10, "rank": 23, "pace": 366000000000, "time": 3662.4}}, "weekday": "saturday", "livingplace": "Gland"}}, "location": "Carouge GE"}, "Tour du Pays de Vaud etape 5 - La Sarraz": {"latitude": 46.5993131, "longitude": 6.539251200000001, "race": "Tour du Pays de Vaud etape 5 - La Sarraz", "date": {"mer. 10.09.2008": {"year": 2008, "day": 10, "month": 9, "categories": {"DamSen2": {"distance": 9, "rank": 50, "pace": 392000000000, "time": 3375.8}}, "weekday": "wednesday", "livingplace": "Gland"}}, "location": "Penthaz"}, "Morat-Fribourg": {"latitude": 46.92922110000001, "longitude": 7.120184, "race": "Morat-Fribourg", "date": {"sam. 05.10.2013": {"year": 2013, "day": 5, "month": 10, "categories": {"17-W45": {"distance": 17, "rank": 198, "pace": 369000000000, "time": 6441.2}}, "weekday": "saturday", "livingplace": "Gland"}, "sam. 03.10.2009": {"year": 2009, "day": 3, "month": 10, "categories": {"C-W40": {"distance": 17, "rank": 252, "pace": 430000000000, "time": 7392.5}}, "weekday": "saturday", "livingplace": "Gland"}, "sam. 01.10.2011": {"year": 2011, "day": 1, "month": 10, "categories": {"17-W45": {"distance": 17, "rank": 214, "pace": 430000000000, "time": 7391.8}}, "weekday": "saturday", "livingplace": "Gland"}, "sam. 06.10.2012": {"year": 2012, "day": 6, "month": 10, "categories": {"17-W45": {"distance": 17, "rank": 205, "pace": 387000000000, "time": 6764.1}}, "weekday": "saturday", "livingplace": "Gland"}}, "location": "Murten"}, "Semi-Marathon de la C\u00f4te, Allaman-Nyon": {"latitude": 46.3832683, "longitude": 6.2347852, "race": "Semi-Marathon de la C\u00f4te, Allaman-Nyon", "date": {"dim. 14.09.2014": {"year": 2014, "day": 14, "month": 9, "categories": {"21-F45": {"distance": 21, "rank": 57, "pace": 394000000000, "time": 8318.4}}, "weekday": "sunday", "livingplace": "Gland"}}, "location": "Nyon"}, "Corrida Bulloise, Bulle": {"latitude": 46.6154512, "longitude": 7.057726799999999, "race": "Corrida Bulloise, Bulle", "date": {"sam. 21.11.2009": {"year": 2009, "day": 21, "month": 11, "categories": {"F40": {"distance": 6, "rank": 91, "pace": 363000000000, "time": 2237.8}}, "weekday": "saturday", "livingplace": "Gland"}, "sam. 15.11.2008": {"year": 2008, "day": 15, "month": 11, "categories": {"F40": {"distance": 6, "rank": 87, "pace": 367000000000, "time": 2205.5}}, "weekday": "saturday", "livingplace": "Gland"}}, "location": "Bulle"}, "Tour du pays de Vaud #1 - Mezi\u00e8res": {"latitude": 46.7784736, "longitude": 6.641183, "race": "Tour du pays de Vaud #1 - Mezi\u00e8res", "date": {"mer. 10.08.2011": {"year": 2011, "day": 10, "month": 8, "categories": {"D-Sen2": {"distance": 9, "rank": 75, "pace": 392000000000, "time": 3338.9}}, "weekday": "wednesday", "livingplace": "Gland"}}, "location": "Yverdon-les-Bains"}, "Tour du Pays de Vaud etape 1 - Le Mont sur Lausanne": {"latitude": 46.7784736, "longitude": 6.641183, "race": "Tour du Pays de Vaud etape 1 - Le Mont sur Lausanne", "date": {"mer. 13.08.2008": {"year": 2008, "day": 13, "month": 8, "categories": {"DamSen2": {"distance": 8, "rank": 54, "pace": 398000000000, "time": 3349.5}}, "weekday": "wednesday", "livingplace": "Gland"}}, "location": "Yverdon-les-Bains"}, "20km de Lausanne": {"latitude": 46.5196535, "longitude": 6.6322734, "race": "20km de Lausanne", "date": {"sam. 30.04.2011": {"year": 2011, "day": 30, "month": 4, "categories": {"10-F45": {"distance": 10, "rank": 214, "pace": 396000000000, "time": 3964.8}}, "weekday": "saturday", "livingplace": "Gland"}, "sam. 24.04.2010": {"year": 2010, "day": 24, "month": 4, "categories": {"10-F45": {"distance": 10, "rank": 176, "pace": 403000000000, "time": 4030.1}}, "weekday": "saturday", "livingplace": "Gland"}, "sam. 27.04.2013": {"year": 2013, "day": 27, "month": 4, "categories": {"10-F45": {"distance": 10, "rank": 89, "pace": 337000000000, "time": 3371.5}}, "weekday": "saturday", "livingplace": "Gland"}, "sam. 28.04.2012": {"year": 2012, "day": 28, "month": 4, "categories": {"10-F45": {"distance": 10, "rank": 175, "pace": 381000000000, "time": 3814.7}}, "weekday": "saturday", "livingplace": "Gland"}}, "location": "Lausanne"}, "Tour du Pays de Vaud #2 - Genolier": {"latitude": 46.5955273, "longitude": 6.7702883, "race": "Tour du Pays de Vaud #2 - Genolier", "date": {"mer. 15.08.2012": {"year": 2012, "day": 15, "month": 8, "categories": {"D-Sen2": {"distance": 9, "rank": 67, "pace": 395000000000, "time": 3357.5}}, "weekday": "wednesday", "livingplace": "Gland"}}, "location": "M\u00e9zi\u00e8res VD"}, "Tour du Pays de Vaud etape 2 - Genolier": {"latitude": 46.5955273, "longitude": 6.7702883, "race": "Tour du Pays de Vaud etape 2 - Genolier", "date": {"mer. 20.08.2008": {"year": 2008, "day": 20, "month": 8, "categories": {"DamSen2": {"distance": 8, "rank": 62, "pace": 401000000000, "time": 3333.8}}, "weekday": "wednesday", "livingplace": "Gland"}}, "location": "M\u00e9zi\u00e8res VD"}, "Tour du Pays de Vaud etape 3 - Aubonne": {"latitude": 46.7829756, "longitude": 6.5728678, "race": "Tour du Pays de Vaud etape 3 - Aubonne", "date": {"mer. 27.08.2008": {"year": 2008, "day": 27, "month": 8, "categories": {"DamSen2": {"distance": 8, "rank": 58, "pace": 439000000000, "time": 3430.2}}, "weekday": "wednesday", "livingplace": "Gland"}}, "location": "Champvent"}, "Tour du pays de Vaud #5 - Penthaz": {"latitude": 46.5993131, "longitude": 6.539251200000001, "race": "Tour du pays de Vaud #5 - Penthaz", "date": {"mer. 07.09.2011": {"year": 2011, "day": 7, "month": 9, "categories": {"D-Sen2": {"distance": 8, "rank": 65, "pace": 445000000000, "time": 3720.8}}, "weekday": "wednesday", "livingplace": "Gland"}}, "location": "Penthaz"}, "Tour du pays de Vaud #6 - St  Prex": {"latitude": 46.4829113, "longitude": 6.458343500000001, "race": "Tour du pays de Vaud #6 - St  Prex", "date": {"mer. 14.09.2011": {"year": 2011, "day": 14, "month": 9, "categories": {"D-Sen2": {"distance": 9, "rank": 91, "pace": 383000000000, "time": 3299.1}}, "weekday": "wednesday", "livingplace": "Gland"}}, "location": "St-Prex"}, "Tour du Pays de Vaud #4 - La Sarraz": {"latitude": 46.7088129, "longitude": 6.5707689, "race": "Tour du Pays de Vaud #4 - La Sarraz", "date": {"mer. 29.08.2012": {"year": 2012, "day": 29, "month": 8, "categories": {"D-Sen2": {"distance": 9, "rank": 77, "pace": 392000000000, "time": 3335.7}}, "weekday": "wednesday", "livingplace": "Gland"}}, "location": "Chavornay"}, "Tour du pays de Vaud #1 - Penthaz": {"latitude": 46.5993131, "longitude": 6.539251200000001, "race": "Tour du pays de Vaud #1 - Penthaz", "date": {"mer. 08.08.2012": {"year": 2012, "day": 8, "month": 8, "categories": {"D-Sen2": {"distance": 9, "rank": 69, "pace": 413000000000, "time": 3526.1}}, "weekday": "wednesday", "livingplace": "Gland"}}, "location": "Penthaz"}}, "birth": 1965}