{"name": "Gerber Thibault", "sex": "M", "races": {"Bl\u00fcemlisalp-Lauf, Reichenbach": {"latitude": 46.6254387, "longitude": 7.6940529, "race": "Bl\u00fcemlisalp-Lauf, Reichenbach", "date": {"dim. 27.05.2012": {"year": 2012, "day": 27, "month": 5, "categories": {"M20": {"distance": 16, "rank": 16, "pace": 364000000000, "time": 5858.7}}, "weekday": "sunday", "livingplace": "La Vue des Alpes"}}, "location": "Reichenbach im Kandertal"}, "Sierre-Zinal, Sierre": {"latitude": 46.29413110000001, "longitude": 7.533536199999999, "race": "Sierre-Zinal, Sierre", "date": {"dim. 10.08.2014": {"year": 2014, "day": 10, "month": 8, "categories": {"ElitesHo": {"distance": 31, "rank": 239, "pace": 459000000000, "time": 14248.7}}, "weekday": "sunday", "livingplace": "Saules"}, "dim. 11.08.2013": {"year": 2013, "day": 11, "month": 8, "categories": {"Elites": {"distance": 31, "rank": 224, "pace": 484000000000, "time": 15026.4}}, "weekday": "sunday", "livingplace": "La Vue des Alpes"}, "dim. 09.08.2015": {"year": 2015, "day": 9, "month": 8, "categories": {"ElitesHo": {"distance": 31, "rank": 246, "pace": 470000000000, "time": 14591.2}}, "weekday": "sunday", "livingplace": "Saules"}}, "location": "Sierre"}, "BCN Tour Cornaux": {"latitude": 46.9668714, "longitude": 6.8589727, "race": "BCN Tour Cornaux", "date": {"mer. 25.04.2012": {"year": 2012, "day": 25, "month": 4, "categories": {"HE": {"distance": 11, "rank": 160, "pace": 357000000000, "time": 3930.2}}, "weekday": "wednesday", "livingplace": "La Vue des Alpes"}}, "location": "Colombier NE"}, "BCN Tour Les Ponts-de-Martel": {"latitude": 46.999113, "longitude": 6.733554799999999, "race": "BCN Tour Les Ponts-de-Martel", "date": {"mer. 09.05.2012": {"year": 2012, "day": 9, "month": 5, "categories": {"HE": {"distance": 10, "rank": 124, "pace": 301000000000, "time": 3108.1}}, "weekday": "wednesday", "livingplace": "La Vue des Alpes"}}, "location": "Les Ponts-de-Martel"}, "BCN Tour Neuch\u00e2tel": {"latitude": 46.9899874, "longitude": 6.9292732, "race": "BCN Tour Neuch\u00e2tel", "date": {"mer. 30.05.2012": {"year": 2012, "day": 30, "month": 5, "categories": {"HE": {"distance": 11, "rank": 99, "pace": 299000000000, "time": 3353.1}}, "weekday": "wednesday", "livingplace": "La Vue des Alpes"}}, "location": "Neuch\u00e2tel"}}, "birth": 1989}