{"name": "Gerber Yann", "sex": "M", "races": {"Lucerne Marathon, Luzern": {"latitude": 47.05016819999999, "longitude": 8.3093072, "race": "Lucerne Marathon, Luzern", "date": {"dim. 28.10.2012": {"year": 2012, "day": 28, "month": 10, "categories": {"M-M20": {"distance": 42, "rank": 92, "pace": 335000000000, "time": 14158.4}}, "weekday": "sunday", "livingplace": "Ursins"}}, "location": "Luzern"}, "Tour du Pays de Vaud printanier #2 Yverdon-les-Bains": {"latitude": 46.6698891, "longitude": 6.7975224, "race": "Tour du Pays de Vaud printanier #2 Yverdon-les-Bains", "date": {"mer. 05.06.2013": {"year": 2013, "day": 5, "month": 6, "categories": {"H-Hom": {"distance": 9, "rank": 39, "pace": 305000000000, "time": 2782.8}}, "weekday": "wednesday", "livingplace": "St Aubin Sauges"}}, "location": "Moudon"}, "Course de l'Escalade, Gen\u00e8ve": {"latitude": 46.2043907, "longitude": 6.1431577, "race": "Course de l'Escalade, Gen\u00e8ve", "date": {"sam. 05.12.2009": {"year": 2009, "day": 5, "month": 12, "categories": {"Hommes1": {"distance": 7, "rank": 615, "pace": 296000000000, "time": 2148.0}}, "weekday": "saturday", "livingplace": "Ursins"}}, "location": "Gen\u00e8ve"}, "Tour du Pays de Vaud printanier #1 Chavornay": {"latitude": 46.3832683, "longitude": 6.2347852, "race": "Tour du Pays de Vaud printanier #1 Chavornay", "date": {"mer. 30.05.2012": {"year": 2012, "day": 30, "month": 5, "categories": {"H-Hom": {"distance": 9, "rank": 23, "pace": 301000000000, "time": 2697.1}}, "weekday": "wednesday", "livingplace": "Valeyres sous Ursins"}}, "location": "Nyon"}, "Tour du pays de Vaud #1 - Mezi\u00e8res": {"latitude": 46.7784736, "longitude": 6.641183, "race": "Tour du pays de Vaud #1 - Mezi\u00e8res", "date": {"mer. 10.08.2011": {"year": 2011, "day": 10, "month": 8, "categories": {"H-Hom": {"distance": 9, "rank": 68, "pace": 307000000000, "time": 2616.8}}, "weekday": "wednesday", "livingplace": "Valeyres sous Ursins"}}, "location": "Yverdon-les-Bains"}, "Groupe E Tour Fribourg #3 Estavayer-le-Lac": {"latitude": 46.97488999999999, "longitude": 7.1954365, "race": "Groupe E Tour Fribourg #3 Estavayer-le-Lac", "date": {"mer. 12.09.2012": {"year": 2012, "day": 12, "month": 9, "categories": {"HE": {"distance": 10, "rank": 35, "pace": 325000000000, "time": 3213.5}}, "weekday": "wednesday", "livingplace": "Ursins"}}, "location": "Kerzers"}, "20km de Lausanne": {"latitude": 46.5196535, "longitude": 6.6322734, "race": "20km de Lausanne", "date": {"sam. 30.04.2011": {"year": 2011, "day": 30, "month": 4, "categories": {"20-H20": {"distance": 20, "rank": 407, "pace": 328000000000, "time": 6564.0}}, "weekday": "saturday", "livingplace": "Ursins"}, "sam. 24.04.2010": {"year": 2010, "day": 24, "month": 4, "categories": {"10-H20": {"distance": 10, "rank": 291, "pace": 309000000000, "time": 3092.4}}, "weekday": "saturday", "livingplace": "Ursins"}, "sam. 27.04.2013": {"year": 2013, "day": 27, "month": 4, "categories": {"20-H20": {"distance": 20, "rank": 443, "pace": 316000000000, "time": 6321.2}}, "weekday": "saturday", "livingplace": "St Aubin Sauges"}, "sam. 26.04.2014": {"year": 2014, "day": 26, "month": 4, "categories": {"10-H20": {"distance": 10, "rank": 394, "pace": 301000000000, "time": 3016.7}}, "weekday": "saturday", "livingplace": "St Aubin Sauges"}}, "location": "Lausanne"}, "Tour du Pays de Vaud #2 - Genolier": {"latitude": 46.5955273, "longitude": 6.7702883, "race": "Tour du Pays de Vaud #2 - Genolier", "date": {"mer. 17.08.2011": {"year": 2011, "day": 17, "month": 8, "categories": {"H-Hom": {"distance": 9, "rank": 53, "pace": 313000000000, "time": 2663.0}}, "weekday": "wednesday", "livingplace": "Valeyres sous Ursins"}}, "location": "M\u00e9zi\u00e8res VD"}, "Lausanne Marathon": {"latitude": 46.5196535, "longitude": 6.6322734, "race": "Lausanne Marathon", "date": {"dim. 31.10.2010": {"year": 2010, "day": 31, "month": 10, "categories": {"10-H1": {"distance": 10, "rank": 169, "pace": 281000000000, "time": 2817.2}}, "weekday": "sunday", "livingplace": "Ursins"}, "dim. 30.10.2011": {"year": 2011, "day": 30, "month": 10, "categories": {"42-H1": {"distance": 42, "rank": 65, "pace": 338000000000, "time": 14279.3}}, "weekday": "sunday", "livingplace": "Ursins"}, "dim. 27.10.2013": {"year": 2013, "day": 27, "month": 10, "categories": {"10-H1": {"distance": 10, "rank": 185, "pace": 277000000000, "time": 2777.9}}, "weekday": "sunday", "livingplace": "St Aubin Sauges"}}, "location": "Lausanne"}, "Tour du Pays de Vaud #1, Penthaz": {"latitude": 46.5993131, "longitude": 6.539251200000001, "race": "Tour du Pays de Vaud #1, Penthaz", "date": {"mer. 13.08.2014": {"year": 2014, "day": 13, "month": 8, "categories": {"H-Hom": {"distance": 9, "rank": 46, "pace": 291000000000, "time": 2488.8}}, "weekday": "wednesday", "livingplace": "St Aubin Sauges"}}, "location": "Penthaz"}, "Morat-Fribourg": {"latitude": 46.92922110000001, "longitude": 7.120184, "race": "Morat-Fribourg", "date": {"sam. 05.10.2013": {"year": 2013, "day": 5, "month": 10, "categories": {"17-M20": {"distance": 17, "rank": 1517, "pace": 315000000000, "time": 5505.6}}, "weekday": "saturday", "livingplace": "St Aubin Sauges"}, "sam. 01.10.2011": {"year": 2011, "day": 1, "month": 10, "categories": {"17-M20": {"distance": 17, "rank": 856, "pace": 296000000000, "time": 5093.3}}, "weekday": "saturday", "livingplace": "Ursins"}, "sam. 03.10.2015": {"year": 2015, "day": 3, "month": 10, "categories": {"17-M20": {"distance": 17, "rank": 1295, "pace": 316000000000, "time": 5428.6}}, "weekday": "saturday", "livingplace": "St Aubin Sauges"}, "sam. 06.10.2012": {"year": 2012, "day": 6, "month": 10, "categories": {"17-M20": {"distance": 17, "rank": 870, "pace": 295000000000, "time": 5150.8}}, "weekday": "saturday", "livingplace": "Ursins"}, "sam. 04.10.2014": {"year": 2014, "day": 4, "month": 10, "categories": {"17-M20": {"distance": 17, "rank": 1343, "pace": 319000000000, "time": 5481.8}}, "weekday": "saturday", "livingplace": "St Aubin Sauges"}}, "location": "Murten"}, "Tour du Pays de Vaud printanier #1 Moudon": {"latitude": 46.3832683, "longitude": 6.2347852, "race": "Tour du Pays de Vaud printanier #1 Moudon", "date": {"mer. 29.05.2013": {"year": 2013, "day": 29, "month": 5, "categories": {"H-Hom": {"distance": 8, "rank": 36, "pace": 308000000000, "time": 2639.6}}, "weekday": "wednesday", "livingplace": "St Aubin Sauges"}}, "location": "Nyon"}, "Tour du pays de Vaud #5 - Penthaz": {"latitude": 46.5993131, "longitude": 6.539251200000001, "race": "Tour du pays de Vaud #5 - Penthaz", "date": {"mer. 07.09.2011": {"year": 2011, "day": 7, "month": 9, "categories": {"H-Hom": {"distance": 8, "rank": 61, "pace": 353000000000, "time": 2950.8}}, "weekday": "wednesday", "livingplace": "Valeyres sous Ursins"}}, "location": "Penthaz"}, "Tour du pays de Vaud #6 - St  Prex": {"latitude": 46.4829113, "longitude": 6.458343500000001, "race": "Tour du pays de Vaud #6 - St  Prex", "date": {"mer. 14.09.2011": {"year": 2011, "day": 14, "month": 9, "categories": {"H-Hom": {"distance": 9, "rank": 43, "pace": 272000000000, "time": 2339.3}}, "weekday": "wednesday", "livingplace": "Valeyres sous Ursins"}}, "location": "St-Prex"}, "Tour du Pays de Vaud printanier #3 - Yens": {"latitude": 46.7829756, "longitude": 6.5728678, "race": "Tour du Pays de Vaud printanier #3 - Yens", "date": {"mer. 12.06.2013": {"year": 2013, "day": 12, "month": 6, "categories": {"H-Hom": {"distance": 9, "rank": 36, "pace": 299000000000, "time": 2727.8}}, "weekday": "wednesday", "livingplace": "St Aubin Sauges"}}, "location": "Champvent"}, "Tour du Pays de Vaud #4 - La Sarraz": {"latitude": 46.7088129, "longitude": 6.5707689, "race": "Tour du Pays de Vaud #4 - La Sarraz", "date": {"mer. 29.08.2012": {"year": 2012, "day": 29, "month": 8, "categories": {"H-Hom": {"distance": 9, "rank": 68, "pace": 291000000000, "time": 2473.8}}, "weekday": "wednesday", "livingplace": "Ursins"}}, "location": "Chavornay"}, "Tour du pays de Vaud #1 - Penthaz": {"latitude": 46.5993131, "longitude": 6.539251200000001, "race": "Tour du pays de Vaud #1 - Penthaz", "date": {"mer. 08.08.2012": {"year": 2012, "day": 8, "month": 8, "categories": {"H-Hom": {"distance": 9, "rank": 79, "pace": 321000000000, "time": 2744.8}}, "weekday": "wednesday", "livingplace": "Ursins"}}, "location": "Penthaz"}, "Les Traine-Savates, Cheseaux-sur-Lausanne": {"latitude": 46.585452, "longitude": 6.6047712, "race": "Les Traine-Savates, Cheseaux-sur-Lausanne", "date": {"sam. 12.04.2014": {"year": 2014, "day": 12, "month": 4, "categories": {"10-M20": {"distance": 10, "rank": 183, "pace": 297000000000, "time": 3059.5}}, "weekday": "saturday", "livingplace": "St Aubin Sauges"}}, "location": "Cheseaux-sur-Lausanne"}}, "birth": 1988}