{"name": "Germann Roland", "sex": "M", "races": {"Lucerne Marathon, Luzern": {"latitude": 47.05016819999999, "longitude": 8.3093072, "race": "Lucerne Marathon, Luzern", "date": {"dim. 28.10.2012": {"year": 2012, "day": 28, "month": 10, "categories": {"M-M50": {"distance": 42, "rank": 11, "pace": 276000000000, "time": 11647.5}}, "weekday": "sunday", "livingplace": "Wangen"}}, "location": "Luzern"}, "Graub\u00fcnden Marathon Walking, Lenzerheide": {"latitude": NaN, "longitude": NaN, "race": "Graub\u00fcnden Marathon Walking, Lenzerheide", "date": {"sam. 28.06.2014": {"year": 2014, "day": 28, "month": 6, "categories": {"20M-M50": {"distance": 31, "rank": 3, "pace": 358000000000, "time": 10999.8}}, "weekday": "saturday", "livingplace": "Wangen"}}, "location": "Lenzerheide/Lai"}, "Maratona Ticino, Tenero": {"latitude": NaN, "longitude": NaN, "race": "Maratona Ticino, Tenero", "date": {"dim. 10.11.2013": {"year": 2013, "day": 10, "month": 11, "categories": {"M-M50": {"distance": 42, "rank": 5, "pace": 278000000000, "time": 11742.5}}, "weekday": "sunday", "livingplace": "Wangen"}}, "location": "Tenero"}, "Schlosslauf Rapperswil-Jona": {"latitude": 47.2266239, "longitude": 8.818437399999999, "race": "Schlosslauf Rapperswil-Jona", "date": {"dim. 07.10.2012": {"year": 2012, "day": 7, "month": 10, "categories": {"9-M4": {"distance": 9, "rank": 5, "pace": 246000000000, "time": 2225.7}}, "weekday": "sunday", "livingplace": "Wangen"}}, "location": "Rapperswil SG"}, "Int Greifenseelauf, Uster": {"latitude": 47.3482747, "longitude": 8.717873899999999, "race": "Int Greifenseelauf, Uster", "date": {"sam. 16.09.2006": {"year": 2006, "day": 16, "month": 9, "categories": {"H/M45": {"distance": 21, "rank": 14, "pace": 242000000000, "time": 5115.0}}, "weekday": "saturday", "livingplace": "Wangen"}}, "location": "Uster"}, "Z\u00fcrcher Silvesterlauf, Z\u00fcrich": {"latitude": 47.3768866, "longitude": 8.541694, "race": "Z\u00fcrcher Silvesterlauf, Z\u00fcrich", "date": {"dim. 16.12.2007": {"year": 2007, "day": 16, "month": 12, "categories": {"MenAK2-8": {"distance": 9, "rank": 133, "pace": 240000000000, "time": 2072.4}}, "weekday": "sunday", "livingplace": "Wangen"}}, "location": "Z\u00fcrich"}, "Bieler Lauftage, Biel Bienne": {"latitude": 47.1367785, "longitude": 7.2467909, "race": "Bieler Lauftage, Biel Bienne", "date": {"ven. 12.06.2009": {"year": 2009, "day": 12, "month": 6, "categories": {"100/M50": {"distance": 100, "rank": 25, "pace": 366000000000, "time": 36640.1}}, "weekday": "friday", "livingplace": "Wangen"}}, "location": "Biel/Bienne"}, "Z\u00fcrich Marathon, Teamrun und Cityrun": {"latitude": 47.3768866, "longitude": 8.541694, "race": "Z\u00fcrich Marathon, Teamrun und Cityrun", "date": {"dim. 26.04.2009": {"year": 2009, "day": 26, "month": 4, "categories": {"M50": {"distance": 42, "rank": 53, "pace": 277000000000, "time": 11694.9}}, "weekday": "sunday", "livingplace": "Wangen"}}, "location": "Z\u00fcrich"}}, "birth": 1958}