{"name": "Germann Uwe", "sex": "M", "races": {"Lucerne Marathon, Luzern": {"latitude": 47.05016819999999, "longitude": 8.3093072, "race": "Lucerne Marathon, Luzern", "date": {"dim. 25.10.2009": {"year": 2009, "day": 25, "month": 10, "categories": {"M-M40": {"distance": 42, "rank": 617, "pace": 384000000000, "time": 16236.3}}, "weekday": "sunday", "livingplace": "Luzern"}, "dim. 31.10.2010": {"year": 2010, "day": 31, "month": 10, "categories": {"M-M40": {"distance": 42, "rank": 570, "pace": 378000000000, "time": 15955.1}}, "weekday": "sunday", "livingplace": "Luzern"}}, "location": "Luzern"}, "Frauenfelder": {"latitude": NaN, "longitude": NaN, "race": "Frauenfelder", "date": {"dim. 15.11.2009": {"year": 2009, "day": 15, "month": 11, "categories": {"M-M40": {"distance": 42, "rank": 70, "pace": 393000000000, "time": 16612.5}}, "weekday": "sunday", "livingplace": "Luzern"}}, "location": "Frauenfeld"}, "Luzerner Stadtlauf": {"latitude": 47.05016819999999, "longitude": 8.3093072, "race": "Luzerner Stadtlauf", "date": {"sam. 28.04.2007": {"year": 2007, "day": 28, "month": 4, "categories": {"K/28": {"distance": 6, "rank": 240, "pace": 281000000000, "time": 1590.0}}, "weekday": "saturday", "livingplace": "Luzern"}}, "location": "Luzern"}, "SwissCityMarathon - Lucerne, Luzern": {"latitude": 47.05016819999999, "longitude": 8.3093072, "race": "SwissCityMarathon - Lucerne, Luzern", "date": {"dim. 27.10.2013": {"year": 2013, "day": 27, "month": 10, "categories": {"M-M40": {"distance": 42, "rank": 384, "pace": 384000000000, "time": 16211.6}}, "weekday": "sunday", "livingplace": "Wolfenbuttel"}}, "location": "Luzern"}, "Lausanne Marathon": {"latitude": 46.5196535, "longitude": 6.6322734, "race": "Lausanne Marathon", "date": {"sam. 24.10.2015": {"year": 2015, "day": 24, "month": 10, "categories": {"42-H50": {"distance": 42, "rank": 154, "pace": 397000000000, "time": 16763.8}}, "weekday": "saturday", "livingplace": "Adliswil"}}, "location": "Lausanne"}, "IWB Basel Marathon": {"latitude": 47.5595986, "longitude": 7.5885761, "race": "IWB Basel Marathon", "date": {"dim. 28.09.2014": {"year": 2014, "day": 28, "month": 9, "categories": {"42-M45": {"distance": 42, "rank": 38, "pace": 371000000000, "time": 15663.3}}, "weekday": "sunday", "livingplace": "Adliswil"}}, "location": "Basel"}, "Winterthur Marathon": {"latitude": 39.8088766, "longitude": -75.6037351, "race": "Winterthur Marathon", "date": {"dim. 20.05.2007": {"year": 2007, "day": 20, "month": 5, "categories": {"MM40": {"distance": 42, "rank": 55, "pace": 356000000000, "time": 15027.3}}, "weekday": "sunday", "livingplace": "Luzern"}}, "location": "Winterthur"}, "Z\u00fcrich Marathon, Teamrun und Cityrun": {"latitude": 47.3768866, "longitude": 8.541694, "race": "Z\u00fcrich Marathon, Teamrun und Cityrun", "date": {"dim. 06.04.2014": {"year": 2014, "day": 6, "month": 4, "categories": {"42-M45": {"distance": 42, "rank": 343, "pace": 369000000000, "time": 15577.2}}, "weekday": "sunday", "livingplace": "Adliswil"}, "dim. 20.04.2008": {"year": 2008, "day": 20, "month": 4, "categories": {"M40": {"distance": 42, "rank": 732, "pace": 358000000000, "time": 15136.6}}, "weekday": "sunday", "livingplace": "Luzern"}, "dim. 19.04.2015": {"year": 2015, "day": 19, "month": 4, "categories": {"42-M50": {"distance": 42, "rank": 255, "pace": 378000000000, "time": 15964.5}}, "weekday": "sunday", "livingplace": "Adliswil"}}, "location": "Z\u00fcrich"}}, "birth": 1965}