{"name": "Gerow Craig", "sex": "M", "races": {"Tour du Chablais #5 Bex": {"latitude": 46.3603257, "longitude": 6.931504599999999, "race": "Tour du Chablais #5 Bex", "date": {"mer. 09.05.2012": {"year": 2012, "day": 9, "month": 5, "categories": {"M-M40": {"distance": 9, "rank": 64, "pace": 273000000000, "time": 2419.8}}, "weekday": "wednesday", "livingplace": "Leysin"}}, "location": "Roche VD"}, "Tour du Chablais #4 Champ\u00e9ry": {"latitude": NaN, "longitude": NaN, "race": "Tour du Chablais #4 Champ\u00e9ry", "date": {"mer. 02.05.2012": {"year": 2012, "day": 2, "month": 5, "categories": {"M-M40": {"distance": 8, "rank": 78, "pace": 283000000000, "time": 2349.4}}, "weekday": "wednesday", "livingplace": "Leysin"}}, "location": "Les Mosses"}, "Tour du Chablais #1 Montreux": {"latitude": 46.2957462, "longitude": 6.9916269, "race": "Tour du Chablais #1 Montreux", "date": {"mer. 11.04.2012": {"year": 2012, "day": 11, "month": 4, "categories": {"M-M40": {"distance": 8, "rank": 89, "pace": 291000000000, "time": 2213.5}}, "weekday": "wednesday", "livingplace": "Leysin"}}, "location": "Ollon VD"}, "Tour du Chablais #6 Montreux": {"latitude": 46.3190253, "longitude": 6.970566, "race": "Tour du Chablais #6 Montreux", "date": {"mer. 16.05.2012": {"year": 2012, "day": 16, "month": 5, "categories": {"M-M40": {"distance": 9, "rank": 92, "pace": 275000000000, "time": 2544.2}}, "weekday": "wednesday", "livingplace": "Leysin"}}, "location": "Aigle"}, "Lausanne Marathon": {"latitude": 46.5196535, "longitude": 6.6322734, "race": "Lausanne Marathon", "date": {"dim. 30.10.2011": {"year": 2011, "day": 30, "month": 10, "categories": {"21-H2": {"distance": 21, "rank": 320, "pace": 289000000000, "time": 6118.4}}, "weekday": "sunday", "livingplace": "Leysin"}}, "location": "Lausanne"}, "20km de Lausanne": {"latitude": 46.5196535, "longitude": 6.6322734, "race": "20km de Lausanne", "date": {"sam. 28.04.2012": {"year": 2012, "day": 28, "month": 4, "categories": {"20-H40": {"distance": 20, "rank": 201, "pace": 303000000000, "time": 6069.5}}, "weekday": "saturday", "livingplace": "Leysin"}}, "location": "Lausanne"}, "Tour du Chablais #2 Bex": {"latitude": 46.3835529, "longitude": 6.854975199999999, "race": "Tour du Chablais #2 Bex", "date": {"mer. 18.04.2012": {"year": 2012, "day": 18, "month": 4, "categories": {"M-M40": {"distance": 8, "rank": 84, "pace": 281000000000, "time": 2254.2}}, "weekday": "wednesday", "livingplace": "Leysin"}}, "location": "Bouveret"}, "Tour du Chablais #3 Collombey-Muraz": {"latitude": 46.1782231, "longitude": 7.0223787, "race": "Tour du Chablais #3 Collombey-Muraz", "date": {"mer. 25.04.2012": {"year": 2012, "day": 25, "month": 4, "categories": {"M-M40": {"distance": 9, "rank": 86, "pace": 282000000000, "time": 2536.4}}, "weekday": "wednesday", "livingplace": "Leysin"}}, "location": "Evionnaz"}}, "birth": 1972}