{"name": "Gershtein Tomer", "sex": "M", "races": {"Lausanne Marathon": {"latitude": 46.5196535, "longitude": 6.6322734, "race": "Lausanne Marathon", "date": {"dim. 28.10.2012": {"year": 2012, "day": 28, "month": 10, "categories": {"21-H3": {"distance": 21, "rank": 510, "pace": 319000000000, "time": 6739.6}}, "weekday": "sunday", "livingplace": "Cugy"}}, "location": "Lausanne"}, "Tour du Pays de Vaud printanier #1 Chavornay": {"latitude": 46.3832683, "longitude": 6.2347852, "race": "Tour du Pays de Vaud printanier #1 Chavornay", "date": {"mer. 30.05.2012": {"year": 2012, "day": 30, "month": 5, "categories": {"H-Sen2": {"distance": 9, "rank": 44, "pace": 312000000000, "time": 2801.3}}, "weekday": "wednesday", "livingplace": "Cugy"}}, "location": "Nyon"}, "Tour du Pays de Vaud #3 - Mezi\u00e8res": {"latitude": 46.7784736, "longitude": 6.641183, "race": "Tour du Pays de Vaud #3 - Mezi\u00e8res", "date": {"mer. 22.08.2012": {"year": 2012, "day": 22, "month": 8, "categories": {"H-Sen2": {"distance": 8, "rank": 121, "pace": 339000000000, "time": 2854.1}}, "weekday": "wednesday", "livingplace": "Cugy"}}, "location": "Yverdon-les-Bains"}, "20km de Lausanne": {"latitude": 46.5196535, "longitude": 6.6322734, "race": "20km de Lausanne", "date": {"sam. 24.04.2010": {"year": 2010, "day": 24, "month": 4, "categories": {"20-H30": {"distance": 20, "rank": 612, "pace": 333000000000, "time": 6667.9}}, "weekday": "saturday", "livingplace": "Cugy"}, "sam. 26.04.2014": {"year": 2014, "day": 26, "month": 4, "categories": {"20-H40": {"distance": 20, "rank": 326, "pace": 323000000000, "time": 6462.6}}, "weekday": "saturday", "livingplace": "Cugy"}}, "location": "Lausanne"}, "Tour du Pays de Vaud #4 - La Sarraz": {"latitude": 46.7088129, "longitude": 6.5707689, "race": "Tour du Pays de Vaud #4 - La Sarraz", "date": {"mer. 29.08.2012": {"year": 2012, "day": 29, "month": 8, "categories": {"H-Sen2": {"distance": 9, "rank": 121, "pace": 304000000000, "time": 2591.3}}, "weekday": "wednesday", "livingplace": "Cugy"}}, "location": "Chavornay"}, "Tour du pays de Vaud #1 - Penthaz": {"latitude": 46.5993131, "longitude": 6.539251200000001, "race": "Tour du pays de Vaud #1 - Penthaz", "date": {"mer. 08.08.2012": {"year": 2012, "day": 8, "month": 8, "categories": {"H-Sen2": {"distance": 9, "rank": 103, "pace": 307000000000, "time": 2626.6}}, "weekday": "wednesday", "livingplace": "Cugy"}}, "location": "Penthaz"}}, "birth": 1972}