{"name": "Gex-Collet Pierre-Joseph", "sex": "M", "races": {"Tour du Chablais #1 Roche": {"latitude": 46.2957462, "longitude": 6.9916269, "race": "Tour du Chablais #1 Roche", "date": {"mer. 07.04.2010": {"year": 2010, "day": 7, "month": 4, "categories": {"M-M20": {"distance": 9, "rank": 51, "pace": 240000000000, "time": 2150.0}}, "weekday": "wednesday", "livingplace": "Troistorrents"}, "mer. 03.04.2013": {"year": 2013, "day": 3, "month": 4, "categories": {"M-M20": {"distance": 9, "rank": 9, "pace": 210000000000, "time": 1861.6}}, "weekday": "wednesday", "livingplace": "Cham"}}, "location": "Ollon VD"}, "Tour du Chablais #2 Rennaz": {"latitude": 46.3835529, "longitude": 6.854975199999999, "race": "Tour du Chablais #2 Rennaz", "date": {"mer. 04.05.2011": {"year": 2011, "day": 4, "month": 5, "categories": {"M-M20": {"distance": 9, "rank": 34, "pace": 232000000000, "time": 2169.8}}, "weekday": "wednesday", "livingplace": "Troistorrents"}}, "location": "Bouveret"}, "Glacier 3000 Run, Gstaad": {"latitude": 46.4717588, "longitude": 7.2865728, "race": "Glacier 3000 Run, Gstaad", "date": {"sam. 10.08.2013": {"year": 2013, "day": 10, "month": 8, "categories": {"M30": {"distance": 26, "rank": 24, "pace": 434000000000, "time": 11306.0}}, "weekday": "saturday", "livingplace": "CABV Martigny"}}, "location": "Gstaad"}, "Morat-Fribourg": {"latitude": 46.92922110000001, "longitude": 7.120184, "race": "Morat-Fribourg", "date": {"sam. 05.10.2013": {"year": 2013, "day": 5, "month": 10, "categories": {"17-M20": {"distance": 17, "rank": 50, "pace": 225000000000, "time": 3928.2}}, "weekday": "saturday", "livingplace": "Cham"}, "sam. 03.10.2015": {"year": 2015, "day": 3, "month": 10, "categories": {"17-M40": {"distance": 17, "rank": 141, "pace": 276000000000, "time": 4751.7}}, "weekday": "saturday", "livingplace": "Martigny Croix"}}, "location": "Murten"}, "Tour du Chablais #4 Morgins": {"latitude": NaN, "longitude": NaN, "race": "Tour du Chablais #4 Morgins", "date": {"mer. 18.05.2011": {"year": 2011, "day": 18, "month": 5, "categories": {"M-M20": {"distance": 8, "rank": 52, "pace": 259000000000, "time": 2163.9}}, "weekday": "wednesday", "livingplace": "Troistorrents"}}, "location": "Les Mosses"}, "Tour du Chablais #6 Monthey": {"latitude": 46.3190253, "longitude": 6.970566, "race": "Tour du Chablais #6 Monthey", "date": {"mer. 08.05.2013": {"year": 2013, "day": 8, "month": 5, "categories": {"M-M20": {"distance": 9, "rank": 9, "pace": 209000000000, "time": 1957.0}}, "weekday": "wednesday", "livingplace": "Cham"}}, "location": "Aigle"}, "SM CS 10km Strasse route + Volkslauf 10km, Uster": {"latitude": 47.3482747, "longitude": 8.717873899999999, "race": "SM CS 10km Strasse route + Volkslauf 10km, Uster", "date": {"sam. 23.03.2013": {"year": 2013, "day": 23, "month": 3, "categories": {"10-M35": {"distance": 10, "rank": 15, "pace": 215000000000, "time": 2157.2}}, "weekday": "saturday", "livingplace": "Cham"}}, "location": "Uster"}, "Tour du Chablais #1 Lavey": {"latitude": 46.2957462, "longitude": 6.9916269, "race": "Tour du Chablais #1 Lavey", "date": {"mer. 27.04.2011": {"year": 2011, "day": 27, "month": 4, "categories": {"M-M20": {"distance": 9, "rank": 42, "pace": 239000000000, "time": 2152.3}}, "weekday": "wednesday", "livingplace": "Troistorrents"}}, "location": "Ollon VD"}, "Tour du Chablais #2 Yvorne": {"latitude": 46.3835529, "longitude": 6.854975199999999, "race": "Tour du Chablais #2 Yvorne", "date": {"mer. 10.04.2013": {"year": 2013, "day": 10, "month": 4, "categories": {"M-M20": {"distance": 8, "rank": 10, "pace": 227000000000, "time": 1823.9}}, "weekday": "wednesday", "livingplace": "Cham"}}, "location": "Bouveret"}, "Tour du Chablais #5 Leysin": {"latitude": 46.3603257, "longitude": 6.931504599999999, "race": "Tour du Chablais #5 Leysin", "date": {"mer. 05.05.2010": {"year": 2010, "day": 5, "month": 5, "categories": {"M-M20": {"distance": 8, "rank": 82, "pace": 292000000000, "time": 2471.3}}, "weekday": "wednesday", "livingplace": "Troistorrents"}}, "location": "Roche VD"}, "Tour du Chablais #5 Bex": {"latitude": 46.3603257, "longitude": 6.931504599999999, "race": "Tour du Chablais #5 Bex", "date": {"mer. 09.05.2012": {"year": 2012, "day": 9, "month": 5, "categories": {"M-M20": {"distance": 9, "rank": 31, "pace": 226000000000, "time": 2008.1}}, "weekday": "wednesday", "livingplace": "Troistorrents"}}, "location": "Roche VD"}, "Tour du Chablais #4 Champ\u00e9ry": {"latitude": NaN, "longitude": NaN, "race": "Tour du Chablais #4 Champ\u00e9ry", "date": {"mer. 02.05.2012": {"year": 2012, "day": 2, "month": 5, "categories": {"M-M20": {"distance": 8, "rank": 31, "pace": 228000000000, "time": 1897.1}}, "weekday": "wednesday", "livingplace": "Troistorrents"}}, "location": "Les Mosses"}, "Tour du Chablais #5 Morgins": {"latitude": 46.3603257, "longitude": 6.931504599999999, "race": "Tour du Chablais #5 Morgins", "date": {"mer. 01.05.2013": {"year": 2013, "day": 1, "month": 5, "categories": {"M-M20": {"distance": 8, "rank": 15, "pace": 229000000000, "time": 1743.6}}, "weekday": "wednesday", "livingplace": "Cham"}}, "location": "Roche VD"}, "Tour du Chablais #5 Les Mosses": {"latitude": 46.3603257, "longitude": 6.931504599999999, "race": "Tour du Chablais #5 Les Mosses", "date": {"mer. 25.05.2011": {"year": 2011, "day": 25, "month": 5, "categories": {"M-M20": {"distance": 8, "rank": 52, "pace": 259000000000, "time": 2072.1}}, "weekday": "wednesday", "livingplace": "Troistorrents"}}, "location": "Roche VD"}, "Tour du Chablais #6 Aigle": {"latitude": 46.3190253, "longitude": 6.970566, "race": "Tour du Chablais #6 Aigle", "date": {"mer. 01.06.2011": {"year": 2011, "day": 1, "month": 6, "categories": {"M-M20": {"distance": 10, "rank": 47, "pace": 232000000000, "time": 2376.3}}, "weekday": "wednesday", "livingplace": "Troistorrents"}}, "location": "Aigle"}, "Tour du Chablais #3 Bex": {"latitude": 46.1782231, "longitude": 7.0223787, "race": "Tour du Chablais #3 Bex", "date": {"mer. 21.04.2010": {"year": 2010, "day": 21, "month": 4, "categories": {"M-M20": {"distance": 10, "rank": 63, "pace": 257000000000, "time": 2576.4}}, "weekday": "wednesday", "livingplace": "Troistorrents"}}, "location": "Evionnaz"}, "Tour du Chablais #3 Collombey-Muraz": {"latitude": 46.1782231, "longitude": 7.0223787, "race": "Tour du Chablais #3 Collombey-Muraz", "date": {"mer. 25.04.2012": {"year": 2012, "day": 25, "month": 4, "categories": {"M-M20": {"distance": 9, "rank": 33, "pace": 226000000000, "time": 2034.1}}, "weekday": "wednesday", "livingplace": "Troistorrents"}}, "location": "Evionnaz"}, "Tour du Chablais #1 Martigny": {"latitude": 46.2957462, "longitude": 6.9916269, "race": "Tour du Chablais #1 Martigny", "date": {"mer. 23.04.2014": {"year": 2014, "day": 23, "month": 4, "categories": {"M-M20": {"distance": 9, "rank": 18, "pace": 215000000000, "time": 1829.9}}, "weekday": "wednesday", "livingplace": "Cham"}}, "location": "Ollon VD"}, "Tour du Chablais #4 St  Maurice": {"latitude": NaN, "longitude": NaN, "race": "Tour du Chablais #4 St  Maurice", "date": {"mer. 24.04.2013": {"year": 2013, "day": 24, "month": 4, "categories": {"M-M20": {"distance": 10, "rank": 9, "pace": 215000000000, "time": 2150.9}}, "weekday": "wednesday", "livingplace": "Cham"}}, "location": "Les Mosses"}, "Course de l'Escalade, Gen\u00e8ve": {"latitude": 46.2043907, "longitude": 6.1431577, "race": "Course de l'Escalade, Gen\u00e8ve", "date": {"sam. 07.12.2013": {"year": 2013, "day": 7, "month": 12, "categories": {"Esc-Hom2": {"distance": 7, "rank": 47, "pace": 229000000000, "time": 1659.9}}, "weekday": "saturday", "livingplace": "Val d'Illiez"}}, "location": "Gen\u00e8ve"}, "Tour du Chablais #3 Le Bouveret": {"latitude": 46.1782231, "longitude": 7.0223787, "race": "Tour du Chablais #3 Le Bouveret", "date": {"mer. 11.05.2011": {"year": 2011, "day": 11, "month": 5, "categories": {"M-M20": {"distance": 10, "rank": 48, "pace": 239000000000, "time": 2393.7}}, "weekday": "wednesday", "livingplace": "Troistorrents"}}, "location": "Evionnaz"}, "Les Traine-Savates, Cheseaux-sur-Lausanne": {"latitude": 46.585452, "longitude": 6.6047712, "race": "Les Traine-Savates, Cheseaux-sur-Lausanne", "date": {"sam. 09.04.2011": {"year": 2011, "day": 9, "month": 4, "categories": {"10-M20": {"distance": 10, "rank": 101, "pace": 264000000000, "time": 2750.6}}, "weekday": "saturday", "livingplace": "Troistorrents"}}, "location": "Cheseaux-sur-Lausanne"}, "Winterthur Marathon": {"latitude": 39.8088766, "longitude": -75.6037351, "race": "Winterthur Marathon", "date": {"dim. 25.05.2003": {"year": 2003, "day": 25, "month": 5, "categories": {"MM23": {"distance": 42, "rank": 4, "pace": 221000000000, "time": 9317.1}}, "weekday": "sunday", "livingplace": "Val d'Illiez"}}, "location": "Winterthur"}, "Int Greifenseelauf, Uster": {"latitude": 47.3482747, "longitude": 8.717873899999999, "race": "Int Greifenseelauf, Uster", "date": {"sam. 17.09.2005": {"year": 2005, "day": 17, "month": 9, "categories": {"H/M30": {"distance": 21, "rank": 8, "pace": 213000000000, "time": 4504.4}}, "weekday": "saturday", "livingplace": "Val d Illiez"}}, "location": "Uster"}, "Tour du Chablais #6 Mouthey": {"latitude": 46.3190253, "longitude": 6.970566, "race": "Tour du Chablais #6 Mouthey", "date": {"mer. 12.05.2010": {"year": 2010, "day": 12, "month": 5, "categories": {"M-M20": {"distance": 9, "rank": 125, "pace": 271000000000, "time": 2492.5}}, "weekday": "wednesday", "livingplace": "Troistorrents"}}, "location": "Aigle"}, "Tour du Chablais #1 Montreux": {"latitude": 46.2957462, "longitude": 6.9916269, "race": "Tour du Chablais #1 Montreux", "date": {"mer. 11.04.2012": {"year": 2012, "day": 11, "month": 4, "categories": {"M-M20": {"distance": 8, "rank": 28, "pace": 233000000000, "time": 1776.7}}, "weekday": "wednesday", "livingplace": "Troistorrents"}}, "location": "Ollon VD"}, "Tour du Chablais #3 Bouveret": {"latitude": 46.1782231, "longitude": 7.0223787, "race": "Tour du Chablais #3 Bouveret", "date": {"mer. 17.04.2013": {"year": 2013, "day": 17, "month": 4, "categories": {"M-M20": {"distance": 10, "rank": 10, "pace": 213000000000, "time": 2138.0}}, "weekday": "wednesday", "livingplace": "Cham"}}, "location": "Evionnaz"}, "Montreux - Les Rochers de Naye": {"latitude": 46.4312213, "longitude": 6.9106799, "race": "Montreux - Les Rochers de Naye", "date": {"dim. 06.07.2014": {"year": 2014, "day": 6, "month": 7, "categories": {"M-HElite": {"distance": 19, "rank": 129, "pace": 459000000000, "time": 8640.0}}, "weekday": "sunday", "livingplace": "Troistorrents"}}, "location": "Montreux"}, "Tour du Chablais #2 St-Gingolph": {"latitude": 46.3835529, "longitude": 6.854975199999999, "race": "Tour du Chablais #2 St-Gingolph", "date": {"mer. 14.04.2010": {"year": 2010, "day": 14, "month": 4, "categories": {"M-M20": {"distance": 8, "rank": 77, "pace": 279000000000, "time": 2337.0}}, "weekday": "wednesday", "livingplace": "Troistorrents"}}, "location": "Bouveret"}, "Tour du Chablais #4 Yvorne": {"latitude": NaN, "longitude": NaN, "race": "Tour du Chablais #4 Yvorne", "date": {"mer. 28.04.2010": {"year": 2010, "day": 28, "month": 4, "categories": {"M-M20": {"distance": 8, "rank": 121, "pace": 298000000000, "time": 2469.5}}, "weekday": "wednesday", "livingplace": "Troistorrents"}}, "location": "Les Mosses"}, "Swiss Snow Walk & Run, Leysin": {"latitude": 46.3435634, "longitude": 7.012033, "race": "Swiss Snow Walk & Run, Leysin", "date": {"sam. 12.12.2009": {"year": 2009, "day": 12, "month": 12, "categories": {"LM20": {"distance": 12, "rank": 1, "pace": 367000000000, "time": 4408.3}}, "weekday": "saturday", "livingplace": "Troistorrents"}}, "location": "Leysin"}, "Tour du Chablais #2 Bex": {"latitude": 46.3835529, "longitude": 6.854975199999999, "race": "Tour du Chablais #2 Bex", "date": {"mer. 18.04.2012": {"year": 2012, "day": 18, "month": 4, "categories": {"M-M20": {"distance": 8, "rank": 34, "pace": 232000000000, "time": 1858.5}}, "weekday": "wednesday", "livingplace": "Troistorrents"}}, "location": "Bouveret"}, "Tour du Chablais #6 Montreux": {"latitude": 46.3190253, "longitude": 6.970566, "race": "Tour du Chablais #6 Montreux", "date": {"mer. 16.05.2012": {"year": 2012, "day": 16, "month": 5, "categories": {"M-M20": {"distance": 9, "rank": 26, "pace": 224000000000, "time": 2077.8}}, "weekday": "wednesday", "livingplace": "Troistorrents"}}, "location": "Aigle"}}, "birth": 1975}