{"name": "Gex Pierre-Andr\u00e9", "sex": "M", "races": {"Tour du Chablais #1 Roche": {"latitude": 46.2957462, "longitude": 6.9916269, "race": "Tour du Chablais #1 Roche", "date": {"mer. 07.04.2010": {"year": 2010, "day": 7, "month": 4, "categories": {"M-M40": {"distance": 9, "rank": 88, "pace": 272000000000, "time": 2442.3}}, "weekday": "wednesday", "livingplace": "Vouvry"}}, "location": "Ollon VD"}, "Tour du Chablais #2 Rennaz": {"latitude": 46.3835529, "longitude": 6.854975199999999, "race": "Tour du Chablais #2 Rennaz", "date": {"mer. 04.05.2011": {"year": 2011, "day": 4, "month": 5, "categories": {"M-M50": {"distance": 9, "rank": 37, "pace": 270000000000, "time": 2525.8}}, "weekday": "wednesday", "livingplace": "Vouvry"}}, "location": "Bouveret"}, "Tour du Chablais #6 Mouthey": {"latitude": 46.3190253, "longitude": 6.970566, "race": "Tour du Chablais #6 Mouthey", "date": {"mer. 12.05.2010": {"year": 2010, "day": 12, "month": 5, "categories": {"M-M40": {"distance": 9, "rank": 61, "pace": 254000000000, "time": 2341.6}}, "weekday": "wednesday", "livingplace": "Vouvry"}}, "location": "Aigle"}, "Tour du Chablais #1 Montreux": {"latitude": 46.2957462, "longitude": 6.9916269, "race": "Tour du Chablais #1 Montreux", "date": {"mer. 11.04.2012": {"year": 2012, "day": 11, "month": 4, "categories": {"M-M50": {"distance": 8, "rank": 22, "pace": 273000000000, "time": 2081.2}}, "weekday": "wednesday", "livingplace": "Vouvry"}}, "location": "Ollon VD"}, "20km de Lausanne": {"latitude": 46.5196535, "longitude": 6.6322734, "race": "20km de Lausanne", "date": {"sam. 25.04.2015": {"year": 2015, "day": 25, "month": 4, "categories": {"10-H50": {"distance": 10, "rank": 68, "pace": 285000000000, "time": 2857.6}}, "weekday": "saturday", "livingplace": "Vouvry"}}, "location": "Lausanne"}, "Lausanne Marathon": {"latitude": 46.5196535, "longitude": 6.6322734, "race": "Lausanne Marathon", "date": {"sam. 24.10.2015": {"year": 2015, "day": 24, "month": 10, "categories": {"10-H50": {"distance": 10, "rank": 200, "pace": 318000000000, "time": 3184.2}}, "weekday": "saturday", "livingplace": "Vouvry"}}, "location": "Lausanne"}, "Tour du Chablais #2 St-Gingolph": {"latitude": 46.3835529, "longitude": 6.854975199999999, "race": "Tour du Chablais #2 St-Gingolph", "date": {"mer. 14.04.2010": {"year": 2010, "day": 14, "month": 4, "categories": {"M-M40": {"distance": 8, "rank": 69, "pace": 282000000000, "time": 2360.0}}, "weekday": "wednesday", "livingplace": "Vouvry"}}, "location": "Bouveret"}, "Tour du Chablais #4 Yvorne": {"latitude": NaN, "longitude": NaN, "race": "Tour du Chablais #4 Yvorne", "date": {"mer. 28.04.2010": {"year": 2010, "day": 28, "month": 4, "categories": {"M-M40": {"distance": 8, "rank": 82, "pace": 285000000000, "time": 2365.7}}, "weekday": "wednesday", "livingplace": "Vouvry"}}, "location": "Les Mosses"}, "Tour du Chablais #4 Champ\u00e9ry": {"latitude": NaN, "longitude": NaN, "race": "Tour du Chablais #4 Champ\u00e9ry", "date": {"mer. 02.05.2012": {"year": 2012, "day": 2, "month": 5, "categories": {"M-M50": {"distance": 8, "rank": 12, "pace": 255000000000, "time": 2117.9}}, "weekday": "wednesday", "livingplace": "Vouvry"}}, "location": "Les Mosses"}, "Tour du Chablais #5 Leysin": {"latitude": 46.3603257, "longitude": 6.931504599999999, "race": "Tour du Chablais #5 Leysin", "date": {"mer. 05.05.2010": {"year": 2010, "day": 5, "month": 5, "categories": {"M-M40": {"distance": 8, "rank": 47, "pace": 282000000000, "time": 2385.6}}, "weekday": "wednesday", "livingplace": "Vouvry"}}, "location": "Roche VD"}}, "birth": 1961}