{"name": "Ghoubali Bachir", "sex": "M", "races": {"Grand Prix Craft, Neuch\u00e2tel": {"latitude": 46.9899874, "longitude": 6.9292732, "race": "Grand Prix Craft, Neuch\u00e2tel", "date": {"dim. 17.12.2006": {"year": 2006, "day": 17, "month": 12, "categories": {"HS1": {"distance": 7, "rank": 44, "pace": 244000000000, "time": 1712.1}}, "weekday": "sunday", "livingplace": "Bern"}}, "location": "Neuch\u00e2tel"}, "20km de Lausanne": {"latitude": 46.5196535, "longitude": 6.6322734, "race": "20km de Lausanne", "date": {"sam. 28.04.2007": {"year": 2007, "day": 28, "month": 4, "categories": {"20H30": {"distance": 20, "rank": 236, "pace": 286000000000, "time": 5727.4}}, "weekday": "saturday", "livingplace": "Bern"}}, "location": "Lausanne"}, "Gurtenclassic, Wabern": {"latitude": 46.92901639999999, "longitude": 7.448973199999999, "race": "Gurtenclassic, Wabern", "date": {"dim. 06.11.2005": {"year": 2005, "day": 6, "month": 11, "categories": {"M20": {"distance": 15, "rank": 61, "pace": 328000000000, "time": 4921.9}}, "weekday": "sunday", "livingplace": "Bern"}, "dim. 05.11.2006": {"year": 2006, "day": 5, "month": 11, "categories": {"M20": {"distance": 15, "rank": 53, "pace": 320000000000, "time": 4809.4}}, "weekday": "sunday", "livingplace": "Bern"}}, "location": "Wabern"}, "Morat-Fribourg": {"latitude": 46.92922110000001, "longitude": 7.120184, "race": "Morat-Fribourg", "date": {"sam. 06.10.2012": {"year": 2012, "day": 6, "month": 10, "categories": {"17-M20": {"distance": 17, "rank": 1010, "pace": 302000000000, "time": 5274.6}}, "weekday": "saturday", "livingplace": "Bern"}, "sam. 06.10.2007": {"year": 2007, "day": 6, "month": 10, "categories": {"C/M20": {"distance": 17, "rank": 758, "pace": 292000000000, "time": 5019.7}}, "weekday": "saturday", "livingplace": "Bern"}}, "location": "Murten"}, "Z\u00fcrich Marathon, Teamrun und Cityrun": {"latitude": 47.3768866, "longitude": 8.541694, "race": "Z\u00fcrich Marathon, Teamrun und Cityrun", "date": {"dim. 01.04.2007": {"year": 2007, "day": 1, "month": 4, "categories": {"M30": {"distance": 42, "rank": 721, "pace": 318000000000, "time": 13433.0}}, "weekday": "sunday", "livingplace": "Bern"}}, "location": "Z\u00fcrich"}}, "birth": 1974}