{"name": "Gigon Gervais", "sex": "M", "races": {"BCN Tour Couvet": {"latitude": 47.0624261, "longitude": 6.9175754, "race": "BCN Tour Couvet", "date": {"mer. 02.05.2012": {"year": 2012, "day": 2, "month": 5, "categories": {"HS1": {"distance": 11, "rank": 70, "pace": 279000000000, "time": 3112.2}}, "weekday": "wednesday", "livingplace": "Geneve"}}, "location": "Ch\u00e9zard-St-Martin"}, "BCN Tour La Chaux-de-Fonds": {"latitude": 46.9262933, "longitude": 6.6324944, "race": "BCN Tour La Chaux-de-Fonds", "date": {"mer. 23.05.2012": {"year": 2012, "day": 23, "month": 5, "categories": {"HS1": {"distance": 11, "rank": 24, "pace": 247000000000, "time": 2674.9}}, "weekday": "wednesday", "livingplace": "Geneve"}}, "location": "Couvet"}, "BCN Tour Les Ponts-de-Martel": {"latitude": 46.999113, "longitude": 6.733554799999999, "race": "BCN Tour Les Ponts-de-Martel", "date": {"mer. 09.05.2012": {"year": 2012, "day": 9, "month": 5, "categories": {"HS1": {"distance": 10, "rank": 37, "pace": 254000000000, "time": 2620.5}}, "weekday": "wednesday", "livingplace": "Geneve"}}, "location": "Les Ponts-de-Martel"}, "BCN Tour Neuch\u00e2tel": {"latitude": 46.9899874, "longitude": 6.9292732, "race": "BCN Tour Neuch\u00e2tel", "date": {"mer. 30.05.2012": {"year": 2012, "day": 30, "month": 5, "categories": {"HS1": {"distance": 11, "rank": 18, "pace": 253000000000, "time": 2843.0}}, "weekday": "wednesday", "livingplace": "Geneve"}}, "location": "Neuch\u00e2tel"}, "BCN Tour Ponts-de-Martel": {"latitude": 47.0624261, "longitude": 6.9175754, "race": "BCN Tour Ponts-de-Martel", "date": {"mer. 28.04.2010": {"year": 2010, "day": 28, "month": 4, "categories": {"HS1": {"distance": 11, "rank": 31, "pace": 260000000000, "time": 2913.4}}, "weekday": "wednesday", "livingplace": "Geneve"}}, "location": "Ch\u00e9zard-St-Martin"}, "Morat-Fribourg": {"latitude": 46.92922110000001, "longitude": 7.120184, "race": "Morat-Fribourg", "date": {"sam. 06.10.2012": {"year": 2012, "day": 6, "month": 10, "categories": {"17-M20": {"distance": 17, "rank": 179, "pace": 252000000000, "time": 4412.5}}, "weekday": "saturday", "livingplace": "Geneve"}}, "location": "Murten"}, "BCN Tour Le Locle": {"latitude": 46.999113, "longitude": 6.733554799999999, "race": "BCN Tour Le Locle", "date": {"mer. 05.05.2010": {"year": 2010, "day": 5, "month": 5, "categories": {"HS1": {"distance": 11, "rank": 21, "pace": 241000000000, "time": 2635.5}}, "weekday": "wednesday", "livingplace": "Geneve"}}, "location": "Les Ponts-de-Martel"}, "BCN Tour Le Landeron": {"latitude": 46.9668714, "longitude": 6.8589727, "race": "BCN Tour Le Landeron", "date": {"mer. 22.04.2009": {"year": 2009, "day": 22, "month": 4, "categories": {"HS1": {"distance": 11, "rank": 48, "pace": 260000000000, "time": 2895.4}}, "weekday": "wednesday", "livingplace": "Geneve"}}, "location": "Colombier NE"}, "Dreil\u00e4nder-Lauf, Basel": {"latitude": 47.5595986, "longitude": 7.5885761, "race": "Dreil\u00e4nder-Lauf, Basel", "date": {"dim. 26.05.2013": {"year": 2013, "day": 26, "month": 5, "categories": {"21M30": {"distance": 21, "rank": 17, "pace": 245000000000, "time": 5176.4}}, "weekday": "sunday", "livingplace": "Porrentruy"}}, "location": "Basel"}, "BCN Tour Cornaux": {"latitude": 46.9668714, "longitude": 6.8589727, "race": "BCN Tour Cornaux", "date": {"mer. 25.04.2012": {"year": 2012, "day": 25, "month": 4, "categories": {"HS1": {"distance": 11, "rank": 18, "pace": 261000000000, "time": 2878.2}}, "weekday": "wednesday", "livingplace": "Geneve"}}, "location": "Colombier NE"}, "BCN Tour Colombier": {"latitude": 46.9668714, "longitude": 6.8589727, "race": "BCN Tour Colombier", "date": {"mer. 16.05.2012": {"year": 2012, "day": 16, "month": 5, "categories": {"HS1": {"distance": 11, "rank": 28, "pace": 246000000000, "time": 2667.2}}, "weekday": "wednesday", "livingplace": "Geneve"}, "mer. 23.04.2008": {"year": 2008, "day": 23, "month": 4, "categories": {"HS1": {"distance": 10, "rank": 44, "pace": 268000000000, "time": 2742.4}}, "weekday": "wednesday", "livingplace": "Geneve"}}, "location": "Colombier NE"}}, "birth": 1976}