{"name": "Gilliard Damien", "sex": "M", "races": {"Course de l'Escalade, Gen\u00e8ve": {"latitude": 46.2043907, "longitude": 6.1431577, "race": "Course de l'Escalade, Gen\u00e8ve", "date": {"sam. 05.12.2009": {"year": 2009, "day": 5, "month": 12, "categories": {"Hommes1": {"distance": 7, "rank": 693, "pace": 302000000000, "time": 2195.7}}, "weekday": "saturday", "livingplace": "Le Landeron"}, "sam. 04.12.2010": {"year": 2010, "day": 4, "month": 12, "categories": {"H-H1": {"distance": 7, "rank": 653, "pace": 275000000000, "time": 2000.4}}, "weekday": "saturday", "livingplace": "Le Landeron"}}, "location": "Gen\u00e8ve"}, "Course de l'Avent, Yverdon": {"latitude": 46.8064773, "longitude": 7.161971899999999, "race": "Course de l'Avent, Yverdon", "date": {"dim. 28.11.2010": {"year": 2010, "day": 28, "month": 11, "categories": {"P-H33": {"distance": 6, "rank": 10, "pace": 283000000000, "time": 1748.4}}, "weekday": "sunday", "livingplace": "Le Landeron"}, "dim. 27.11.2011": {"year": 2011, "day": 27, "month": 11, "categories": {"P-H2": {"distance": 6, "rank": 12, "pace": 278000000000, "time": 1714.4}}, "weekday": "sunday", "livingplace": "Le Landeron"}}, "location": "Fribourg"}, "Corrida Bulloise, Bulle": {"latitude": 46.6154512, "longitude": 7.057726799999999, "race": "Corrida Bulloise, Bulle", "date": {"sam. 15.11.2014": {"year": 2014, "day": 15, "month": 11, "categories": {"Pop-Hom": {"distance": 6, "rank": 246, "pace": 281000000000, "time": 1734.1}}, "weekday": "saturday", "livingplace": "Constantine"}}, "location": "Bulle"}, "Lausanne Marathon": {"latitude": 46.5196535, "longitude": 6.6322734, "race": "Lausanne Marathon", "date": {"dim. 31.10.2010": {"year": 2010, "day": 31, "month": 10, "categories": {"10-H1": {"distance": 10, "rank": 175, "pace": 282000000000, "time": 2825.6}}, "weekday": "sunday", "livingplace": "Le Landeron"}, "dim. 27.10.2013": {"year": 2013, "day": 27, "month": 10, "categories": {"21-H1": {"distance": 21, "rank": 470, "pace": 336000000000, "time": 7099.9}}, "weekday": "sunday", "livingplace": "Constantine"}}, "location": "Lausanne"}, "20km de Lausanne": {"latitude": 46.5196535, "longitude": 6.6322734, "race": "20km de Lausanne", "date": {"sam. 30.04.2011": {"year": 2011, "day": 30, "month": 4, "categories": {"10-H20": {"distance": 10, "rank": 492, "pace": 325000000000, "time": 3252.2}}, "weekday": "saturday", "livingplace": "Le Landeron"}, "sam. 26.04.2014": {"year": 2014, "day": 26, "month": 4, "categories": {"10-H30": {"distance": 10, "rank": 360, "pace": 293000000000, "time": 2932.5}}, "weekday": "saturday", "livingplace": "Constantine"}}, "location": "Lausanne"}, "Kerzerslauf": {"latitude": 46.97488999999999, "longitude": 7.1954365, "race": "Kerzerslauf", "date": {"sam. 17.03.2012": {"year": 2012, "day": 17, "month": 3, "categories": {"15-M20": {"distance": 15, "rank": 412, "pace": 302000000000, "time": 4538.2}}, "weekday": "saturday", "livingplace": "Le Landeron"}}, "location": "Kerzers"}}, "birth": 1984}