{"name": "Gindroz Sandra", "sex": "F", "races": {"Tour du Pays de Vaud etape 5 - La Sarraz": {"latitude": 46.5993131, "longitude": 6.539251200000001, "race": "Tour du Pays de Vaud etape 5 - La Sarraz", "date": {"mer. 09.09.2009": {"year": 2009, "day": 9, "month": 9, "categories": {"Dam": {"distance": 9, "rank": 11, "pace": 307000000000, "time": 2585.5}}, "weekday": "wednesday", "livingplace": "Penthereaz"}}, "location": "Penthaz"}, "Lucerne Marathon, Luzern": {"latitude": 47.05016819999999, "longitude": 8.3093072, "race": "Lucerne Marathon, Luzern", "date": {"dim. 30.10.2011": {"year": 2011, "day": 30, "month": 10, "categories": {"H-F20": {"distance": 21, "rank": 50, "pace": 295000000000, "time": 6229.3}}, "weekday": "sunday", "livingplace": "Penthereaz"}}, "location": "Luzern"}, "Tour du pays de Vaud #1 - Penthaz": {"latitude": 46.5993131, "longitude": 6.539251200000001, "race": "Tour du pays de Vaud #1 - Penthaz", "date": {"mer. 08.08.2012": {"year": 2012, "day": 8, "month": 8, "categories": {"D-Dam": {"distance": 9, "rank": 26, "pace": 314000000000, "time": 2686.9}}, "weekday": "wednesday", "livingplace": "Penthereaz"}}, "location": "Penthaz"}, "Morat-Fribourg": {"latitude": 46.92922110000001, "longitude": 7.120184, "race": "Morat-Fribourg", "date": {"sam. 03.10.2009": {"year": 2009, "day": 3, "month": 10, "categories": {"C-W20": {"distance": 17, "rank": 189, "pace": 341000000000, "time": 5867.1}}, "weekday": "saturday", "livingplace": "Ste Croix"}, "sam. 03.10.2015": {"year": 2015, "day": 3, "month": 10, "categories": {"17-W20": {"distance": 17, "rank": 313, "pace": 348000000000, "time": 5982.6}}, "weekday": "saturday", "livingplace": "Dompierre"}}, "location": "Murten"}, "Course de l'Avent, Yverdon": {"latitude": 46.8064773, "longitude": 7.161971899999999, "race": "Course de l'Avent, Yverdon", "date": {"dim. 28.11.2010": {"year": 2010, "day": 28, "month": 11, "categories": {"P-F23": {"distance": 6, "rank": 1, "pace": 309000000000, "time": 1907.8}}, "weekday": "sunday", "livingplace": "Penthereaz"}}, "location": "Fribourg"}, "Tour du Pays de Vaud printanier #2 Yverdon-les-Bains": {"latitude": 46.6698891, "longitude": 6.7975224, "race": "Tour du Pays de Vaud printanier #2 Yverdon-les-Bains", "date": {"mer. 05.06.2013": {"year": 2013, "day": 5, "month": 6, "categories": {"D-Dam": {"distance": 9, "rank": 16, "pace": 332000000000, "time": 3023.3}}, "weekday": "wednesday", "livingplace": "Penthereaz"}}, "location": "Moudon"}, "Tour du Pays de Vaud etape 1 - Le Mont sur Lausanne": {"latitude": 46.7784736, "longitude": 6.641183, "race": "Tour du Pays de Vaud etape 1 - Le Mont sur Lausanne", "date": {"mer. 15.08.2007": {"year": 2007, "day": 15, "month": 8, "categories": {"DJ": {"distance": 8, "rank": 4, "pace": 328000000000, "time": 2725.5}}, "weekday": "wednesday", "livingplace": "Penthereaz"}, "mer. 12.08.2009": {"year": 2009, "day": 12, "month": 8, "categories": {"Dam": {"distance": 9, "rank": 13, "pace": 330000000000, "time": 3070.9}}, "weekday": "wednesday", "livingplace": "Penthereaz"}}, "location": "Yverdon-les-Bains"}, "20km de Lausanne": {"latitude": 46.5196535, "longitude": 6.6322734, "race": "20km de Lausanne", "date": {"sam. 30.04.2011": {"year": 2011, "day": 30, "month": 4, "categories": {"10-F20": {"distance": 10, "rank": 146, "pace": 323000000000, "time": 3232.2}}, "weekday": "saturday", "livingplace": "Penthereaz"}, "sam. 24.04.2010": {"year": 2010, "day": 24, "month": 4, "categories": {"20-F20": {"distance": 20, "rank": 55, "pace": 330000000000, "time": 6606.7}}, "weekday": "saturday", "livingplace": "Ste Croix"}, "sam. 25.04.2015": {"year": 2015, "day": 25, "month": 4, "categories": {"10-F20": {"distance": 10, "rank": 84, "pace": 297000000000, "time": 2975.8}}, "weekday": "saturday", "livingplace": "Comem Run"}, "sam. 26.04.2014": {"year": 2014, "day": 26, "month": 4, "categories": {"10-F20": {"distance": 10, "rank": 54, "pace": 295000000000, "time": 2955.4}}, "weekday": "saturday", "livingplace": "Team Fede"}}, "location": "Lausanne"}, "Tour du Pays de Vaud printanier #1 Moudon": {"latitude": 46.3832683, "longitude": 6.2347852, "race": "Tour du Pays de Vaud printanier #1 Moudon", "date": {"mer. 29.05.2013": {"year": 2013, "day": 29, "month": 5, "categories": {"D-Dam": {"distance": 8, "rank": 10, "pace": 320000000000, "time": 2740.8}}, "weekday": "wednesday", "livingplace": "Penthereaz"}}, "location": "Nyon"}, "Tour du Pays de Vaud #2 - Genolier": {"latitude": 46.5955273, "longitude": 6.7702883, "race": "Tour du Pays de Vaud #2 - Genolier", "date": {"mer. 15.08.2012": {"year": 2012, "day": 15, "month": 8, "categories": {"D-Dam": {"distance": 9, "rank": 23, "pace": 316000000000, "time": 2693.4}}, "weekday": "wednesday", "livingplace": "Penthereaz"}}, "location": "M\u00e9zi\u00e8res VD"}, "Tour du Pays de Vaud printanier #3 - Yens": {"latitude": 46.7829756, "longitude": 6.5728678, "race": "Tour du Pays de Vaud printanier #3 - Yens", "date": {"mer. 12.06.2013": {"year": 2013, "day": 12, "month": 6, "categories": {"D-Dam": {"distance": 9, "rank": 12, "pace": 321000000000, "time": 2925.3}}, "weekday": "wednesday", "livingplace": "Penthereaz"}}, "location": "Champvent"}, "Tour du Pays de Vaud etape 2 - Genolier": {"latitude": 46.5955273, "longitude": 6.7702883, "race": "Tour du Pays de Vaud etape 2 - Genolier", "date": {"mer. 19.08.2009": {"year": 2009, "day": 19, "month": 8, "categories": {"Dam": {"distance": 8, "rank": 13, "pace": 321000000000, "time": 2602.9}}, "weekday": "wednesday", "livingplace": "Penthereaz"}}, "location": "M\u00e9zi\u00e8res VD"}, "Tour du Pays de Vaud etape 3 - Aubonne": {"latitude": 46.7829756, "longitude": 6.5728678, "race": "Tour du Pays de Vaud etape 3 - Aubonne", "date": {"mer. 29.08.2007": {"year": 2007, "day": 29, "month": 8, "categories": {"DJ": {"distance": 8, "rank": 2, "pace": 343000000000, "time": 2785.0}}, "weekday": "wednesday", "livingplace": "Penthereaz"}}, "location": "Champvent"}, "Tour du Pays de Vaud #4 - La Sarraz": {"latitude": 46.7088129, "longitude": 6.5707689, "race": "Tour du Pays de Vaud #4 - La Sarraz", "date": {"mer. 29.08.2012": {"year": 2012, "day": 29, "month": 8, "categories": {"D-Dam": {"distance": 9, "rank": 27, "pace": 310000000000, "time": 2641.4}}, "weekday": "wednesday", "livingplace": "Penthereaz"}}, "location": "Chavornay"}, "Kerzerslauf": {"latitude": 46.97488999999999, "longitude": 7.1954365, "race": "Kerzerslauf", "date": {"sam. 20.03.2010": {"year": 2010, "day": 20, "month": 3, "categories": {"15-F20": {"distance": 15, "rank": 183, "pace": 335000000000, "time": 5038.5}}, "weekday": "saturday", "livingplace": "Ste Croix"}}, "location": "Kerzers"}}, "birth": 1988}