{"name": "Gindrat Karine", "sex": "F", "races": {"Tour du Pays de Vaud #1, Penthaz": {"latitude": 46.5993131, "longitude": 6.539251200000001, "race": "Tour du Pays de Vaud #1, Penthaz", "date": {"mer. 13.08.2014": {"year": 2014, "day": 13, "month": 8, "categories": {"D-Jun": {"distance": 9, "rank": 4, "pace": 358000000000, "time": 3055.3}}, "weekday": "wednesday", "livingplace": "Cossonay Ville"}}, "location": "Penthaz"}, "Tour du Pays de Vaud #2, Mezi\u00e8res": {"latitude": 46.5955273, "longitude": 6.7702883, "race": "Tour du Pays de Vaud #2, Mezi\u00e8res", "date": {"mer. 20.08.2014": {"year": 2014, "day": 20, "month": 8, "categories": {"D-Jun": {"distance": 8, "rank": 6, "pace": 411000000000, "time": 3333.3}}, "weekday": "wednesday", "livingplace": "Cossonay Ville"}}, "location": "M\u00e9zi\u00e8res VD"}, "Lausanne Marathon": {"latitude": 46.5196535, "longitude": 6.6322734, "race": "Lausanne Marathon", "date": {"sam. 24.10.2015": {"year": 2015, "day": 24, "month": 10, "categories": {"10-JunF": {"distance": 10, "rank": 59, "pace": 318000000000, "time": 3186.4}}, "weekday": "saturday", "livingplace": "Cossonay"}}, "location": "Lausanne"}, "20km de Lausanne": {"latitude": 46.5196535, "longitude": 6.6322734, "race": "20km de Lausanne", "date": {"sam. 25.04.2009": {"year": 2009, "day": 25, "month": 4, "categories": {"EcolC-F": {"distance": 4, "rank": 152, "pace": 371000000000, "time": 1485.8}}, "weekday": "saturday", "livingplace": "Cossonay Ville"}}, "location": "Lausanne"}, "Tour du Pays de Vaud #4, La Sarraz": {"latitude": 46.7088129, "longitude": 6.5707689, "race": "Tour du Pays de Vaud #4, La Sarraz", "date": {"mer. 03.09.2014": {"year": 2014, "day": 3, "month": 9, "categories": {"D-Jun": {"distance": 9, "rank": 5, "pace": 368000000000, "time": 3133.8}}, "weekday": "wednesday", "livingplace": "Cossonay Ville"}}, "location": "Chavornay"}, "Les Traine-Savates, Cheseaux-sur-Lausanne": {"latitude": 46.585452, "longitude": 6.6047712, "race": "Les Traine-Savates, Cheseaux-sur-Lausanne", "date": {"sam. 12.04.2014": {"year": 2014, "day": 12, "month": 4, "categories": {"U18W": {"distance": 3, "rank": 11, "pace": 286000000000, "time": 944.0}}, "weekday": "saturday", "livingplace": "Cossonay Ville"}}, "location": "Cheseaux-sur-Lausanne"}, "Tour du Pays de Vaud #3, Chavornay": {"latitude": 46.7784736, "longitude": 6.641183, "race": "Tour du Pays de Vaud #3, Chavornay", "date": {"mer. 27.08.2014": {"year": 2014, "day": 27, "month": 8, "categories": {"D-Jun": {"distance": 9, "rank": 5, "pace": 381000000000, "time": 3283.1}}, "weekday": "wednesday", "livingplace": "Cossonay Ville"}}, "location": "Yverdon-les-Bains"}}, "birth": 1998}