{"name": "Gines Georges", "sex": "M", "races": {"BCN Tour #1 Corcelles": {"latitude": 46.9668714, "longitude": 6.8589727, "race": "BCN Tour #1 Corcelles", "date": {"mer. 24.04.2013": {"year": 2013, "day": 24, "month": 4, "categories": {"HV2": {"distance": 10, "rank": 19, "pace": 338000000000, "time": 3316.6}}, "weekday": "wednesday", "livingplace": "Cormondreche"}}, "location": "Colombier NE"}, "BCN Tour M\u00f4tier": {"latitude": 46.9262933, "longitude": 6.6324944, "race": "BCN Tour M\u00f4tier", "date": {"mer. 19.05.2010": {"year": 2010, "day": 19, "month": 5, "categories": {"HV2": {"distance": 10, "rank": 15, "pace": 307000000000, "time": 3040.2}}, "weekday": "wednesday", "livingplace": "Cormondreche"}}, "location": "Couvet"}, "BCN Tour Fontaine Cernier": {"latitude": 47.0624261, "longitude": 6.9175754, "race": "BCN Tour Fontaine Cernier", "date": {"mer. 27.04.2011": {"year": 2011, "day": 27, "month": 4, "categories": {"HV2": {"distance": 10, "rank": 25, "pace": 344000000000, "time": 3544.4}}, "weekday": "wednesday", "livingplace": "Cormondreche"}}, "location": "Ch\u00e9zard-St-Martin"}, "BCN Tour Le Landeron": {"latitude": 46.9668714, "longitude": 6.8589727, "race": "BCN Tour Le Landeron", "date": {"mer. 22.04.2009": {"year": 2009, "day": 22, "month": 4, "categories": {"HV2": {"distance": 11, "rank": 10, "pace": 302000000000, "time": 3354.1}}, "weekday": "wednesday", "livingplace": "Cormondreche"}}, "location": "Colombier NE"}, "BCN Tour Cornaux": {"latitude": 46.9668714, "longitude": 6.8589727, "race": "BCN Tour Cornaux", "date": {"mer. 25.04.2012": {"year": 2012, "day": 25, "month": 4, "categories": {"HV2": {"distance": 11, "rank": 22, "pace": 376000000000, "time": 4138.0}}, "weekday": "wednesday", "livingplace": "Cormondreche"}}, "location": "Colombier NE"}, "BCN Tour Le Locle": {"latitude": 46.999113, "longitude": 6.733554799999999, "race": "BCN Tour Le Locle", "date": {"mer. 05.05.2010": {"year": 2010, "day": 5, "month": 5, "categories": {"HV2": {"distance": 11, "rank": 17, "pace": 329000000000, "time": 3596.0}}, "weekday": "wednesday", "livingplace": "Cormondreche"}}, "location": "Les Ponts-de-Martel"}, "BCN Tour Ponts-de-Martel": {"latitude": 47.0624261, "longitude": 6.9175754, "race": "BCN Tour Ponts-de-Martel", "date": {"mer. 28.04.2010": {"year": 2010, "day": 28, "month": 4, "categories": {"HV2": {"distance": 11, "rank": 15, "pace": 324000000000, "time": 3629.6}}, "weekday": "wednesday", "livingplace": "Cormondreche"}}, "location": "Ch\u00e9zard-St-Martin"}, "BCN Tour Auvernier": {"latitude": 46.9668714, "longitude": 6.8589727, "race": "BCN Tour Auvernier", "date": {"mer. 20.04.2011": {"year": 2011, "day": 20, "month": 4, "categories": {"HV2": {"distance": 11, "rank": 29, "pace": 398000000000, "time": 4303.7}}, "weekday": "wednesday", "livingplace": "Cormondreche"}}, "location": "Colombier NE"}, "BCN Tour #4 Fleurier": {"latitude": 47.1034892, "longitude": 6.832783800000001, "race": "BCN Tour #4 Fleurier", "date": {"mer. 15.05.2013": {"year": 2013, "day": 15, "month": 5, "categories": {"HV2": {"distance": 9, "rank": 23, "pace": 348000000000, "time": 3010.9}}, "weekday": "wednesday", "livingplace": "Cormondreche"}}, "location": "La Chaux-de-Fonds"}, "BCN Tour Colombier": {"latitude": 46.9668714, "longitude": 6.8589727, "race": "BCN Tour Colombier", "date": {"mer. 23.04.2008": {"year": 2008, "day": 23, "month": 4, "categories": {"HV2": {"distance": 10, "rank": 7, "pace": 305000000000, "time": 3119.6}}, "weekday": "wednesday", "livingplace": "Cormondreche"}, "mer. 21.04.2010": {"year": 2010, "day": 21, "month": 4, "categories": {"HV2": {"distance": 10, "rank": 17, "pace": 339000000000, "time": 3395.2}}, "weekday": "wednesday", "livingplace": "Cormondreche"}}, "location": "Colombier NE"}, "BCN Tour La Chaux-de-Fonds": {"latitude": 47.1034892, "longitude": 6.832783800000001, "race": "BCN Tour La Chaux-de-Fonds", "date": {"mer. 11.05.2011": {"year": 2011, "day": 11, "month": 5, "categories": {"HV2": {"distance": 11, "rank": 19, "pace": 402000000000, "time": 4302.1}}, "weekday": "wednesday", "livingplace": "Cormondreche"}}, "location": "La Chaux-de-Fonds"}, "BCN Tour #6 Neuch\u00e2tel": {"latitude": 46.9899874, "longitude": 6.9292732, "race": "BCN Tour #6 Neuch\u00e2tel", "date": {"mer. 29.05.2013": {"year": 2013, "day": 29, "month": 5, "categories": {"HV2": {"distance": 11, "rank": 22, "pace": 354000000000, "time": 3901.8}}, "weekday": "wednesday", "livingplace": "Cormondreche"}}, "location": "Neuch\u00e2tel"}, "BCN Tour La Br\u00e9vine": {"latitude": 46.999113, "longitude": 6.733554799999999, "race": "BCN Tour La Br\u00e9vine", "date": {"mer. 04.05.2011": {"year": 2011, "day": 4, "month": 5, "categories": {"HV2": {"distance": 10, "rank": 25, "pace": 365000000000, "time": 3653.9}}, "weekday": "wednesday", "livingplace": "Cormondreche"}}, "location": "Les Ponts-de-Martel"}, "BCN Tour Neuch\u00e2tel": {"latitude": 46.9899874, "longitude": 6.9292732, "race": "BCN Tour Neuch\u00e2tel", "date": {"mer. 26.05.2010": {"year": 2010, "day": 26, "month": 5, "categories": {"HV2": {"distance": 10, "rank": 17, "pace": 390000000000, "time": 3791.8}}, "weekday": "wednesday", "livingplace": "Cormondreche"}, "mer. 25.05.2011": {"year": 2011, "day": 25, "month": 5, "categories": {"HV2": {"distance": 11, "rank": 20, "pace": 352000000000, "time": 4017.3}}, "weekday": "wednesday", "livingplace": "Cormondreche"}}, "location": "Neuch\u00e2tel"}, "BCN Tour Les Ponts de Martel": {"latitude": 46.9262933, "longitude": 6.6324944, "race": "BCN Tour Les Ponts de Martel", "date": {"mer. 18.05.2011": {"year": 2011, "day": 18, "month": 5, "categories": {"HV2": {"distance": 13, "rank": 18, "pace": 354000000000, "time": 4532.4}}, "weekday": "wednesday", "livingplace": "Cormondreche"}}, "location": "Couvet"}, "BCN Tour #5 Colombier": {"latitude": 46.9262933, "longitude": 6.6324944, "race": "BCN Tour #5 Colombier", "date": {"mer. 22.05.2013": {"year": 2013, "day": 22, "month": 5, "categories": {"HV2": {"distance": 11, "rank": 13, "pace": 301000000000, "time": 3169.1}}, "weekday": "wednesday", "livingplace": "Cormondreche"}}, "location": "Couvet"}, "BCN Tour Boudry": {"latitude": 46.9668714, "longitude": 6.8589727, "race": "BCN Tour Boudry", "date": {"mer. 26.04.2006": {"year": 2006, "day": 26, "month": 4, "categories": {"HV2": {"distance": 10, "rank": 7, "pace": 289000000000, "time": 2951.7}}, "weekday": "wednesday", "livingplace": "Cormondreche"}}, "location": "Colombier NE"}, "BCN Tour #2 La Chaux-de-Fonds": {"latitude": 47.0624261, "longitude": 6.9175754, "race": "BCN Tour #2 La Chaux-de-Fonds", "date": {"mer. 01.05.2013": {"year": 2013, "day": 1, "month": 5, "categories": {"HV2": {"distance": 11, "rank": 21, "pace": 330000000000, "time": 3533.6}}, "weekday": "wednesday", "livingplace": "Cormondreche"}}, "location": "Ch\u00e9zard-St-Martin"}, "BCN Tour La Chaux-de-fonds": {"latitude": 47.1034892, "longitude": 6.832783800000001, "race": "BCN Tour La Chaux-de-fonds", "date": {"mer. 12.05.2010": {"year": 2010, "day": 12, "month": 5, "categories": {"HV2": {"distance": 11, "rank": 22, "pace": 418000000000, "time": 4475.4}}, "weekday": "wednesday", "livingplace": "Cormondreche"}}, "location": "La Chaux-de-Fonds"}, "Kerzerslauf": {"latitude": 46.97488999999999, "longitude": 7.1954365, "race": "Kerzerslauf", "date": {"sam. 18.03.2006": {"year": 2006, "day": 18, "month": 3, "categories": {"M60": {"distance": 15, "rank": 25, "pace": 282000000000, "time": 4238.2}}, "weekday": "saturday", "livingplace": "Cormondreche"}, "sam. 19.03.2005": {"year": 2005, "day": 19, "month": 3, "categories": {"M55": {"distance": 15, "rank": 60, "pace": 290000000000, "time": 4350.5}}, "weekday": "saturday", "livingplace": "Cormondreche"}, "sam. 17.03.2007": {"year": 2007, "day": 17, "month": 3, "categories": {"M60": {"distance": 15, "rank": 29, "pace": 283000000000, "time": 4250.5}}, "weekday": "saturday", "livingplace": "Cormondreche"}, "sam. 21.03.2015": {"year": 2015, "day": 21, "month": 3, "categories": {"15-M65": {"distance": 15, "rank": 46, "pace": 326000000000, "time": 4900.6}}, "weekday": "saturday", "livingplace": "Cormondreche"}, "sam. 15.03.2003": {"year": 2003, "day": 15, "month": 3, "categories": {"M55": {"distance": 15, "rank": 83, "pace": 286000000000, "time": 4301.2}}, "weekday": "saturday", "livingplace": "Cormondreche"}, "sam. 17.03.2012": {"year": 2012, "day": 17, "month": 3, "categories": {"15-M65": {"distance": 15, "rank": 39, "pace": 326000000000, "time": 4892.8}}, "weekday": "saturday", "livingplace": "Cormondreche"}, "sam. 20.03.2004": {"year": 2004, "day": 20, "month": 3, "categories": {"M55": {"distance": 15, "rank": 85, "pace": 289000000000, "time": 4340.0}}, "weekday": "saturday", "livingplace": "Cormondreche"}, "sam. 15.03.2008": {"year": 2008, "day": 15, "month": 3, "categories": {"15/M60": {"distance": 15, "rank": 18, "pace": 277000000000, "time": 4155.6}}, "weekday": "saturday", "livingplace": "Cormondreche"}, "sam. 16.03.2013": {"year": 2013, "day": 16, "month": 3, "categories": {"15-M65": {"distance": 15, "rank": 39, "pace": 325000000000, "time": 4875.3}}, "weekday": "saturday", "livingplace": "Cormondreche"}}, "location": "Kerzers"}, "BCN Tour #3 Dombresson": {"latitude": 46.999113, "longitude": 6.733554799999999, "race": "BCN Tour #3 Dombresson", "date": {"mer. 08.05.2013": {"year": 2013, "day": 8, "month": 5, "categories": {"HV2": {"distance": 10, "rank": 19, "pace": 323000000000, "time": 3201.1}}, "weekday": "wednesday", "livingplace": "Cormondreche"}}, "location": "Les Ponts-de-Martel"}}, "birth": 1946}