{"name": "Giovannoni Philippe", "sex": "M", "races": {"Tour du Chablais #2 Rennaz": {"latitude": 46.3835529, "longitude": 6.854975199999999, "race": "Tour du Chablais #2 Rennaz", "date": {"mer. 04.05.2011": {"year": 2011, "day": 4, "month": 5, "categories": {"M-M50": {"distance": 9, "rank": 75, "pace": 308000000000, "time": 2883.0}}, "weekday": "wednesday", "livingplace": "Massongex"}}, "location": "Bouveret"}, "Tour du Chablais #6 Monthey": {"latitude": 46.3190253, "longitude": 6.970566, "race": "Tour du Chablais #6 Monthey", "date": {"mer. 08.05.2013": {"year": 2013, "day": 8, "month": 5, "categories": {"M-M50": {"distance": 9, "rank": 55, "pace": 295000000000, "time": 2757.2}}, "weekday": "wednesday", "livingplace": "Massongex"}}, "location": "Aigle"}, "Morat-Fribourg": {"latitude": 46.92922110000001, "longitude": 7.120184, "race": "Morat-Fribourg", "date": {"sam. 03.10.2009": {"year": 2009, "day": 3, "month": 10, "categories": {"C-M50": {"distance": 17, "rank": 449, "pace": 389000000000, "time": 6681.2}}, "weekday": "saturday", "livingplace": "Massongex"}, "sam. 04.10.2008": {"year": 2008, "day": 4, "month": 10, "categories": {"C-M50": {"distance": 17, "rank": 295, "pace": 319000000000, "time": 5479.9}}, "weekday": "saturday", "livingplace": "Massongex"}, "sam. 06.10.2007": {"year": 2007, "day": 6, "month": 10, "categories": {"C/M50": {"distance": 17, "rank": 408, "pace": 369000000000, "time": 6344.3}}, "weekday": "saturday", "livingplace": "Massongex"}}, "location": "Murten"}, "Tour du Chablais #3 Le Bouveret": {"latitude": 46.1782231, "longitude": 7.0223787, "race": "Tour du Chablais #3 Le Bouveret", "date": {"mer. 11.05.2011": {"year": 2011, "day": 11, "month": 5, "categories": {"M-M50": {"distance": 10, "rank": 68, "pace": 307000000000, "time": 3074.7}}, "weekday": "wednesday", "livingplace": "Massongex"}}, "location": "Evionnaz"}, "Tour du Chablais #1 Lavey": {"latitude": 46.2957462, "longitude": 6.9916269, "race": "Tour du Chablais #1 Lavey", "date": {"mer. 27.04.2011": {"year": 2011, "day": 27, "month": 4, "categories": {"M-M50": {"distance": 9, "rank": 63, "pace": 306000000000, "time": 2756.3}}, "weekday": "wednesday", "livingplace": "Massongex"}}, "location": "Ollon VD"}, "Tour du Chablais #2 Yvorne": {"latitude": 46.3835529, "longitude": 6.854975199999999, "race": "Tour du Chablais #2 Yvorne", "date": {"mer. 10.04.2013": {"year": 2013, "day": 10, "month": 4, "categories": {"M-M50": {"distance": 8, "rank": 43, "pace": 324000000000, "time": 2592.4}}, "weekday": "wednesday", "livingplace": "Massongex"}}, "location": "Bouveret"}, "Tour du Chablais #5 Leysin": {"latitude": 46.3603257, "longitude": 6.931504599999999, "race": "Tour du Chablais #5 Leysin", "date": {"mer. 05.05.2010": {"year": 2010, "day": 5, "month": 5, "categories": {"M-M50": {"distance": 8, "rank": 59, "pace": 361000000000, "time": 3051.6}}, "weekday": "wednesday", "livingplace": "Massongex"}}, "location": "Roche VD"}, "Tour du Chablais #5 Bex": {"latitude": 46.3603257, "longitude": 6.931504599999999, "race": "Tour du Chablais #5 Bex", "date": {"mer. 09.05.2012": {"year": 2012, "day": 9, "month": 5, "categories": {"M-M50": {"distance": 9, "rank": 45, "pace": 288000000000, "time": 2559.7}}, "weekday": "wednesday", "livingplace": "Massongex"}}, "location": "Roche VD"}, "Tour du Chablais #5 Morgins": {"latitude": 46.3603257, "longitude": 6.931504599999999, "race": "Tour du Chablais #5 Morgins", "date": {"mer. 01.05.2013": {"year": 2013, "day": 1, "month": 5, "categories": {"M-M50": {"distance": 8, "rank": 39, "pace": 316000000000, "time": 2402.1}}, "weekday": "wednesday", "livingplace": "Massongex"}}, "location": "Roche VD"}, "Tour du Chablais #5 Les Mosses": {"latitude": 46.3603257, "longitude": 6.931504599999999, "race": "Tour du Chablais #5 Les Mosses", "date": {"mer. 25.05.2011": {"year": 2011, "day": 25, "month": 5, "categories": {"M-M50": {"distance": 8, "rank": 42, "pace": 319000000000, "time": 2558.8}}, "weekday": "wednesday", "livingplace": "Massongex"}}, "location": "Roche VD"}, "Tour du Chablais #6 Aigle": {"latitude": 46.3190253, "longitude": 6.970566, "race": "Tour du Chablais #6 Aigle", "date": {"mer. 01.06.2011": {"year": 2011, "day": 1, "month": 6, "categories": {"M-M50": {"distance": 10, "rank": 72, "pace": 309000000000, "time": 3155.3}}, "weekday": "wednesday", "livingplace": "Massongex"}}, "location": "Aigle"}, "Tour du Chablais #3 Bex": {"latitude": 46.1782231, "longitude": 7.0223787, "race": "Tour du Chablais #3 Bex", "date": {"mer. 21.04.2010": {"year": 2010, "day": 21, "month": 4, "categories": {"M-M50": {"distance": 10, "rank": 69, "pace": 331000000000, "time": 3312.3}}, "weekday": "wednesday", "livingplace": "Massongex"}}, "location": "Evionnaz"}, "Tour du Chablais #3 Collombey-Muraz": {"latitude": 46.1782231, "longitude": 7.0223787, "race": "Tour du Chablais #3 Collombey-Muraz", "date": {"mer. 25.04.2012": {"year": 2012, "day": 25, "month": 4, "categories": {"M-M50": {"distance": 9, "rank": 48, "pace": 292000000000, "time": 2623.5}}, "weekday": "wednesday", "livingplace": "Massongex"}}, "location": "Evionnaz"}, "Tour du Chablais #1 Martigny": {"latitude": 46.2957462, "longitude": 6.9916269, "race": "Tour du Chablais #1 Martigny", "date": {"mer. 23.04.2014": {"year": 2014, "day": 23, "month": 4, "categories": {"M-M50": {"distance": 9, "rank": 71, "pace": 304000000000, "time": 2585.6}}, "weekday": "wednesday", "livingplace": "Massongex"}}, "location": "Ollon VD"}, "Tour du Chablais #4 St  Maurice": {"latitude": NaN, "longitude": NaN, "race": "Tour du Chablais #4 St  Maurice", "date": {"mer. 24.04.2013": {"year": 2013, "day": 24, "month": 4, "categories": {"M-M50": {"distance": 10, "rank": 52, "pace": 307000000000, "time": 3072.0}}, "weekday": "wednesday", "livingplace": "Massongex"}}, "location": "Les Mosses"}, "Tour du Chablais #4 Morgins": {"latitude": NaN, "longitude": NaN, "race": "Tour du Chablais #4 Morgins", "date": {"mer. 18.05.2011": {"year": 2011, "day": 18, "month": 5, "categories": {"M-M50": {"distance": 8, "rank": 51, "pace": 315000000000, "time": 2633.9}}, "weekday": "wednesday", "livingplace": "Massongex"}}, "location": "Les Mosses"}, "Tour du Chablais #6 Mouthey": {"latitude": 46.3190253, "longitude": 6.970566, "race": "Tour du Chablais #6 Mouthey", "date": {"mer. 12.05.2010": {"year": 2010, "day": 12, "month": 5, "categories": {"M-M50": {"distance": 9, "rank": 71, "pace": 320000000000, "time": 2944.3}}, "weekday": "wednesday", "livingplace": "Massongex"}}, "location": "Aigle"}, "Tour du Chablais #1 Montreux": {"latitude": 46.2957462, "longitude": 6.9916269, "race": "Tour du Chablais #1 Montreux", "date": {"mer. 11.04.2012": {"year": 2012, "day": 11, "month": 4, "categories": {"M-M50": {"distance": 8, "rank": 61, "pace": 313000000000, "time": 2385.2}}, "weekday": "wednesday", "livingplace": "Massongex"}}, "location": "Ollon VD"}, "Tour du Chablais #6 Montreux": {"latitude": 46.3190253, "longitude": 6.970566, "race": "Tour du Chablais #6 Montreux", "date": {"mer. 16.05.2012": {"year": 2012, "day": 16, "month": 5, "categories": {"M-M50": {"distance": 9, "rank": 53, "pace": 283000000000, "time": 2620.2}}, "weekday": "wednesday", "livingplace": "Massongex"}}, "location": "Aigle"}, "Tour du Chablais #2 St-Gingolph": {"latitude": 46.3835529, "longitude": 6.854975199999999, "race": "Tour du Chablais #2 St-Gingolph", "date": {"mer. 14.04.2010": {"year": 2010, "day": 14, "month": 4, "categories": {"M-M50": {"distance": 8, "rank": 74, "pace": 367000000000, "time": 3068.8}}, "weekday": "wednesday", "livingplace": "Massongex"}}, "location": "Bouveret"}, "Tour du Chablais #4 Yvorne": {"latitude": NaN, "longitude": NaN, "race": "Tour du Chablais #4 Yvorne", "date": {"mer. 28.04.2010": {"year": 2010, "day": 28, "month": 4, "categories": {"M-M50": {"distance": 8, "rank": 73, "pace": 368000000000, "time": 3049.2}}, "weekday": "wednesday", "livingplace": "Massongex"}}, "location": "Les Mosses"}, "Tour du Chablais #2 Bex": {"latitude": 46.3835529, "longitude": 6.854975199999999, "race": "Tour du Chablais #2 Bex", "date": {"mer. 18.04.2012": {"year": 2012, "day": 18, "month": 4, "categories": {"M-M50": {"distance": 8, "rank": 54, "pace": 298000000000, "time": 2389.1}}, "weekday": "wednesday", "livingplace": "Massongex"}}, "location": "Bouveret"}, "Tour du Chablais #3 Bouveret": {"latitude": 46.1782231, "longitude": 7.0223787, "race": "Tour du Chablais #3 Bouveret", "date": {"mer. 17.04.2013": {"year": 2013, "day": 17, "month": 4, "categories": {"M-M50": {"distance": 10, "rank": 53, "pace": 304000000000, "time": 3042.8}}, "weekday": "wednesday", "livingplace": "Massongex"}}, "location": "Evionnaz"}}, "birth": 1956}