{"name": "Girardin Laurent", "sex": "M", "races": {"Grand Prix Craft, Neuch\u00e2tel": {"latitude": 46.9899874, "longitude": 6.9292732, "race": "Grand Prix Craft, Neuch\u00e2tel", "date": {"dim. 16.12.2007": {"year": 2007, "day": 16, "month": 12, "categories": {"HS1": {"distance": 7, "rank": 33, "pace": 239000000000, "time": 1673.3}}, "weekday": "sunday", "livingplace": "Fontainemelon"}}, "location": "Neuch\u00e2tel"}, "Morat-Fribourg": {"latitude": 46.92922110000001, "longitude": 7.120184, "race": "Morat-Fribourg", "date": {"sam. 03.10.2009": {"year": 2009, "day": 3, "month": 10, "categories": {"C-M40": {"distance": 17, "rank": 184, "pace": 277000000000, "time": 4767.4}}, "weekday": "saturday", "livingplace": "Fontainemelon"}, "sam. 04.10.2008": {"year": 2008, "day": 4, "month": 10, "categories": {"C-M20": {"distance": 17, "rank": 499, "pace": 276000000000, "time": 4749.7}}, "weekday": "saturday", "livingplace": "Fontainemelon"}, "sam. 06.10.2007": {"year": 2007, "day": 6, "month": 10, "categories": {"C/M20": {"distance": 17, "rank": 559, "pace": 280000000000, "time": 4808.7}}, "weekday": "saturday", "livingplace": "Fontainemelon"}}, "location": "Murten"}, "La Trotteuse-Tissot, La Chaux-de-Fonds": {"latitude": 47.1034892, "longitude": 6.832783800000001, "race": "La Trotteuse-Tissot, La Chaux-de-Fonds", "date": {"sam. 14.12.2013": {"year": 2013, "day": 14, "month": 12, "categories": {"GC-H40": {"distance": 8, "rank": 73, "pace": 283000000000, "time": 2266.9}}, "weekday": "saturday", "livingplace": "Fontainemelon"}, "sam. 17.12.2011": {"year": 2011, "day": 17, "month": 12, "categories": {"GC-H40": {"distance": 8, "rank": 46, "pace": 282000000000, "time": 2260.4}}, "weekday": "saturday", "livingplace": "Fontainemelon"}}, "location": "La Chaux-de-Fonds"}, "BCN Tour Fontaine Cernier": {"latitude": 47.0624261, "longitude": 6.9175754, "race": "BCN Tour Fontaine Cernier", "date": {"mer. 27.04.2011": {"year": 2011, "day": 27, "month": 4, "categories": {"HS2": {"distance": 10, "rank": 86, "pace": 274000000000, "time": 2825.9}}, "weekday": "wednesday", "livingplace": "Fontainemelon"}}, "location": "Ch\u00e9zard-St-Martin"}, "BCN Tour Le Landeron": {"latitude": 46.9668714, "longitude": 6.8589727, "race": "BCN Tour Le Landeron", "date": {"mer. 22.04.2009": {"year": 2009, "day": 22, "month": 4, "categories": {"HS2": {"distance": 11, "rank": 64, "pace": 281000000000, "time": 3119.9}}, "weekday": "wednesday", "livingplace": "Fontainemelon"}}, "location": "Colombier NE"}, "BCN Tour Le Locle": {"latitude": 46.999113, "longitude": 6.733554799999999, "race": "BCN Tour Le Locle", "date": {"mer. 05.05.2010": {"year": 2010, "day": 5, "month": 5, "categories": {"HS2": {"distance": 11, "rank": 64, "pace": 276000000000, "time": 3017.6}}, "weekday": "wednesday", "livingplace": "Fontainemelon"}}, "location": "Les Ponts-de-Martel"}, "BCN Tour Neuch\u00e2tel": {"latitude": 46.9899874, "longitude": 6.9292732, "race": "BCN Tour Neuch\u00e2tel", "date": {"mer. 26.05.2010": {"year": 2010, "day": 26, "month": 5, "categories": {"HS2": {"distance": 10, "rank": 80, "pace": 302000000000, "time": 2931.9}}, "weekday": "wednesday", "livingplace": "Fontainemelon"}, "mer. 25.05.2011": {"year": 2011, "day": 25, "month": 5, "categories": {"HS2": {"distance": 11, "rank": 86, "pace": 290000000000, "time": 3307.0}}, "weekday": "wednesday", "livingplace": "Fontainemelon"}}, "location": "Neuch\u00e2tel"}, "BCN Tour Auvernier": {"latitude": 46.9668714, "longitude": 6.8589727, "race": "BCN Tour Auvernier", "date": {"mer. 20.04.2011": {"year": 2011, "day": 20, "month": 4, "categories": {"HS2": {"distance": 11, "rank": 81, "pace": 289000000000, "time": 3124.4}}, "weekday": "wednesday", "livingplace": "Fontainemelon"}}, "location": "Colombier NE"}, "Course de l'Escalade, Gen\u00e8ve": {"latitude": 46.2043907, "longitude": 6.1431577, "race": "Course de l'Escalade, Gen\u00e8ve", "date": {"sam. 01.12.2007": {"year": 2007, "day": 1, "month": 12, "categories": {"DucH2": {"distance": 18, "rank": 1121, "pace": 363000000000, "time": 6599.2}}, "weekday": "saturday", "livingplace": "Fontainemelon"}, "sam. 05.12.2009": {"year": 2009, "day": 5, "month": 12, "categories": {"Hommes3": {"distance": 7, "rank": 304, "pace": 264000000000, "time": 1919.9}}, "weekday": "saturday", "livingplace": "Fontainemelon"}, "sam. 03.12.2005": {"year": 2005, "day": 3, "month": 12, "categories": {"Hommes2": {"distance": 7, "rank": 580, "pace": 272000000000, "time": 1977.0}}, "weekday": "saturday", "livingplace": "Cie D'Assurances La Genev"}, "sam. 06.12.2008": {"year": 2008, "day": 6, "month": 12, "categories": {"Hommes2": {"distance": 7, "rank": 589, "pace": 275000000000, "time": 1996.4}}, "weekday": "saturday", "livingplace": "Fontainemelon"}}, "location": "Gen\u00e8ve"}, "BCN Tour La Chaux-de-Fonds": {"latitude": 47.1034892, "longitude": 6.832783800000001, "race": "BCN Tour La Chaux-de-Fonds", "date": {"mer. 11.05.2011": {"year": 2011, "day": 11, "month": 5, "categories": {"HS2": {"distance": 11, "rank": 126, "pace": 341000000000, "time": 3653.1}}, "weekday": "wednesday", "livingplace": "Fontainemelon"}}, "location": "La Chaux-de-Fonds"}, "D\u00e9fi Val-de-Travers, Couvet": {"latitude": 46.9262933, "longitude": 6.6324944, "race": "D\u00e9fi Val-de-Travers, Couvet", "date": {"sam. 21.06.2008": {"year": 2008, "day": 21, "month": 6, "categories": {"MHS1": {"distance": 41, "rank": 21, "pace": 416000000000, "time": 17142.9}}, "weekday": "saturday", "livingplace": "Fontainemelon"}, "sam. 19.06.2010": {"year": 2010, "day": 19, "month": 6, "categories": {"75-HSen1": {"distance": 75, "rank": 41, "pace": 494000000000, "time": 37108.7}}, "weekday": "saturday", "livingplace": "Fontainemelon"}}, "location": "Couvet"}, "BCN Tour Ponts-de-Martel": {"latitude": 47.0624261, "longitude": 6.9175754, "race": "BCN Tour Ponts-de-Martel", "date": {"mer. 28.04.2010": {"year": 2010, "day": 28, "month": 4, "categories": {"HS2": {"distance": 11, "rank": 88, "pace": 288000000000, "time": 3230.6}}, "weekday": "wednesday", "livingplace": "Fontainemelon"}}, "location": "Ch\u00e9zard-St-Martin"}, "BCN Tour Les Ponts de Martel": {"latitude": 46.9262933, "longitude": 6.6324944, "race": "BCN Tour Les Ponts de Martel", "date": {"mer. 18.05.2011": {"year": 2011, "day": 18, "month": 5, "categories": {"HS2": {"distance": 13, "rank": 95, "pace": 292000000000, "time": 3744.6}}, "weekday": "wednesday", "livingplace": "Fontainemelon"}}, "location": "Couvet"}, "BCN Tour M\u00f4tier": {"latitude": 46.9262933, "longitude": 6.6324944, "race": "BCN Tour M\u00f4tier", "date": {"mer. 19.05.2010": {"year": 2010, "day": 19, "month": 5, "categories": {"HS2": {"distance": 10, "rank": 63, "pace": 264000000000, "time": 2622.0}}, "weekday": "wednesday", "livingplace": "Fontainemelon"}}, "location": "Couvet"}, "BCN Tour Boudry": {"latitude": 46.9668714, "longitude": 6.8589727, "race": "BCN Tour Boudry", "date": {"mer. 26.04.2006": {"year": 2006, "day": 26, "month": 4, "categories": {"HS1": {"distance": 10, "rank": 81, "pace": 282000000000, "time": 2880.5}}, "weekday": "wednesday", "livingplace": "Cernier"}}, "location": "Colombier NE"}, "BCN Tour La Chaux-de-fonds": {"latitude": 47.1034892, "longitude": 6.832783800000001, "race": "BCN Tour La Chaux-de-fonds", "date": {"mer. 12.05.2010": {"year": 2010, "day": 12, "month": 5, "categories": {"HS2": {"distance": 11, "rank": 63, "pace": 336000000000, "time": 3602.6}}, "weekday": "wednesday", "livingplace": "Fontainemelon"}}, "location": "La Chaux-de-Fonds"}, "BCN Tour Colombier": {"latitude": 46.9668714, "longitude": 6.8589727, "race": "BCN Tour Colombier", "date": {"mer. 23.04.2008": {"year": 2008, "day": 23, "month": 4, "categories": {"HS1": {"distance": 10, "rank": 68, "pace": 282000000000, "time": 2878.1}}, "weekday": "wednesday", "livingplace": "Fontainemelon"}, "mer. 21.04.2010": {"year": 2010, "day": 21, "month": 4, "categories": {"HS2": {"distance": 10, "rank": 78, "pace": 300000000000, "time": 3003.2}}, "weekday": "wednesday", "livingplace": "Fontainemelon"}}, "location": "Colombier NE"}}, "birth": 1969}