{"name": "Girardet Daniel", "sex": "M", "races": {"Tour du Pays de Vaud #2 - Genolier": {"latitude": 46.5955273, "longitude": 6.7702883, "race": "Tour du Pays de Vaud #2 - Genolier", "date": {"mer. 15.08.2012": {"year": 2012, "day": 15, "month": 8, "categories": {"H-Sen4": {"distance": 9, "rank": 29, "pace": 348000000000, "time": 2960.3}}, "weekday": "wednesday", "livingplace": "Borex"}}, "location": "M\u00e9zi\u00e8res VD"}, "Tour du Pays de Vaud #1, Penthaz": {"latitude": 46.5993131, "longitude": 6.539251200000001, "race": "Tour du Pays de Vaud #1, Penthaz", "date": {"mer. 13.08.2014": {"year": 2014, "day": 13, "month": 8, "categories": {"H-Sen4": {"distance": 9, "rank": 23, "pace": 333000000000, "time": 2842.5}}, "weekday": "wednesday", "livingplace": "Borex"}}, "location": "Penthaz"}, "Morat-Fribourg": {"latitude": 46.92922110000001, "longitude": 7.120184, "race": "Morat-Fribourg", "date": {"sam. 04.10.2014": {"year": 2014, "day": 4, "month": 10, "categories": {"17-M60": {"distance": 17, "rank": 68, "pace": 331000000000, "time": 5688.9}}, "weekday": "saturday", "livingplace": "Borex"}}, "location": "Murten"}, "Tour du Pays de Vaud #2, Mezi\u00e8res": {"latitude": 46.5955273, "longitude": 6.7702883, "race": "Tour du Pays de Vaud #2, Mezi\u00e8res", "date": {"mer. 20.08.2014": {"year": 2014, "day": 20, "month": 8, "categories": {"H-Sen4": {"distance": 8, "rank": 12, "pace": 330000000000, "time": 2678.2}}, "weekday": "wednesday", "livingplace": "Borex"}}, "location": "M\u00e9zi\u00e8res VD"}, "Tour du Pays de Vaud #4, La Sarraz": {"latitude": 46.7088129, "longitude": 6.5707689, "race": "Tour du Pays de Vaud #4, La Sarraz", "date": {"mer. 03.09.2014": {"year": 2014, "day": 3, "month": 9, "categories": {"H-Sen4": {"distance": 9, "rank": 12, "pace": 300000000000, "time": 2556.4}}, "weekday": "wednesday", "livingplace": "Borex"}}, "location": "Chavornay"}, "Tour du Pays de Vaud #3, Chavornay": {"latitude": 46.7784736, "longitude": 6.641183, "race": "Tour du Pays de Vaud #3, Chavornay", "date": {"mer. 27.08.2014": {"year": 2014, "day": 27, "month": 8, "categories": {"H-Sen4": {"distance": 9, "rank": 11, "pace": 309000000000, "time": 2662.9}}, "weekday": "wednesday", "livingplace": "Borex"}}, "location": "Yverdon-les-Bains"}}, "birth": 1950}