{"name": "Girardin Margaux", "sex": "F", "races": {"BCN Tour M\u00f4tier": {"latitude": 46.9262933, "longitude": 6.6324944, "race": "BCN Tour M\u00f4tier", "date": {"mer. 19.05.2010": {"year": 2010, "day": 19, "month": 5, "categories": {"DJ": {"distance": 10, "rank": 45, "pace": 395000000000, "time": 3916.2}}, "weekday": "wednesday", "livingplace": "La Chaux de Fonds"}}, "location": "Couvet"}, "BCN Tour Ponts-de-Martel": {"latitude": 47.0624261, "longitude": 6.9175754, "race": "BCN Tour Ponts-de-Martel", "date": {"mer. 28.04.2010": {"year": 2010, "day": 28, "month": 4, "categories": {"DJ": {"distance": 11, "rank": 38, "pace": 407000000000, "time": 4568.5}}, "weekday": "wednesday", "livingplace": "La Chaux de Fonds"}}, "location": "Ch\u00e9zard-St-Martin"}, "BCN Tour Les Ponts de Martel": {"latitude": 46.9262933, "longitude": 6.6324944, "race": "BCN Tour Les Ponts de Martel", "date": {"mer. 18.05.2011": {"year": 2011, "day": 18, "month": 5, "categories": {"DJ": {"distance": 13, "rank": 26, "pace": 384000000000, "time": 4927.6}}, "weekday": "wednesday", "livingplace": "La Sagne"}}, "location": "Couvet"}, "BCN Tour La Chaux-de-Fonds": {"latitude": 47.1034892, "longitude": 6.832783800000001, "race": "BCN Tour La Chaux-de-Fonds", "date": {"mer. 23.05.2012": {"year": 2012, "day": 23, "month": 5, "categories": {"DJ": {"distance": 11, "rank": 30, "pace": 368000000000, "time": 3977.6}}, "weekday": "wednesday", "livingplace": "La Sagne"}, "mer. 11.05.2011": {"year": 2011, "day": 11, "month": 5, "categories": {"DJ": {"distance": 11, "rank": 33, "pace": 470000000000, "time": 5035.3}}, "weekday": "wednesday", "livingplace": "La Sagne"}}, "location": "La Chaux-de-Fonds"}, "BCN Tour Le Locle": {"latitude": 46.999113, "longitude": 6.733554799999999, "race": "BCN Tour Le Locle", "date": {"mer. 05.05.2010": {"year": 2010, "day": 5, "month": 5, "categories": {"DJ": {"distance": 11, "rank": 23, "pace": 379000000000, "time": 4136.8}}, "weekday": "wednesday", "livingplace": "La Chaux de Fonds"}}, "location": "Les Ponts-de-Martel"}, "BCN Tour Neuch\u00e2tel": {"latitude": 46.9899874, "longitude": 6.9292732, "race": "BCN Tour Neuch\u00e2tel", "date": {"mer. 30.05.2012": {"year": 2012, "day": 30, "month": 5, "categories": {"DJ": {"distance": 11, "rank": 30, "pace": 422000000000, "time": 4734.7}}, "weekday": "wednesday", "livingplace": "La Sagne"}, "mer. 25.05.2011": {"year": 2011, "day": 25, "month": 5, "categories": {"DJ": {"distance": 11, "rank": 35, "pace": 408000000000, "time": 4652.8}}, "weekday": "wednesday", "livingplace": "La Sagne"}}, "location": "Neuch\u00e2tel"}, "BCN Tour La Chaux-de-fonds": {"latitude": 47.1034892, "longitude": 6.832783800000001, "race": "BCN Tour La Chaux-de-fonds", "date": {"mer. 12.05.2010": {"year": 2010, "day": 12, "month": 5, "categories": {"DJ": {"distance": 11, "rank": 34, "pace": 494000000000, "time": 5290.3}}, "weekday": "wednesday", "livingplace": "La Chaux de Fonds"}}, "location": "La Chaux-de-Fonds"}, "BCN Tour Colombier": {"latitude": 46.9668714, "longitude": 6.8589727, "race": "BCN Tour Colombier", "date": {"mer. 16.05.2012": {"year": 2012, "day": 16, "month": 5, "categories": {"DJ": {"distance": 11, "rank": 44, "pace": 413000000000, "time": 4466.6}}, "weekday": "wednesday", "livingplace": "La Sagne"}, "mer. 21.04.2010": {"year": 2010, "day": 21, "month": 4, "categories": {"DJ": {"distance": 10, "rank": 28, "pace": 434000000000, "time": 4345.6}}, "weekday": "wednesday", "livingplace": "La Chaux de Fonds"}}, "location": "Colombier NE"}}, "birth": 1994}