{"name": "Girard Olivia", "sex": "F", "races": {"Groupe E Tour Fribourg #4, Siviriez": {"latitude": 46.6585092, "longitude": 6.877722, "race": "Groupe E Tour Fribourg #4, Siviriez", "date": {"mer. 10.09.2014": {"year": 2014, "day": 10, "month": 9, "categories": {"D-Dam1": {"distance": 11, "rank": 6, "pace": 348000000000, "time": 3768.6}}, "weekday": "wednesday", "livingplace": "Romont"}}, "location": "Siviriez"}, "20km de Lausanne": {"latitude": 46.5196535, "longitude": 6.6322734, "race": "20km de Lausanne", "date": {"sam. 25.04.2015": {"year": 2015, "day": 25, "month": 4, "categories": {"10-F20": {"distance": 10, "rank": 81, "pace": 296000000000, "time": 2967.0}}, "weekday": "saturday", "livingplace": "Romont"}}, "location": "Lausanne"}, "Morat-Fribourg": {"latitude": 46.92922110000001, "longitude": 7.120184, "race": "Morat-Fribourg", "date": {"sam. 03.10.2015": {"year": 2015, "day": 3, "month": 10, "categories": {"17-W20": {"distance": 17, "rank": 130, "pace": 319000000000, "time": 5490.7}}, "weekday": "saturday", "livingplace": "Romont"}, "sam. 04.10.2014": {"year": 2014, "day": 4, "month": 10, "categories": {"17-W20": {"distance": 17, "rank": 82, "pace": 307000000000, "time": 5286.9}}, "weekday": "saturday", "livingplace": "Romont"}}, "location": "Murten"}, "Corrida Bulloise, Bulle": {"latitude": 46.6154512, "longitude": 7.057726799999999, "race": "Corrida Bulloise, Bulle", "date": {"sam. 15.11.2014": {"year": 2014, "day": 15, "month": 11, "categories": {"6-F20": {"distance": 6, "rank": 53, "pace": 287000000000, "time": 1768.3}}, "weekday": "saturday", "livingplace": "Romont"}}, "location": "Bulle"}, "Course de l'Avent, Fribourg": {"latitude": 46.8064773, "longitude": 7.161971899999999, "race": "Course de l'Avent, Fribourg", "date": {"dim. 23.11.2014": {"year": 2014, "day": 23, "month": 11, "categories": {"P-F20": {"distance": 6, "rank": 11, "pace": 302000000000, "time": 1906.1}}, "weekday": "sunday", "livingplace": "Romont"}}, "location": "Fribourg"}, "Kerzerslauf": {"latitude": 46.97488999999999, "longitude": 7.1954365, "race": "Kerzerslauf", "date": {"sam. 15.03.2014": {"year": 2014, "day": 15, "month": 3, "categories": {"15-F20": {"distance": 15, "rank": 183, "pace": 318000000000, "time": 4770.8}}, "weekday": "saturday", "livingplace": "Romont"}}, "location": "Kerzers"}}, "birth": 1989}