{"name": "Giugno Pietro", "sex": "M", "races": {"BCN Tour #1 Corcelles": {"latitude": 46.9668714, "longitude": 6.8589727, "race": "BCN Tour #1 Corcelles", "date": {"mer. 24.04.2013": {"year": 2013, "day": 24, "month": 4, "categories": {"HS2": {"distance": 10, "rank": 282, "pace": 349000000000, "time": 3427.7}}, "weekday": "wednesday", "livingplace": "La Chaux de Fonds"}}, "location": "Colombier NE"}, "Morat-Fribourg": {"latitude": 46.92922110000001, "longitude": 7.120184, "race": "Morat-Fribourg", "date": {"sam. 05.10.2013": {"year": 2013, "day": 5, "month": 10, "categories": {"17-M40": {"distance": 17, "rank": 798, "pace": 367000000000, "time": 6409.6}}, "weekday": "saturday", "livingplace": "La Chaux de Fonds"}, "sam. 03.10.2009": {"year": 2009, "day": 3, "month": 10, "categories": {"C-M20": {"distance": 17, "rank": 1805, "pace": 362000000000, "time": 6219.5}}, "weekday": "saturday", "livingplace": "La Chaux de Fonds"}, "sam. 01.10.2011": {"year": 2011, "day": 1, "month": 10, "categories": {"17-M20": {"distance": 17, "rank": 1709, "pace": 364000000000, "time": 6261.3}}, "weekday": "saturday", "livingplace": "La Chaux de Fonds"}, "sam. 04.10.2008": {"year": 2008, "day": 4, "month": 10, "categories": {"C-M20": {"distance": 17, "rank": 1578, "pace": 346000000000, "time": 5944.4}}, "weekday": "saturday", "livingplace": "La Chaux de Fonds"}, "sam. 06.10.2007": {"year": 2007, "day": 6, "month": 10, "categories": {"C/M20": {"distance": 17, "rank": 1487, "pace": 340000000000, "time": 5845.6}}, "weekday": "saturday", "livingplace": "La Chaux de Fonds"}}, "location": "Murten"}, "BCN Tour Les Ponts-de-Martel": {"latitude": 46.999113, "longitude": 6.733554799999999, "race": "BCN Tour Les Ponts-de-Martel", "date": {"mer. 09.05.2012": {"year": 2012, "day": 9, "month": 5, "categories": {"HS1": {"distance": 10, "rank": 254, "pace": 378000000000, "time": 3899.5}}, "weekday": "wednesday", "livingplace": "La Chaux de Fonds"}}, "location": "Les Ponts-de-Martel"}, "BCN Tour Fontaine Cernier": {"latitude": 47.0624261, "longitude": 6.9175754, "race": "BCN Tour Fontaine Cernier", "date": {"mer. 27.04.2011": {"year": 2011, "day": 27, "month": 4, "categories": {"HS1": {"distance": 10, "rank": 254, "pace": 367000000000, "time": 3784.4}}, "weekday": "wednesday", "livingplace": "La Chaux de Fonds"}}, "location": "Ch\u00e9zard-St-Martin"}, "BCN Tour Le Landeron": {"latitude": 46.9668714, "longitude": 6.8589727, "race": "BCN Tour Le Landeron", "date": {"mer. 22.04.2009": {"year": 2009, "day": 22, "month": 4, "categories": {"HS1": {"distance": 11, "rank": 186, "pace": 344000000000, "time": 3825.0}}, "weekday": "wednesday", "livingplace": "La Chaux de Fonds"}}, "location": "Colombier NE"}, "La Trotteuse-Tissot, La Chaux-de-Fonds": {"latitude": 47.1034892, "longitude": 6.832783800000001, "race": "La Trotteuse-Tissot, La Chaux-de-Fonds", "date": {"sam. 08.12.2012": {"year": 2012, "day": 8, "month": 12, "categories": {"GC-H30": {"distance": 8, "rank": 122, "pace": 377000000000, "time": 3019.2}}, "weekday": "saturday", "livingplace": "La Chaux de Fonds"}}, "location": "La Chaux-de-Fonds"}, "BCN Tour Le Locle": {"latitude": 46.999113, "longitude": 6.733554799999999, "race": "BCN Tour Le Locle", "date": {"mer. 05.05.2010": {"year": 2010, "day": 5, "month": 5, "categories": {"HS1": {"distance": 11, "rank": 203, "pace": 365000000000, "time": 3984.9}}, "weekday": "wednesday", "livingplace": "La Chaux de Fonds"}}, "location": "Les Ponts-de-Martel"}, "BCN Tour Ponts-de-Martel": {"latitude": 47.0624261, "longitude": 6.9175754, "race": "BCN Tour Ponts-de-Martel", "date": {"mer. 28.04.2010": {"year": 2010, "day": 28, "month": 4, "categories": {"HS1": {"distance": 11, "rank": 200, "pace": 377000000000, "time": 4228.3}}, "weekday": "wednesday", "livingplace": "La Chaux de Fonds"}}, "location": "Ch\u00e9zard-St-Martin"}, "BCN Tour #4 Fleurier": {"latitude": 47.1034892, "longitude": 6.832783800000001, "race": "BCN Tour #4 Fleurier", "date": {"mer. 15.05.2013": {"year": 2013, "day": 15, "month": 5, "categories": {"HS2": {"distance": 9, "rank": 242, "pace": 347000000000, "time": 3007.7}}, "weekday": "wednesday", "livingplace": "La Chaux de Fonds"}}, "location": "La Chaux-de-Fonds"}, "BCN Tour Cornaux": {"latitude": 46.9668714, "longitude": 6.8589727, "race": "BCN Tour Cornaux", "date": {"mer. 25.04.2012": {"year": 2012, "day": 25, "month": 4, "categories": {"HS1": {"distance": 11, "rank": 231, "pace": 406000000000, "time": 4470.3}}, "weekday": "wednesday", "livingplace": "La Chaux de Fonds"}}, "location": "Colombier NE"}, "BCN Tour La Chaux-de-Fonds": {"latitude": 47.1034892, "longitude": 6.832783800000001, "race": "BCN Tour La Chaux-de-Fonds", "date": {"mer. 23.05.2012": {"year": 2012, "day": 23, "month": 5, "categories": {"HS1": {"distance": 11, "rank": 270, "pace": 374000000000, "time": 4045.9}}, "weekday": "wednesday", "livingplace": "La Chaux de Fonds"}, "mer. 11.05.2011": {"year": 2011, "day": 11, "month": 5, "categories": {"HS1": {"distance": 11, "rank": 259, "pace": 440000000000, "time": 4715.6}}, "weekday": "wednesday", "livingplace": "La Chaux de Fonds"}}, "location": "La Chaux-de-Fonds"}, "BCN Tour Colombier": {"latitude": 47.1034892, "longitude": 6.832783800000001, "race": "BCN Tour Colombier", "date": {"mer. 16.05.2012": {"year": 2012, "day": 16, "month": 5, "categories": {"HS1": {"distance": 11, "rank": 254, "pace": 355000000000, "time": 3842.8}}, "weekday": "wednesday", "livingplace": "La Chaux de Fonds"}}, "location": "La Chaux-de-Fonds"}, "D\u00e9fi Val-de-Travers, Couvet": {"latitude": 46.9262933, "longitude": 6.6324944, "race": "D\u00e9fi Val-de-Travers, Couvet", "date": {"sam. 19.06.2010": {"year": 2010, "day": 19, "month": 6, "categories": {"21-HSen1": {"distance": 20, "rank": 32, "pace": 441000000000, "time": 8703.9}}, "weekday": "saturday", "livingplace": "La Chaux de Fonds"}}, "location": "Couvet"}, "Birslauf Basel": {"latitude": 47.5595986, "longitude": 7.5885761, "race": "Birslauf Basel", "date": {"sam. 06.04.2013": {"year": 2013, "day": 6, "month": 4, "categories": {"M\u00e4nner": {"distance": 10, "rank": 504, "pace": 325000000000, "time": 3259.3}}, "weekday": "saturday", "livingplace": "La Chaux de Fonds"}, "sam. 27.03.2010": {"year": 2010, "day": 27, "month": 3, "categories": {"M": {"distance": 10, "rank": 399, "pace": 325000000000, "time": 3257.3}}, "weekday": "saturday", "livingplace": "La Chaux de Fonds"}, "sam. 05.04.2008": {"year": 2008, "day": 5, "month": 4, "categories": {"M": {"distance": 10, "rank": 460, "pace": 309000000000, "time": 3093.8}}, "weekday": "saturday", "livingplace": "La Chaux de Fonds"}}, "location": "Basel"}, "BCN Tour Les Ponts de Martel": {"latitude": 46.9262933, "longitude": 6.6324944, "race": "BCN Tour Les Ponts de Martel", "date": {"mer. 18.05.2011": {"year": 2011, "day": 18, "month": 5, "categories": {"HS1": {"distance": 13, "rank": 228, "pace": 390000000000, "time": 4994.4}}, "weekday": "wednesday", "livingplace": "La Chaux de Fonds"}}, "location": "Couvet"}, "BCN Tour #5 Colombier": {"latitude": 46.9262933, "longitude": 6.6324944, "race": "BCN Tour #5 Colombier", "date": {"mer. 22.05.2013": {"year": 2013, "day": 22, "month": 5, "categories": {"HS2": {"distance": 11, "rank": 300, "pace": 322000000000, "time": 3388.6}}, "weekday": "wednesday", "livingplace": "La Chaux de Fonds"}}, "location": "Couvet"}, "BCN Tour #2 La Chaux-de-Fonds": {"latitude": 47.0624261, "longitude": 6.9175754, "race": "BCN Tour #2 La Chaux-de-Fonds", "date": {"mer. 01.05.2013": {"year": 2013, "day": 1, "month": 5, "categories": {"HS2": {"distance": 11, "rank": 291, "pace": 336000000000, "time": 3600.2}}, "weekday": "wednesday", "livingplace": "La Chaux de Fonds"}}, "location": "Ch\u00e9zard-St-Martin"}, "BCN Tour La Chaux-de-fonds": {"latitude": 47.1034892, "longitude": 6.832783800000001, "race": "BCN Tour La Chaux-de-fonds", "date": {"mer. 12.05.2010": {"year": 2010, "day": 12, "month": 5, "categories": {"HS1": {"distance": 11, "rank": 221, "pace": 475000000000, "time": 5084.3}}, "weekday": "wednesday", "livingplace": "La Chaux de Fonds"}}, "location": "La Chaux-de-Fonds"}, "Kerzerslauf": {"latitude": 46.97488999999999, "longitude": 7.1954365, "race": "Kerzerslauf", "date": {"sam. 21.03.2015": {"year": 2015, "day": 21, "month": 3, "categories": {"15-M40": {"distance": 15, "rank": 505, "pace": 381000000000, "time": 5716.6}}, "weekday": "saturday", "livingplace": "La Chaux de Fonds"}, "sam. 15.03.2014": {"year": 2014, "day": 15, "month": 3, "categories": {"15-M40": {"distance": 15, "rank": 493, "pace": 357000000000, "time": 5366.4}}, "weekday": "saturday", "livingplace": "La Chaux de Fonds"}, "sam. 21.03.2009": {"year": 2009, "day": 21, "month": 3, "categories": {"15-M35": {"distance": 15, "rank": 373, "pace": 325000000000, "time": 4875.7}}, "weekday": "saturday", "livingplace": "La Chaux de Fonds"}, "sam. 15.03.2008": {"year": 2008, "day": 15, "month": 3, "categories": {"15/M35": {"distance": 15, "rank": 427, "pace": 368000000000, "time": 5528.2}}, "weekday": "saturday", "livingplace": "La Chaux de Fonds"}, "sam. 16.03.2013": {"year": 2013, "day": 16, "month": 3, "categories": {"15-M40": {"distance": 15, "rank": 451, "pace": 358000000000, "time": 5384.6}}, "weekday": "saturday", "livingplace": "La Chaux de Fonds"}}, "location": "Kerzers"}, "BCN Tour #3 Dombresson": {"latitude": 46.999113, "longitude": 6.733554799999999, "race": "BCN Tour #3 Dombresson", "date": {"mer. 08.05.2013": {"year": 2013, "day": 8, "month": 5, "categories": {"HS2": {"distance": 10, "rank": 292, "pace": 332000000000, "time": 3295.1}}, "weekday": "wednesday", "livingplace": "La Chaux de Fonds"}}, "location": "Les Ponts-de-Martel"}, "BCN Tour #6 Neuch\u00e2tel": {"latitude": 46.9899874, "longitude": 6.9292732, "race": "BCN Tour #6 Neuch\u00e2tel", "date": {"mer. 29.05.2013": {"year": 2013, "day": 29, "month": 5, "categories": {"HS2": {"distance": 11, "rank": 338, "pace": 460000000000, "time": 5069.4}}, "weekday": "wednesday", "livingplace": "La Chaux de Fonds"}}, "location": "Neuch\u00e2tel"}}, "birth": 1973}