{"name": "Glardon Isy", "sex": "F", "races": {"Tour du Chablais #1 Roche": {"latitude": 46.2957462, "longitude": 6.9916269, "race": "Tour du Chablais #1 Roche", "date": {"mer. 03.04.2013": {"year": 2013, "day": 3, "month": 4, "categories": {"F-F50": {"distance": 9, "rank": 30, "pace": 353000000000, "time": 3133.5}}, "weekday": "wednesday", "livingplace": "Noville"}}, "location": "Ollon VD"}, "Tour du Chablais #6 Monthey": {"latitude": 46.3190253, "longitude": 6.970566, "race": "Tour du Chablais #6 Monthey", "date": {"mer. 08.05.2013": {"year": 2013, "day": 8, "month": 5, "categories": {"F-F50": {"distance": 9, "rank": 20, "pace": 331000000000, "time": 3093.4}}, "weekday": "wednesday", "livingplace": "Noville"}}, "location": "Aigle"}, "La Montheysanne, Monthey": {"latitude": 46.2521873, "longitude": 6.9469598, "race": "La Montheysanne, Monthey", "date": {"dim. 24.08.2014": {"year": 2014, "day": 24, "month": 8, "categories": {"10-DA3": {"distance": 10, "rank": 9, "pace": 326000000000, "time": 3261.6}}, "weekday": "sunday", "livingplace": "Noville"}}, "location": "Monthey"}, "Tour du Chablais #1 Martigny": {"latitude": 46.2957462, "longitude": 6.9916269, "race": "Tour du Chablais #1 Martigny", "date": {"mer. 23.04.2014": {"year": 2014, "day": 23, "month": 4, "categories": {"F-F50": {"distance": 9, "rank": 15, "pace": 322000000000, "time": 2741.7}}, "weekday": "wednesday", "livingplace": "Noville"}}, "location": "Ollon VD"}, "Tour du Chablais #4 St  Maurice": {"latitude": NaN, "longitude": NaN, "race": "Tour du Chablais #4 St  Maurice", "date": {"mer. 24.04.2013": {"year": 2013, "day": 24, "month": 4, "categories": {"F-F50": {"distance": 10, "rank": 23, "pace": 348000000000, "time": 3480.2}}, "weekday": "wednesday", "livingplace": "Noville"}}, "location": "Les Mosses"}, "Kerzerslauf": {"latitude": 46.97488999999999, "longitude": 7.1954365, "race": "Kerzerslauf", "date": {"sam. 21.03.2015": {"year": 2015, "day": 21, "month": 3, "categories": {"15-F60": {"distance": 15, "rank": 20, "pace": 345000000000, "time": 5176.7}}, "weekday": "saturday", "livingplace": "Noville"}, "sam. 15.03.2014": {"year": 2014, "day": 15, "month": 3, "categories": {"15-F55": {"distance": 15, "rank": 56, "pace": 354000000000, "time": 5316.0}}, "weekday": "saturday", "livingplace": "Noville"}}, "location": "Kerzers"}, "Tour du Chablais #3 Bouveret": {"latitude": 46.1782231, "longitude": 7.0223787, "race": "Tour du Chablais #3 Bouveret", "date": {"mer. 17.04.2013": {"year": 2013, "day": 17, "month": 4, "categories": {"F-F50": {"distance": 10, "rank": 26, "pace": 348000000000, "time": 3489.7}}, "weekday": "wednesday", "livingplace": "Noville"}}, "location": "Evionnaz"}}, "birth": 1955}