{"name": "Glauser C\u00e9dric", "sex": "M", "races": {"Groupe E Tour Fribourg #4, Siviriez": {"latitude": 46.6585092, "longitude": 6.877722, "race": "Groupe E Tour Fribourg #4, Siviriez", "date": {"mer. 10.09.2014": {"year": 2014, "day": 10, "month": 9, "categories": {"H-Sen1": {"distance": 11, "rank": 41, "pace": 317000000000, "time": 3431.1}}, "weekday": "wednesday", "livingplace": "Vuisternens devant Romont"}}, "location": "Siviriez"}, "Groupe E Tour Fribourg #1 Siviriez": {"latitude": 46.81832, "longitude": 6.977279999999999, "race": "Groupe E Tour Fribourg #1 Siviriez", "date": {"mer. 21.08.2013": {"year": 2013, "day": 21, "month": 8, "categories": {"HS1": {"distance": 10, "rank": 40, "pace": 293000000000, "time": 2878.6}}, "weekday": "wednesday", "livingplace": "Vuisternens devant Romont"}}, "location": "Cousset"}, "Morat-Fribourg": {"latitude": 46.92922110000001, "longitude": 7.120184, "race": "Morat-Fribourg", "date": {"sam. 05.10.2013": {"year": 2013, "day": 5, "month": 10, "categories": {"17-M20": {"distance": 17, "rank": 1200, "pace": 301000000000, "time": 5257.2}}, "weekday": "saturday", "livingplace": "Vuisternens devant Romont"}, "sam. 04.10.2014": {"year": 2014, "day": 4, "month": 10, "categories": {"17-M20": {"distance": 17, "rank": 925, "pace": 298000000000, "time": 5127.6}}, "weekday": "saturday", "livingplace": "Vuisternens devant Romont"}}, "location": "Murten"}, "Groupe E Tour Fribourg #2, Charmey": {"latitude": 46.6175845, "longitude": 7.1654493, "race": "Groupe E Tour Fribourg #2, Charmey", "date": {"mer. 27.08.2014": {"year": 2014, "day": 27, "month": 8, "categories": {"H-Sen1": {"distance": 10, "rank": 49, "pace": 311000000000, "time": 3002.1}}, "weekday": "wednesday", "livingplace": "Vuisternens devant Romont"}}, "location": "Charmey (Gruy\u00e8re)"}, "Groupe E Tour Fribourg #5 Fribourg": {"latitude": 46.8128615, "longitude": 7.131657799999999, "race": "Groupe E Tour Fribourg #5 Fribourg", "date": {"mer. 18.09.2013": {"year": 2013, "day": 18, "month": 9, "categories": {"HS1": {"distance": 10, "rank": 50, "pace": 278000000000, "time": 2781.6}}, "weekday": "wednesday", "livingplace": "Vuisternens devant Romont"}}, "location": "Givisiez"}, "Groupe E Tour Fribourg #3 Charmey": {"latitude": 46.97488999999999, "longitude": 7.1954365, "race": "Groupe E Tour Fribourg #3 Charmey", "date": {"mer. 04.09.2013": {"year": 2013, "day": 4, "month": 9, "categories": {"HS1": {"distance": 11, "rank": 42, "pace": 308000000000, "time": 3357.6}}, "weekday": "wednesday", "livingplace": "Vuisternens devant Romont"}}, "location": "Kerzers"}, "Groupe E Tour Fribourg #2 Kerzers": {"latitude": 46.6175845, "longitude": 7.1654493, "race": "Groupe E Tour Fribourg #2 Kerzers", "date": {"mer. 28.08.2013": {"year": 2013, "day": 28, "month": 8, "categories": {"HS1": {"distance": 12, "rank": 38, "pace": 282000000000, "time": 3350.7}}, "weekday": "wednesday", "livingplace": "Vuisternens devant Romont"}}, "location": "Charmey (Gruy\u00e8re)"}, "Groupe E Tour Fribourg #5, Givisiez": {"latitude": 46.8128615, "longitude": 7.131657799999999, "race": "Groupe E Tour Fribourg #5, Givisiez", "date": {"mer. 17.09.2014": {"year": 2014, "day": 17, "month": 9, "categories": {"H-Sen1": {"distance": 10, "rank": 48, "pace": 286000000000, "time": 2945.6}}, "weekday": "wednesday", "livingplace": "Vuisternens devant Romont"}}, "location": "Givisiez"}, "Groupe E Tour Fribourg #4 Montagny": {"latitude": 46.6585092, "longitude": 6.877722, "race": "Groupe E Tour Fribourg #4 Montagny", "date": {"mer. 11.09.2013": {"year": 2013, "day": 11, "month": 9, "categories": {"HS1": {"distance": 10, "rank": 48, "pace": 275000000000, "time": 2695.5}}, "weekday": "wednesday", "livingplace": "Vuisternens devant Romont"}}, "location": "Siviriez"}, "Groupe E Tour Fribourg #3, Kerzers": {"latitude": 46.97488999999999, "longitude": 7.1954365, "race": "Groupe E Tour Fribourg #3, Kerzers", "date": {"mer. 03.09.2014": {"year": 2014, "day": 3, "month": 9, "categories": {"H-Sen1": {"distance": 10, "rank": 28, "pace": 272000000000, "time": 2773.2}}, "weekday": "wednesday", "livingplace": "Vuisternens devant Romont"}}, "location": "Kerzers"}, "Groupe E Tour Fribourg #1, Cousset": {"latitude": 46.81832, "longitude": 6.977279999999999, "race": "Groupe E Tour Fribourg #1, Cousset", "date": {"mer. 20.08.2014": {"year": 2014, "day": 20, "month": 8, "categories": {"H-Sen1": {"distance": 9, "rank": 36, "pace": 270000000000, "time": 2543.4}}, "weekday": "wednesday", "livingplace": "Vuisternens devant Romont"}}, "location": "Cousset"}}, "birth": 1976}