{"name": "Glauser Nadine", "sex": "F", "races": {"Langenthaler Stadtlauf": {"latitude": 47.2120786, "longitude": 7.790562299999999, "race": "Langenthaler Stadtlauf", "date": {"sam. 22.11.2014": {"year": 2014, "day": 22, "month": 11, "categories": {"JogF": {"distance": 5, "rank": 55, "pace": 318000000000, "time": 1594.9}}, "weekday": "saturday", "livingplace": "Moutier"}, "sam. 23.11.2013": {"year": 2013, "day": 23, "month": 11, "categories": {"JogF": {"distance": 5, "rank": 46, "pace": 318000000000, "time": 1592.1}}, "weekday": "saturday", "livingplace": "Moutier"}}, "location": "Langenthal"}, "Derendinger Abendlauf, Derendingen": {"latitude": 47.1952433, "longitude": 7.585593099999999, "race": "Derendinger Abendlauf, Derendingen", "date": {"ven. 28.06.2013": {"year": 2013, "day": 28, "month": 6, "categories": {"VLF": {"distance": 5, "rank": 17, "pace": 339000000000, "time": 1835.5}}, "weekday": "friday", "livingplace": "Moutier"}}, "location": "Derendingen"}, "IWB Basel Marathon": {"latitude": 47.5595986, "longitude": 7.5885761, "race": "IWB Basel Marathon", "date": {"dim. 28.09.2014": {"year": 2014, "day": 28, "month": 9, "categories": {"10-F20": {"distance": 10, "rank": 65, "pace": 365000000000, "time": 3657.7}}, "weekday": "sunday", "livingplace": "Moutier"}}, "location": "Basel"}, "Basler Stadtlauf": {"latitude": 47.5595986, "longitude": 7.5885761, "race": "Basler Stadtlauf", "date": {"sam. 29.11.2014": {"year": 2014, "day": 29, "month": 11, "categories": {"F20": {"distance": 6, "rank": 344, "pace": 321000000000, "time": 1766.4}}, "weekday": "saturday", "livingplace": "Hofstetten"}}, "location": "Basel"}, "Schweizer Frauenlauf Bern": {"latitude": 46.9479739, "longitude": 7.4474468, "race": "Schweizer Frauenlauf Bern", "date": {"dim. 15.06.2014": {"year": 2014, "day": 15, "month": 6, "categories": {"5-W20": {"distance": 5, "rank": 430, "pace": 340000000000, "time": 1703.5}}, "weekday": "sunday", "livingplace": "Moutier"}}, "location": "Bern"}, "Liestaler Stadtlauf": {"latitude": 47.4866143, "longitude": 7.7334272, "race": "Liestaler Stadtlauf", "date": {"mer. 26.08.2015": {"year": 2015, "day": 26, "month": 8, "categories": {"W20": {"distance": 12, "rank": 7, "pace": 360000000000, "time": 4331.1}}, "weekday": "wednesday", "livingplace": "Hofstetten"}, "mer. 27.08.2014": {"year": 2014, "day": 27, "month": 8, "categories": {"St\u00e4F": {"distance": 5, "rank": 13, "pace": 266000000000, "time": 1386.2}}, "weekday": "wednesday", "livingplace": "Moutier"}, "mer. 28.08.2013": {"year": 2013, "day": 28, "month": 8, "categories": {"St\u00e4F": {"distance": 5, "rank": 12, "pace": 291000000000, "time": 1513.8}}, "weekday": "wednesday", "livingplace": "Moutier"}}, "location": "Liestal"}, "Muttenzer Herbstlauf": {"latitude": 47.5279292, "longitude": 7.6476369, "race": "Muttenzer Herbstlauf", "date": {"dim. 27.10.2013": {"year": 2013, "day": 27, "month": 10, "categories": {"10-W20": {"distance": 10, "rank": 9, "pace": 388000000000, "time": 3881.8}}, "weekday": "sunday", "livingplace": "Moutier"}}, "location": "Muttenz"}, "Kerzerslauf": {"latitude": 46.97488999999999, "longitude": 7.1954365, "race": "Kerzerslauf", "date": {"sam. 21.03.2015": {"year": 2015, "day": 21, "month": 3, "categories": {"15-F20": {"distance": 15, "rank": 236, "pace": 332000000000, "time": 4987.6}}, "weekday": "saturday", "livingplace": "Hofstetten"}}, "location": "Kerzers"}, "Emmenlauf Utzenstorf": {"latitude": 47.12816670000001, "longitude": 7.5588034, "race": "Emmenlauf Utzenstorf", "date": {"mer. 20.08.2014": {"year": 2014, "day": 20, "month": 8, "categories": {"Volk_D": {"distance": 5, "rank": 28, "pace": 340000000000, "time": 1847.1}}, "weekday": "wednesday", "livingplace": "Moutier"}}, "location": "Utzenstorf"}}, "birth": 1989}