{"name": "Glauser Ma\u00ebl", "sex": "M", "races": {"BCN Tour #1 Corcelles": {"latitude": 46.9668714, "longitude": 6.8589727, "race": "BCN Tour #1 Corcelles", "date": {"mer. 24.04.2013": {"year": 2013, "day": 24, "month": 4, "categories": {"KG2": {"distance": 2, "rank": 12, "pace": 304000000000, "time": 456.4}}, "weekday": "wednesday", "livingplace": "Chezard St Martin"}}, "location": "Colombier NE"}, "Corrida Bulloise, Bulle": {"latitude": 46.6154512, "longitude": 7.057726799999999, "race": "Corrida Bulloise, Bulle", "date": {"sam. 21.11.2015": {"year": 2015, "day": 21, "month": 11, "categories": {"G-U14": {"distance": 3, "rank": 43, "pace": 272000000000, "time": 856.8}}, "weekday": "saturday", "livingplace": "Chezard St Martin"}}, "location": "Bulle"}, "BCN Tour Le Landeron": {"latitude": 46.9668714, "longitude": 6.8589727, "race": "BCN Tour Le Landeron", "date": {"mer. 22.04.2009": {"year": 2009, "day": 22, "month": 4, "categories": {"KG1": {"distance": 2, "rank": 58, "pace": 328000000000, "time": 657.3}}, "weekday": "wednesday", "livingplace": "Chezard St Martin"}}, "location": "Colombier NE"}, "Dreil\u00e4nder-Lauf, Basel": {"latitude": 47.5595986, "longitude": 7.5885761, "race": "Dreil\u00e4nder-Lauf, Basel", "date": {"dim. 25.05.2014": {"year": 2014, "day": 25, "month": 5, "categories": {"KM2": {"distance": 2, "rank": 1, "pace": 235000000000, "time": 542.4}}, "weekday": "sunday", "livingplace": "Chezard St Martin"}}, "location": "Basel"}, "BCN Tour Ponts-de-Martel": {"latitude": 47.0624261, "longitude": 6.9175754, "race": "BCN Tour Ponts-de-Martel", "date": {"mer. 28.04.2010": {"year": 2010, "day": 28, "month": 4, "categories": {"KG1": {"distance": 2, "rank": 53, "pace": 256000000000, "time": 564.7}}, "weekday": "wednesday", "livingplace": "Chezard St Martin"}}, "location": "Ch\u00e9zard-St-Martin"}, "BCN Tour Auvernier": {"latitude": 46.9668714, "longitude": 6.8589727, "race": "BCN Tour Auvernier", "date": {"mer. 20.04.2011": {"year": 2011, "day": 20, "month": 4, "categories": {"KG1": {"distance": 1, "rank": 11, "pace": 257000000000, "time": 347.5}}, "weekday": "wednesday", "livingplace": "Chezard St Martin"}}, "location": "Colombier NE"}, "BCN Tour #4 Fleurier": {"latitude": 47.1034892, "longitude": 6.832783800000001, "race": "BCN Tour #4 Fleurier", "date": {"mer. 15.05.2013": {"year": 2013, "day": 15, "month": 5, "categories": {"KG2": {"distance": 2, "rank": 7, "pace": 159000000000, "time": 239.5}}, "weekday": "wednesday", "livingplace": "Chezard St Martin"}}, "location": "La Chaux-de-Fonds"}, "BCN Tour #2 La Chaux-de-Fonds": {"latitude": 47.0624261, "longitude": 6.9175754, "race": "BCN Tour #2 La Chaux-de-Fonds", "date": {"mer. 01.05.2013": {"year": 2013, "day": 1, "month": 5, "categories": {"KG2": {"distance": 1, "rank": 14, "pace": 243000000000, "time": 316.6}}, "weekday": "wednesday", "livingplace": "Chezard St Martin"}}, "location": "Ch\u00e9zard-St-Martin"}, "BCN Tour La Chaux-de-Fonds": {"latitude": 47.1034892, "longitude": 6.832783800000001, "race": "BCN Tour La Chaux-de-Fonds", "date": {"mer. 23.05.2012": {"year": 2012, "day": 23, "month": 5, "categories": {"KG1": {"distance": 2, "rank": 4, "pace": 307000000000, "time": 676.1}}, "weekday": "wednesday", "livingplace": "Chezard St Martin"}, "mer. 11.05.2011": {"year": 2011, "day": 11, "month": 5, "categories": {"KG1": {"distance": 1, "rank": 22, "pace": 474000000000, "time": 460.0}}, "weekday": "wednesday", "livingplace": "Chezard St Martin"}}, "location": "La Chaux-de-Fonds"}, "BCN Tour Les Ponts-de-Martel": {"latitude": 46.999113, "longitude": 6.733554799999999, "race": "BCN Tour Les Ponts-de-Martel", "date": {"mer. 09.05.2012": {"year": 2012, "day": 9, "month": 5, "categories": {"KG1": {"distance": 2, "rank": 5, "pace": 261000000000, "time": 496.2}}, "weekday": "wednesday", "livingplace": "Chezard St Martin"}}, "location": "Les Ponts-de-Martel"}, "BCN Tour Neuch\u00e2tel": {"latitude": 46.9899874, "longitude": 6.9292732, "race": "BCN Tour Neuch\u00e2tel", "date": {"mer. 26.05.2010": {"year": 2010, "day": 26, "month": 5, "categories": {"KG1": {"distance": 2, "rank": 64, "pace": 269000000000, "time": 404.7}}, "weekday": "wednesday", "livingplace": "Chezard St Martin"}, "mer. 30.05.2012": {"year": 2012, "day": 30, "month": 5, "categories": {"KG1": {"distance": 2, "rank": 4, "pace": 254000000000, "time": 445.0}}, "weekday": "wednesday", "livingplace": "Chezard St Martin"}, "mer. 25.05.2011": {"year": 2011, "day": 25, "month": 5, "categories": {"KG1": {"distance": 2, "rank": 24, "pace": 271000000000, "time": 542.4}}, "weekday": "wednesday", "livingplace": "Chezard St Martin"}}, "location": "Neuch\u00e2tel"}, "Lausanne Marathon": {"latitude": 46.5196535, "longitude": 6.6322734, "race": "Lausanne Marathon", "date": {"dim. 31.10.2010": {"year": 2010, "day": 31, "month": 10, "categories": {"2-K1": {"distance": 3, "rank": 32, "pace": 312000000000, "time": 812.4}}, "weekday": "sunday", "livingplace": "Chezard St Martin"}}, "location": "Lausanne"}, "BCN Tour #5 Colombier": {"latitude": 46.9262933, "longitude": 6.6324944, "race": "BCN Tour #5 Colombier", "date": {"mer. 22.05.2013": {"year": 2013, "day": 22, "month": 5, "categories": {"HJ": {"distance": 11, "rank": 64, "pace": 287000000000, "time": 3021.7}}, "weekday": "wednesday", "livingplace": "Chezard St Martin"}}, "location": "Couvet"}, "Course de l'Avent, Fribourg": {"latitude": 46.8064773, "longitude": 7.161971899999999, "race": "Course de l'Avent, Fribourg", "date": {"dim. 23.11.2014": {"year": 2014, "day": 23, "month": 11, "categories": {"Ados-M1": {"distance": 2, "rank": 5, "pace": 236000000000, "time": 567.5}}, "weekday": "sunday", "livingplace": "Chezard St Martin"}, "dim. 25.11.2012": {"year": 2012, "day": 25, "month": 11, "categories": {"Jeunes-M": {"distance": 2, "rank": 2, "pace": 241000000000, "time": 434.4}}, "weekday": "sunday", "livingplace": "Chezard St Martin"}, "dim. 24.11.2013": {"year": 2013, "day": 24, "month": 11, "categories": {"Jeunes-M": {"distance": 2, "rank": 3, "pace": 233000000000, "time": 420.0}}, "weekday": "sunday", "livingplace": "Chezard St Martin"}}, "location": "Fribourg"}, "Kerzerslauf": {"latitude": 46.97488999999999, "longitude": 7.1954365, "race": "Kerzerslauf", "date": {"sam. 20.03.2010": {"year": 2010, "day": 20, "month": 3, "categories": {"1-M7": {"distance": 0, "rank": 14, "pace": 237000000000, "time": 71.2}}, "weekday": "saturday", "livingplace": "Chezard St Martin"}, "sam. 19.03.2011": {"year": 2011, "day": 19, "month": 3, "categories": {"2-M9": {"distance": 1, "rank": 7, "pace": 234000000000, "time": 327.9}}, "weekday": "saturday", "livingplace": "Chezard St Martin"}, "sam. 21.03.2009": {"year": 2009, "day": 21, "month": 3, "categories": {"1-M7": {"distance": 0, "rank": 55, "pace": 266000000000, "time": 80.0}}, "weekday": "saturday", "livingplace": "Chezard St Martin"}, "sam. 17.03.2012": {"year": 2012, "day": 17, "month": 3, "categories": {"2-M9": {"distance": 1, "rank": 8, "pace": 236000000000, "time": 330.7}}, "weekday": "saturday", "livingplace": "Chezard St Martin"}}, "location": "Kerzers"}, "BCN Tour #3 Dombresson": {"latitude": 46.999113, "longitude": 6.733554799999999, "race": "BCN Tour #3 Dombresson", "date": {"mer. 08.05.2013": {"year": 2013, "day": 8, "month": 5, "categories": {"KG2": {"distance": 1, "rank": 13, "pace": 248000000000, "time": 322.7}}, "weekday": "wednesday", "livingplace": "Chezard St Martin"}}, "location": "Les Ponts-de-Martel"}, "Course de l'Escalade, Gen\u00e8ve": {"latitude": 46.2043907, "longitude": 6.1431577, "race": "Course de l'Escalade, Gen\u00e8ve", "date": {"sam. 06.12.2014": {"year": 2014, "day": 6, "month": 12, "categories": {"EcoM-B11": {"distance": 2, "rank": 16, "pace": 238000000000, "time": 559.0}}, "weekday": "saturday", "livingplace": "Chezard St Martin"}}, "location": "Gen\u00e8ve"}, "BCN Tour M\u00f4tier": {"latitude": 46.9262933, "longitude": 6.6324944, "race": "BCN Tour M\u00f4tier", "date": {"mer. 19.05.2010": {"year": 2010, "day": 19, "month": 5, "categories": {"KG1": {"distance": 2, "rank": 48, "pace": 287000000000, "time": 518.1}}, "weekday": "wednesday", "livingplace": "Chezard St Martin"}}, "location": "Couvet"}, "Course de l'Avent, Yverdon": {"latitude": 46.8064773, "longitude": 7.161971899999999, "race": "Course de l'Avent, Yverdon", "date": {"dim. 28.11.2010": {"year": 2010, "day": 28, "month": 11, "categories": {"O-Garc1": {"distance": 1, "rank": 2, "pace": 280000000000, "time": 407.2}}, "weekday": "sunday", "livingplace": "Chezard St Martin"}, "dim. 27.11.2011": {"year": 2011, "day": 27, "month": 11, "categories": {"O-Garc2": {"distance": 1, "rank": 1, "pace": 248000000000, "time": 360.9}}, "weekday": "sunday", "livingplace": "Chezard St Martin"}}, "location": "Fribourg"}, "BCN Tour Fontaine Cernier": {"latitude": 47.0624261, "longitude": 6.9175754, "race": "BCN Tour Fontaine Cernier", "date": {"mer. 27.04.2011": {"year": 2011, "day": 27, "month": 4, "categories": {"KG1": {"distance": 2, "rank": 8, "pace": 312000000000, "time": 530.9}}, "weekday": "wednesday", "livingplace": "Chezard St Martin"}}, "location": "Ch\u00e9zard-St-Martin"}, "Int  Bieler Cross, Biel-Bienne": {"latitude": 47.1367785, "longitude": 7.2467909, "race": "Int  Bieler Cross, Biel-Bienne", "date": {"dim. 14.11.2010": {"year": 2010, "day": 14, "month": 11, "categories": {"M8": {"distance": 0, "rank": 4, "pace": 236000000000, "time": 118.1}}, "weekday": "sunday", "livingplace": "Chezard St Martin"}}, "location": "Biel/Bienne"}, "BCN Tour Le Locle": {"latitude": 46.999113, "longitude": 6.733554799999999, "race": "BCN Tour Le Locle", "date": {"mer. 05.05.2010": {"year": 2010, "day": 5, "month": 5, "categories": {"KG1": {"distance": 2, "rank": 31, "pace": 315000000000, "time": 567.5}}, "weekday": "wednesday", "livingplace": "Chezard St Martin"}}, "location": "Les Ponts-de-Martel"}, "BCN Tour Couvet": {"latitude": 47.0624261, "longitude": 6.9175754, "race": "BCN Tour Couvet", "date": {"mer. 02.05.2012": {"year": 2012, "day": 2, "month": 5, "categories": {"KG1": {"distance": 2, "rank": 5, "pace": 267000000000, "time": 480.7}}, "weekday": "wednesday", "livingplace": "Chezard St Martin"}}, "location": "Ch\u00e9zard-St-Martin"}, "BCN Tour Cornaux": {"latitude": 46.9668714, "longitude": 6.8589727, "race": "BCN Tour Cornaux", "date": {"mer. 25.04.2012": {"year": 2012, "day": 25, "month": 4, "categories": {"KG1": {"distance": 2, "rank": 5, "pace": 264000000000, "time": 396.9}}, "weekday": "wednesday", "livingplace": "Chezard St Martin"}}, "location": "Colombier NE"}, "BCN Tour #6 Neuch\u00e2tel": {"latitude": 46.9899874, "longitude": 6.9292732, "race": "BCN Tour #6 Neuch\u00e2tel", "date": {"mer. 29.05.2013": {"year": 2013, "day": 29, "month": 5, "categories": {"KG2": {"distance": 1, "rank": 6, "pace": 215000000000, "time": 280.2}}, "weekday": "wednesday", "livingplace": "Chezard St Martin"}}, "location": "Neuch\u00e2tel"}, "BCN Tour La Br\u00e9vine": {"latitude": 46.999113, "longitude": 6.733554799999999, "race": "BCN Tour La Br\u00e9vine", "date": {"mer. 04.05.2011": {"year": 2011, "day": 4, "month": 5, "categories": {"KG1": {"distance": 2, "rank": 8, "pace": 277000000000, "time": 527.7}}, "weekday": "wednesday", "livingplace": "Chezard St Martin"}}, "location": "Les Ponts-de-Martel"}, "BCN Tour Les Ponts de Martel": {"latitude": 46.9262933, "longitude": 6.6324944, "race": "BCN Tour Les Ponts de Martel", "date": {"mer. 18.05.2011": {"year": 2011, "day": 18, "month": 5, "categories": {"KG1": {"distance": 2, "rank": 15, "pace": 261000000000, "time": 514.2}}, "weekday": "wednesday", "livingplace": "Chezard St Martin"}}, "location": "Couvet"}, "BCN Tour La Chaux-de-fonds": {"latitude": 47.1034892, "longitude": 6.832783800000001, "race": "BCN Tour La Chaux-de-fonds", "date": {"mer. 12.05.2010": {"year": 2010, "day": 12, "month": 5, "categories": {"KG1": {"distance": 1, "rank": 60, "pace": 923000000000, "time": 895.5}}, "weekday": "wednesday", "livingplace": "Chezard St Martin"}}, "location": "La Chaux-de-Fonds"}, "BCN Tour Colombier": {"latitude": 46.9668714, "longitude": 6.8589727, "race": "BCN Tour Colombier", "date": {"mer. 16.05.2012": {"year": 2012, "day": 16, "month": 5, "categories": {"KG1": {"distance": 2, "rank": 6, "pace": 310000000000, "time": 466.2}}, "weekday": "wednesday", "livingplace": "Chezard St Martin"}, "mer. 21.04.2010": {"year": 2010, "day": 21, "month": 4, "categories": {"KG1": {"distance": 2, "rank": 29, "pace": 328000000000, "time": 656.3}}, "weekday": "wednesday", "livingplace": "Chezard St Martin"}}, "location": "Colombier NE"}}, "birth": 2003}