{"name": "Gobat Laurent", "sex": "M", "races": {"BCN Tour Couvet": {"latitude": 47.0624261, "longitude": 6.9175754, "race": "BCN Tour Couvet", "date": {"mer. 02.05.2012": {"year": 2012, "day": 2, "month": 5, "categories": {"HS2": {"distance": 11, "rank": 146, "pace": 314000000000, "time": 3506.0}}, "weekday": "wednesday", "livingplace": "Neuchatel"}}, "location": "Ch\u00e9zard-St-Martin"}, "BCN Tour Colombier": {"latitude": 47.1034892, "longitude": 6.832783800000001, "race": "BCN Tour Colombier", "date": {"mer. 16.05.2012": {"year": 2012, "day": 16, "month": 5, "categories": {"HS2": {"distance": 11, "rank": 144, "pace": 298000000000, "time": 3226.0}}, "weekday": "wednesday", "livingplace": "Neuchatel"}}, "location": "La Chaux-de-Fonds"}, "BCN Tour #1 Corcelles": {"latitude": 46.9668714, "longitude": 6.8589727, "race": "BCN Tour #1 Corcelles", "date": {"mer. 24.04.2013": {"year": 2013, "day": 24, "month": 4, "categories": {"HS2": {"distance": 10, "rank": 111, "pace": 288000000000, "time": 2828.0}}, "weekday": "wednesday", "livingplace": "Neuchatel"}}, "location": "Colombier NE"}, "BCN Tour #4 Fleurier": {"latitude": 47.1034892, "longitude": 6.832783800000001, "race": "BCN Tour #4 Fleurier", "date": {"mer. 15.05.2013": {"year": 2013, "day": 15, "month": 5, "categories": {"HS2": {"distance": 9, "rank": 78, "pace": 282000000000, "time": 2446.9}}, "weekday": "wednesday", "livingplace": "Neuchatel"}}, "location": "La Chaux-de-Fonds"}, "BCN Tour #2 La Chaux-de-Fonds": {"latitude": 47.0624261, "longitude": 6.9175754, "race": "BCN Tour #2 La Chaux-de-Fonds", "date": {"mer. 01.05.2013": {"year": 2013, "day": 1, "month": 5, "categories": {"HS2": {"distance": 11, "rank": 112, "pace": 281000000000, "time": 3009.9}}, "weekday": "wednesday", "livingplace": "Neuchatel"}}, "location": "Ch\u00e9zard-St-Martin"}, "Brienzerseelauf, B\u00f6nigen": {"latitude": NaN, "longitude": NaN, "race": "Brienzerseelauf, B\u00f6nigen", "date": {"sam. 10.10.2015": {"year": 2015, "day": 10, "month": 10, "categories": {"2-M40": {"distance": 35, "rank": 40, "pace": 323000000000, "time": 11338.9}}, "weekday": "saturday", "livingplace": "Neuchatel"}}, "location": "B\u00f6nigen b. Interlaken"}, "BCN Tour La Chaux-de-Fonds": {"latitude": 46.9262933, "longitude": 6.6324944, "race": "BCN Tour La Chaux-de-Fonds", "date": {"mer. 23.05.2012": {"year": 2012, "day": 23, "month": 5, "categories": {"HS2": {"distance": 11, "rank": 166, "pace": 314000000000, "time": 3392.5}}, "weekday": "wednesday", "livingplace": "Neuchatel"}}, "location": "Couvet"}, "BCN Tour #6 Neuch\u00e2tel": {"latitude": 46.9899874, "longitude": 6.9292732, "race": "BCN Tour #6 Neuch\u00e2tel", "date": {"mer. 29.05.2013": {"year": 2013, "day": 29, "month": 5, "categories": {"HS2": {"distance": 11, "rank": 138, "pace": 309000000000, "time": 3405.8}}, "weekday": "wednesday", "livingplace": "Neuchatel"}}, "location": "Neuch\u00e2tel"}, "BCN Tour Les Ponts-de-Martel": {"latitude": 46.999113, "longitude": 6.733554799999999, "race": "BCN Tour Les Ponts-de-Martel", "date": {"mer. 09.05.2012": {"year": 2012, "day": 9, "month": 5, "categories": {"HS2": {"distance": 10, "rank": 172, "pace": 318000000000, "time": 3280.6}}, "weekday": "wednesday", "livingplace": "Neuchatel"}}, "location": "Les Ponts-de-Martel"}, "BCN Tour #5 Colombier": {"latitude": 46.9262933, "longitude": 6.6324944, "race": "BCN Tour #5 Colombier", "date": {"mer. 22.05.2013": {"year": 2013, "day": 22, "month": 5, "categories": {"HS2": {"distance": 11, "rank": 87, "pace": 259000000000, "time": 2722.0}}, "weekday": "wednesday", "livingplace": "Neuchatel"}}, "location": "Couvet"}, "BCN Tour Cornaux": {"latitude": 46.9668714, "longitude": 6.8589727, "race": "BCN Tour Cornaux", "date": {"mer. 25.04.2012": {"year": 2012, "day": 25, "month": 4, "categories": {"HS2": {"distance": 11, "rank": 134, "pace": 336000000000, "time": 3702.1}}, "weekday": "wednesday", "livingplace": "Neuchatel"}}, "location": "Colombier NE"}, "BCN Tour #3 Dombresson": {"latitude": 46.999113, "longitude": 6.733554799999999, "race": "BCN Tour #3 Dombresson", "date": {"mer. 08.05.2013": {"year": 2013, "day": 8, "month": 5, "categories": {"HS2": {"distance": 10, "rank": 135, "pace": 286000000000, "time": 2833.2}}, "weekday": "wednesday", "livingplace": "Neuchatel"}}, "location": "Les Ponts-de-Martel"}}, "birth": 1966}