{"name": "Gobeli Kurt", "sex": "M", "races": {"Glacier 3000 Run, Gstaad": {"latitude": 46.4717588, "longitude": 7.2865728, "race": "Glacier 3000 Run, Gstaad", "date": {"sam. 04.08.2012": {"year": 2012, "day": 4, "month": 8, "categories": {"M30": {"distance": 26, "rank": 7, "pace": 390000000000, "time": 10154.0}}, "weekday": "saturday", "livingplace": "Lenk im Simmental"}}, "location": "Gstaad"}, "Morat-Fribourg": {"latitude": 46.92922110000001, "longitude": 7.120184, "race": "Morat-Fribourg", "date": {"sam. 06.10.2007": {"year": 2007, "day": 6, "month": 10, "categories": {"C/M20": {"distance": 17, "rank": 30, "pace": 228000000000, "time": 3920.3}}, "weekday": "saturday", "livingplace": "Lenk im Simmental"}}, "location": "Murten"}, "Aletsch-Halbmarathon, Bettmeralp": {"latitude": NaN, "longitude": NaN, "race": "Aletsch-Halbmarathon, Bettmeralp", "date": {"dim. 24.06.2012": {"year": 2012, "day": 24, "month": 6, "categories": {"M30": {"distance": 21, "rank": 16, "pace": 322000000000, "time": 6844.7}}, "weekday": "sunday", "livingplace": "Lenk im Simmental"}}, "location": "Bettmeralp"}, "Steinh\u00f6lzlilauf, Liebefeld": {"latitude": 46.933331, "longitude": 7.416668, "race": "Steinh\u00f6lzlilauf, Liebefeld", "date": {"dim. 05.12.2010": {"year": 2010, "day": 5, "month": 12, "categories": {"L_S1M": {"distance": 11, "rank": 4, "pace": 248000000000, "time": 2607.1}}, "weekday": "sunday", "livingplace": "Lenk im Simmental"}}, "location": "Liebefeld"}, "Hallwilerseelauf, Beinwil am See": {"latitude": NaN, "longitude": NaN, "race": "Hallwilerseelauf, Beinwil am See", "date": {"sam. 10.10.2009": {"year": 2009, "day": 10, "month": 10, "categories": {"21-M30": {"distance": 21, "rank": 50, "pace": 243000000000, "time": 5140.6}}, "weekday": "saturday", "livingplace": "Lenk im Simmental"}}, "location": "Beinwil am See"}, "Thuner Langstreckenlauf": {"latitude": 46.7579868, "longitude": 7.6279881, "race": "Thuner Langstreckenlauf", "date": {"sam. 22.05.2004": {"year": 2004, "day": 22, "month": 5, "categories": {"M30": {"distance": 15, "rank": 8, "pace": 216000000000, "time": 3142.7}}, "weekday": "saturday", "livingplace": "Lenk"}}, "location": "Thun"}, "Internationaler Matterhornlauf, Zermatt": {"latitude": NaN, "longitude": NaN, "race": "Internationaler Matterhornlauf, Zermatt", "date": {"dim. 21.08.2005": {"year": 2005, "day": 21, "month": 8, "categories": {"MHL/M30": {"distance": 14, "rank": 13, "pace": 346000000000, "time": 4974.4}}, "weekday": "sunday", "livingplace": "Lenk im Simmental"}}, "location": "Zermatt"}, "Bl\u00fcemlisalp-Lauf, Reichenbach": {"latitude": 46.6254387, "longitude": 7.6940529, "race": "Bl\u00fcemlisalp-Lauf, Reichenbach", "date": {"dim. 30.05.2010": {"year": 2010, "day": 30, "month": 5, "categories": {"M30": {"distance": 16, "rank": 7, "pace": 290000000000, "time": 4667.5}}, "weekday": "sunday", "livingplace": "Lenk im Simmental"}}, "location": "Reichenbach im Kandertal"}, "M\u00e4nnlichen Halbmarathon, Grindelwald": {"latitude": 46.624164, "longitude": 8.0413962, "race": "M\u00e4nnlichen Halbmarathon, Grindelwald", "date": {"dim. 03.06.2012": {"year": 2012, "day": 3, "month": 6, "categories": {"M30": {"distance": 21, "rank": 3, "pace": 363000000000, "time": 7679.3}}, "weekday": "sunday", "livingplace": "Lenk im Simmental"}}, "location": "Grindelwald"}, "Burgdorfer Stadtlauf, Burgdorf": {"latitude": 45.277123, "longitude": -115.9129022, "race": "Burgdorfer Stadtlauf, Burgdorf", "date": {"sam. 15.09.2007": {"year": 2007, "day": 15, "month": 9, "categories": {"MHE1": {"distance": 8, "rank": 2, "pace": 226000000000, "time": 1808.7}}, "weekday": "saturday", "livingplace": "Lenk im Simmental"}}, "location": "Burgdorf"}, "Basel City Marathon": {"latitude": 47.5595986, "longitude": 7.5885761, "race": "Basel City Marathon", "date": {"dim. 03.09.2006": {"year": 2006, "day": 3, "month": 9, "categories": {"H-M30": {"distance": 21, "rank": 4, "pace": 225000000000, "time": 4753.4}}, "weekday": "sunday", "livingplace": "Lenk im Simmental"}}, "location": "Basel"}, "Z\u00fcrich Marathon, Teamrun und Cityrun": {"latitude": 47.3768866, "longitude": 8.541694, "race": "Z\u00fcrich Marathon, Teamrun und Cityrun", "date": {"dim. 09.04.2006": {"year": 2006, "day": 9, "month": 4, "categories": {"M30": {"distance": 42, "rank": 83, "pace": 244000000000, "time": 10336.1}}, "weekday": "sunday", "livingplace": "Lenk im Simmental"}}, "location": "Z\u00fcrich"}, "Kerzerslauf": {"latitude": 46.97488999999999, "longitude": 7.1954365, "race": "Kerzerslauf", "date": {"sam. 18.03.2006": {"year": 2006, "day": 18, "month": 3, "categories": {"M20": {"distance": 15, "rank": 63, "pace": 225000000000, "time": 3386.1}}, "weekday": "saturday", "livingplace": "Lenk im Simmental"}}, "location": "Kerzers"}, "10km de Payerne": {"latitude": 46.8220266, "longitude": 6.9405663, "race": "10km de Payerne", "date": {"sam. 27.03.2010": {"year": 2010, "day": 27, "month": 3, "categories": {"M35": {"distance": 10, "rank": 15, "pace": 217000000000, "time": 2175.0}}, "weekday": "saturday", "livingplace": "Lenk im Simmental"}}, "location": "Payerne"}, "Jungfrau-Marathon, Interlaken": {"latitude": NaN, "longitude": NaN, "race": "Jungfrau-Marathon, Interlaken", "date": {"sam. 08.09.2012": {"year": 2012, "day": 8, "month": 9, "categories": {"SO-M20": {"distance": 42, "rank": 72, "pace": 323000000000, "time": 13658.0}}, "weekday": "saturday", "livingplace": "Lenk im Simmental"}}, "location": "Interlaken"}}, "birth": 1973}