{"name": "Godet Valentine", "sex": "F", "races": {"20km de Lausanne": {"latitude": 46.5196535, "longitude": 6.6322734, "race": "20km de Lausanne", "date": {"sam. 25.04.2015": {"year": 2015, "day": 25, "month": 4, "categories": {"10-F20": {"distance": 10, "rank": 220, "pace": 318000000000, "time": 3186.5}}, "weekday": "saturday", "livingplace": "Lausanne"}}, "location": "Lausanne"}, "BCN Tour Neuch\u00e2tel": {"latitude": 46.9899874, "longitude": 6.9292732, "race": "BCN Tour Neuch\u00e2tel", "date": {"mer. 26.05.2010": {"year": 2010, "day": 26, "month": 5, "categories": {"DJ": {"distance": 10, "rank": 67, "pace": 550000000000, "time": 5336.7}}, "weekday": "wednesday", "livingplace": "Auvernier"}}, "location": "Neuch\u00e2tel"}, "BCN Tour M\u00f4tier": {"latitude": 46.9262933, "longitude": 6.6324944, "race": "BCN Tour M\u00f4tier", "date": {"mer. 19.05.2010": {"year": 2010, "day": 19, "month": 5, "categories": {"DJ": {"distance": 10, "rank": 28, "pace": 354000000000, "time": 3506.7}}, "weekday": "wednesday", "livingplace": "Auvernier"}}, "location": "Couvet"}, "BCN Tour Colombier": {"latitude": 46.9668714, "longitude": 6.8589727, "race": "BCN Tour Colombier", "date": {"mer. 21.04.2010": {"year": 2010, "day": 21, "month": 4, "categories": {"DJ": {"distance": 10, "rank": 33, "pace": 479000000000, "time": 4793.5}}, "weekday": "wednesday", "livingplace": "Auvernier"}}, "location": "Colombier NE"}, "BCN Tour Ponts-de-Martel": {"latitude": 47.0624261, "longitude": 6.9175754, "race": "BCN Tour Ponts-de-Martel", "date": {"mer. 28.04.2010": {"year": 2010, "day": 28, "month": 4, "categories": {"DJ": {"distance": 11, "rank": 28, "pace": 390000000000, "time": 4378.4}}, "weekday": "wednesday", "livingplace": "Auvernier"}}, "location": "Ch\u00e9zard-St-Martin"}}, "birth": 1991}