{"name": "Goetschi Christine", "sex": "F", "races": {"Tour du Pays de Vaud #4, La Sarraz": {"latitude": 46.7088129, "longitude": 6.5707689, "race": "Tour du Pays de Vaud #4, La Sarraz", "date": {"mer. 03.09.2014": {"year": 2014, "day": 3, "month": 9, "categories": {"D-Sen3": {"distance": 9, "rank": 8, "pace": 327000000000, "time": 2786.7}}, "weekday": "wednesday", "livingplace": "Vufflens la Ville"}}, "location": "Chavornay"}, "Morat-Fribourg": {"latitude": 46.92922110000001, "longitude": 7.120184, "race": "Morat-Fribourg", "date": {"sam. 04.10.2014": {"year": 2014, "day": 4, "month": 10, "categories": {"17-W50": {"distance": 17, "rank": 95, "pace": 371000000000, "time": 6371.7}}, "weekday": "saturday", "livingplace": "Vufflens la Ville"}}, "location": "Murten"}, "Les Traine-Savates, Cheseaux-sur-Lausanne": {"latitude": 46.585452, "longitude": 6.6047712, "race": "Les Traine-Savates, Cheseaux-sur-Lausanne", "date": {"sam. 18.04.2015": {"year": 2015, "day": 18, "month": 4, "categories": {"10-W50": {"distance": 10, "rank": 24, "pace": 332000000000, "time": 3427.6}}, "weekday": "saturday", "livingplace": "Vufflens la Ville"}}, "location": "Cheseaux-sur-Lausanne"}, "10km, Payerne": {"latitude": 46.8220266, "longitude": 6.9405663, "race": "10km, Payerne", "date": {"sam. 16.04.2011": {"year": 2011, "day": 16, "month": 4, "categories": {"W40": {"distance": 10, "rank": 10, "pace": 317000000000, "time": 3179.7}}, "weekday": "saturday", "livingplace": "Vufflens la Ville"}}, "location": "Payerne"}, "20km de Lausanne": {"latitude": 46.5196535, "longitude": 6.6322734, "race": "20km de Lausanne", "date": {"sam. 30.04.2011": {"year": 2011, "day": 30, "month": 4, "categories": {"10-F45": {"distance": 10, "rank": 41, "pace": 319000000000, "time": 3194.6}}, "weekday": "saturday", "livingplace": "Vufflens la Ville"}, "sam. 25.04.2015": {"year": 2015, "day": 25, "month": 4, "categories": {"10-F50": {"distance": 10, "rank": 29, "pace": 329000000000, "time": 3292.3}}, "weekday": "saturday", "livingplace": "FSL/CMS c'est ma sante"}}, "location": "Lausanne"}, "Tour du Pays de Vaud #1, Penthaz": {"latitude": 46.5993131, "longitude": 6.539251200000001, "race": "Tour du Pays de Vaud #1, Penthaz", "date": {"mer. 13.08.2014": {"year": 2014, "day": 13, "month": 8, "categories": {"D-Sen3": {"distance": 9, "rank": 9, "pace": 315000000000, "time": 2693.8}}, "weekday": "wednesday", "livingplace": "Vufflens la Ville"}}, "location": "Penthaz"}, "Tour du Pays de Vaud #3, Chavornay": {"latitude": 46.7784736, "longitude": 6.641183, "race": "Tour du Pays de Vaud #3, Chavornay", "date": {"mer. 27.08.2014": {"year": 2014, "day": 27, "month": 8, "categories": {"D-Sen3": {"distance": 9, "rank": 15, "pace": 344000000000, "time": 2966.1}}, "weekday": "wednesday", "livingplace": "Vufflens la Ville"}}, "location": "Yverdon-les-Bains"}}, "birth": 1964}