{"name": "Gogniat Christoph", "sex": "M", "races": {"Bl\u00fcemlisalp-Lauf, Reichenbach": {"latitude": 46.6254387, "longitude": 7.6940529, "race": "Bl\u00fcemlisalp-Lauf, Reichenbach", "date": {"dim. 24.05.2015": {"year": 2015, "day": 24, "month": 5, "categories": {"M50": {"distance": 16, "rank": 127, "pace": 459000000000, "time": 7396.2}}, "weekday": "sunday", "livingplace": "Lauftreff"}}, "location": "Reichenbach im Kandertal"}, "Gurtenclassic, Wabern": {"latitude": 46.92901639999999, "longitude": 7.448973199999999, "race": "Gurtenclassic, Wabern", "date": {"dim. 02.11.2014": {"year": 2014, "day": 2, "month": 11, "categories": {"M40": {"distance": 15, "rank": 130, "pace": 377000000000, "time": 5665.8}}, "weekday": "sunday", "livingplace": "Schupfen"}}, "location": "Wabern"}, "Kerzerslauf": {"latitude": 46.97488999999999, "longitude": 7.1954365, "race": "Kerzerslauf", "date": {"sam. 15.03.2014": {"year": 2014, "day": 15, "month": 3, "categories": {"15-M45": {"distance": 15, "rank": 516, "pace": 337000000000, "time": 5057.3}}, "weekday": "saturday", "livingplace": "Schupfen"}}, "location": "Kerzers"}, "Emmenlauf Utzenstorf": {"latitude": 47.12816670000001, "longitude": 7.5588034, "race": "Emmenlauf Utzenstorf", "date": {"mer. 20.08.2014": {"year": 2014, "day": 20, "month": 8, "categories": {"Herren3": {"distance": 11, "rank": 90, "pace": 296000000000, "time": 3113.1}}, "weekday": "wednesday", "livingplace": "Schupfen"}}, "location": "Utzenstorf"}, "ASICS Bremgarter Reusslauf": {"latitude": 47.34917739999999, "longitude": 8.3397905, "race": "ASICS Bremgarter Reusslauf", "date": {"sam. 28.02.2015": {"year": 2015, "day": 28, "month": 2, "categories": {"11-M50": {"distance": 11, "rank": 334, "pace": 311000000000, "time": 3428.5}}, "weekday": "saturday", "livingplace": "Buren"}}, "location": "Bremgarten AG"}}, "birth": 1965}