{"name": "Gogniat Jean-Marc", "sex": "M", "races": {"Lucerne Marathon, Luzern": {"latitude": 47.05016819999999, "longitude": 8.3093072, "race": "Lucerne Marathon, Luzern", "date": {"dim. 28.10.2012": {"year": 2012, "day": 28, "month": 10, "categories": {"H-M30": {"distance": 21, "rank": 985, "pace": 394000000000, "time": 8332.8}}, "weekday": "sunday", "livingplace": "Echallens"}}, "location": "Luzern"}, "Morat-Fribourg": {"latitude": 46.92922110000001, "longitude": 7.120184, "race": "Morat-Fribourg", "date": {"sam. 05.10.2013": {"year": 2013, "day": 5, "month": 10, "categories": {"17-M40": {"distance": 17, "rank": 779, "pace": 362000000000, "time": 6327.1}}, "weekday": "saturday", "livingplace": "Echallens"}, "sam. 06.10.2012": {"year": 2012, "day": 6, "month": 10, "categories": {"17-M20": {"distance": 17, "rank": 1917, "pace": 410000000000, "time": 7166.2}}, "weekday": "saturday", "livingplace": "Echallens"}, "sam. 03.10.2015": {"year": 2015, "day": 3, "month": 10, "categories": {"17-M40": {"distance": 17, "rank": 684, "pace": 406000000000, "time": 6980.7}}, "weekday": "saturday", "livingplace": "Goumoens la Ville"}}, "location": "Murten"}, "20km de Lausanne": {"latitude": 46.5196535, "longitude": 6.6322734, "race": "20km de Lausanne", "date": {"sam. 25.04.2015": {"year": 2015, "day": 25, "month": 4, "categories": {"10-H40": {"distance": 10, "rank": 483, "pace": 387000000000, "time": 3877.9}}, "weekday": "saturday", "livingplace": "Echallens"}, "sam. 26.04.2014": {"year": 2014, "day": 26, "month": 4, "categories": {"10-H40": {"distance": 10, "rank": 387, "pace": 346000000000, "time": 3460.3}}, "weekday": "saturday", "livingplace": "Echallens"}}, "location": "Lausanne"}, "Tour du Pays de Vaud #4, La Sarraz": {"latitude": 46.7088129, "longitude": 6.5707689, "race": "Tour du Pays de Vaud #4, La Sarraz", "date": {"mer. 03.09.2014": {"year": 2014, "day": 3, "month": 9, "categories": {"H-Sen2": {"distance": 9, "rank": 141, "pace": 362000000000, "time": 3082.0}}, "weekday": "wednesday", "livingplace": "Echallens"}}, "location": "Chavornay"}, "Tour du Pays de Vaud #3, Chavornay": {"latitude": 46.7784736, "longitude": 6.641183, "race": "Tour du Pays de Vaud #3, Chavornay", "date": {"mer. 27.08.2014": {"year": 2014, "day": 27, "month": 8, "categories": {"H-Sen2": {"distance": 9, "rank": 144, "pace": 388000000000, "time": 3342.8}}, "weekday": "wednesday", "livingplace": "Echallens"}}, "location": "Yverdon-les-Bains"}, "Kerzerslauf": {"latitude": 46.97488999999999, "longitude": 7.1954365, "race": "Kerzerslauf", "date": {"sam. 15.03.2014": {"year": 2014, "day": 15, "month": 3, "categories": {"15-M40": {"distance": 15, "rank": 497, "pace": 359000000000, "time": 5393.6}}, "weekday": "saturday", "livingplace": "Oulens sous Echallen"}, "sam. 16.03.2013": {"year": 2013, "day": 16, "month": 3, "categories": {"15-M40": {"distance": 15, "rank": 453, "pace": 359000000000, "time": 5394.5}}, "weekday": "saturday", "livingplace": "Oulens sous Echallen"}}, "location": "Kerzers"}, "Tour du Pays de Vaud #1, Penthaz": {"latitude": 46.5993131, "longitude": 6.539251200000001, "race": "Tour du Pays de Vaud #1, Penthaz", "date": {"mer. 13.08.2014": {"year": 2014, "day": 13, "month": 8, "categories": {"H-Sen2": {"distance": 9, "rank": 103, "pace": 355000000000, "time": 3033.6}}, "weekday": "wednesday", "livingplace": "Echallens"}}, "location": "Penthaz"}, "Les Traine-Savates, Cheseaux-sur-Lausanne": {"latitude": 46.585452, "longitude": 6.6047712, "race": "Les Traine-Savates, Cheseaux-sur-Lausanne", "date": {"sam. 18.04.2015": {"year": 2015, "day": 18, "month": 4, "categories": {"10-M40": {"distance": 10, "rank": 234, "pace": 394000000000, "time": 4066.3}}, "weekday": "saturday", "livingplace": "Echallens"}}, "location": "Cheseaux-sur-Lausanne"}, "Lausanne Marathon": {"latitude": 46.5196535, "longitude": 6.6322734, "race": "Lausanne Marathon", "date": {"sam. 24.10.2015": {"year": 2015, "day": 24, "month": 10, "categories": {"21-H40": {"distance": 21, "rank": 807, "pace": 414000000000, "time": 8736.8}}, "weekday": "saturday", "livingplace": "Goumoens la Ville"}, "dim. 26.10.2014": {"year": 2014, "day": 26, "month": 10, "categories": {"10-H40": {"distance": 10, "rank": 302, "pace": 301000000000, "time": 3011.8}}, "weekday": "sunday", "livingplace": "Echallens"}, "dim. 27.10.2013": {"year": 2013, "day": 27, "month": 10, "categories": {"10-H3": {"distance": 10, "rank": 342, "pace": 327000000000, "time": 3272.8}}, "weekday": "sunday", "livingplace": "Echallens"}}, "location": "Lausanne"}, "BCN Tour #5 Colombier": {"latitude": 46.9262933, "longitude": 6.6324944, "race": "BCN Tour #5 Colombier", "date": {"mer. 22.05.2013": {"year": 2013, "day": 22, "month": 5, "categories": {"HS2": {"distance": 11, "rank": 347, "pace": 350000000000, "time": 3679.1}}, "weekday": "wednesday", "livingplace": "Echallens"}}, "location": "Couvet"}, "Z\u00fcrich Marathon, Teamrun und Cityrun": {"latitude": 47.3768866, "longitude": 8.541694, "race": "Z\u00fcrich Marathon, Teamrun und Cityrun", "date": {"dim. 06.04.2014": {"year": 2014, "day": 6, "month": 4, "categories": {"42-M40": {"distance": 42, "rank": 329, "pace": 415000000000, "time": 17525.9}}, "weekday": "sunday", "livingplace": "Oulens sous Echallen"}}, "location": "Z\u00fcrich"}, "Tour du pays de Vaud #1 - Penthaz": {"latitude": 46.5993131, "longitude": 6.539251200000001, "race": "Tour du pays de Vaud #1 - Penthaz", "date": {"mer. 08.08.2012": {"year": 2012, "day": 8, "month": 8, "categories": {"H-Sen1": {"distance": 9, "rank": 185, "pace": 418000000000, "time": 3569.1}}, "weekday": "wednesday", "livingplace": "Echallens"}}, "location": "Penthaz"}}, "birth": 1973}