{"name": "Golay Michel", "sex": "M", "races": {"Groupe E Tour Fribourg #1 Gurmels": {"latitude": 46.81832, "longitude": 6.977279999999999, "race": "Groupe E Tour Fribourg #1 Gurmels", "date": {"mer. 29.08.2012": {"year": 2012, "day": 29, "month": 8, "categories": {"HS2": {"distance": 8, "rank": 50, "pace": 372000000000, "time": 3131.4}}, "weekday": "wednesday", "livingplace": "Estavayer le Lac"}}, "location": "Cousset"}, "Morat-Fribourg": {"latitude": 46.92922110000001, "longitude": 7.120184, "race": "Morat-Fribourg", "date": {"sam. 05.10.2013": {"year": 2013, "day": 5, "month": 10, "categories": {"17-M45": {"distance": 17, "rank": 733, "pace": 366000000000, "time": 6403.2}}, "weekday": "saturday", "livingplace": "Estavayer le Lac"}, "sam. 01.10.2011": {"year": 2011, "day": 1, "month": 10, "categories": {"17-M45": {"distance": 17, "rank": 706, "pace": 423000000000, "time": 7268.0}}, "weekday": "saturday", "livingplace": "Estavayer le Lac"}, "sam. 06.10.2012": {"year": 2012, "day": 6, "month": 10, "categories": {"17-M45": {"distance": 17, "rank": 641, "pace": 365000000000, "time": 6374.3}}, "weekday": "saturday", "livingplace": "Estavayer le Lac"}}, "location": "Murten"}, "Groupe E Tour Fribourg #3 Estavayer-le-Lac": {"latitude": 46.97488999999999, "longitude": 7.1954365, "race": "Groupe E Tour Fribourg #3 Estavayer-le-Lac", "date": {"mer. 12.09.2012": {"year": 2012, "day": 12, "month": 9, "categories": {"HS2": {"distance": 10, "rank": 46, "pace": 318000000000, "time": 3141.4}}, "weekday": "wednesday", "livingplace": "Estavayer le Lac"}}, "location": "Kerzers"}, "Groupe E Tour Fribourg #2 Kerzers": {"latitude": 46.6175845, "longitude": 7.1654493, "race": "Groupe E Tour Fribourg #2 Kerzers", "date": {"mer. 28.08.2013": {"year": 2013, "day": 28, "month": 8, "categories": {"HS2": {"distance": 12, "rank": 58, "pace": 342000000000, "time": 4050.7}}, "weekday": "wednesday", "livingplace": "Estavayer le Lac"}}, "location": "Charmey (Gruy\u00e8re)"}, "20km de Lausanne": {"latitude": 46.5196535, "longitude": 6.6322734, "race": "20km de Lausanne", "date": {"sam. 26.04.2014": {"year": 2014, "day": 26, "month": 4, "categories": {"10-H45": {"distance": 10, "rank": 314, "pace": 337000000000, "time": 3374.1}}, "weekday": "saturday", "livingplace": "Estavayer le Lac"}}, "location": "Lausanne"}, "Groupe E Tour Fribourg #4 Montagny": {"latitude": 46.6585092, "longitude": 6.877722, "race": "Groupe E Tour Fribourg #4 Montagny", "date": {"mer. 11.09.2013": {"year": 2013, "day": 11, "month": 9, "categories": {"HS2": {"distance": 10, "rank": 63, "pace": 333000000000, "time": 3269.0}}, "weekday": "wednesday", "livingplace": "Estavayer le Lac"}}, "location": "Siviriez"}, "Groupe E Tour Fribourg #4 Siviriez": {"latitude": 46.6585092, "longitude": 6.877722, "race": "Groupe E Tour Fribourg #4 Siviriez", "date": {"mer. 19.09.2012": {"year": 2012, "day": 19, "month": 9, "categories": {"HS2": {"distance": 9, "rank": 44, "pace": 343000000000, "time": 3232.6}}, "weekday": "wednesday", "livingplace": "Estavayer le Lac"}}, "location": "Siviriez"}, "Groupe E Tour Fribourg #4, Siviriez": {"latitude": 46.6585092, "longitude": 6.877722, "race": "Groupe E Tour Fribourg #4, Siviriez", "date": {"mer. 10.09.2014": {"year": 2014, "day": 10, "month": 9, "categories": {"H-Sen2": {"distance": 11, "rank": 65, "pace": 399000000000, "time": 4315.9}}, "weekday": "wednesday", "livingplace": "Estavayer le Lac"}}, "location": "Siviriez"}, "Groupe E Tour Fribourg #3 Charmey": {"latitude": 46.97488999999999, "longitude": 7.1954365, "race": "Groupe E Tour Fribourg #3 Charmey", "date": {"mer. 04.09.2013": {"year": 2013, "day": 4, "month": 9, "categories": {"HS2": {"distance": 11, "rank": 69, "pace": 376000000000, "time": 4093.6}}, "weekday": "wednesday", "livingplace": "Estavayer le Lac"}}, "location": "Kerzers"}, "Groupe E Tour Fribourg #2, Charmey": {"latitude": 46.6175845, "longitude": 7.1654493, "race": "Groupe E Tour Fribourg #2, Charmey", "date": {"mer. 27.08.2014": {"year": 2014, "day": 27, "month": 8, "categories": {"H-Sen2": {"distance": 10, "rank": 69, "pace": 394000000000, "time": 3808.3}}, "weekday": "wednesday", "livingplace": "Estavayer le Lac"}}, "location": "Charmey (Gruy\u00e8re)"}, "Groupe E Tour Fribourg #5 Fribourg": {"latitude": 46.8128615, "longitude": 7.131657799999999, "race": "Groupe E Tour Fribourg #5 Fribourg", "date": {"mer. 18.09.2013": {"year": 2013, "day": 18, "month": 9, "categories": {"HS2": {"distance": 10, "rank": 64, "pace": 338000000000, "time": 3380.3}}, "weekday": "wednesday", "livingplace": "Estavayer le Lac"}}, "location": "Givisiez"}, "Lausanne Marathon": {"latitude": 46.5196535, "longitude": 6.6322734, "race": "Lausanne Marathon", "date": {"dim. 28.10.2012": {"year": 2012, "day": 28, "month": 10, "categories": {"21-H3": {"distance": 21, "rank": 694, "pace": 346000000000, "time": 7301.3}}, "weekday": "sunday", "livingplace": "Estavayer le Lac"}}, "location": "Lausanne"}, "Groupe E Tour Fribourg #1 Siviriez": {"latitude": 46.81832, "longitude": 6.977279999999999, "race": "Groupe E Tour Fribourg #1 Siviriez", "date": {"mer. 21.08.2013": {"year": 2013, "day": 21, "month": 8, "categories": {"HS2": {"distance": 10, "rank": 53, "pace": 360000000000, "time": 3536.1}}, "weekday": "wednesday", "livingplace": "Estavayer le Lac"}}, "location": "Cousset"}, "10km, Payerne": {"latitude": 46.8220266, "longitude": 6.9405663, "race": "10km, Payerne", "date": {"sam. 10.03.2012": {"year": 2012, "day": 10, "month": 3, "categories": {"M40": {"distance": 10, "rank": 103, "pace": 350000000000, "time": 3501.1}}, "weekday": "saturday", "livingplace": "Estavayer le Lac"}}, "location": "Payerne"}, "Groupe E Tour Fribourg #5, Givisiez": {"latitude": 46.8128615, "longitude": 7.131657799999999, "race": "Groupe E Tour Fribourg #5, Givisiez", "date": {"mer. 17.09.2014": {"year": 2014, "day": 17, "month": 9, "categories": {"H-Sen2": {"distance": 10, "rank": 81, "pace": 377000000000, "time": 3877.9}}, "weekday": "wednesday", "livingplace": "Estavayer le Lac"}}, "location": "Givisiez"}, "Groupe E Tour Fribourg #3, Kerzers": {"latitude": 46.97488999999999, "longitude": 7.1954365, "race": "Groupe E Tour Fribourg #3, Kerzers", "date": {"mer. 03.09.2014": {"year": 2014, "day": 3, "month": 9, "categories": {"H-Sen2": {"distance": 10, "rank": 81, "pace": 350000000000, "time": 3564.9}}, "weekday": "wednesday", "livingplace": "Estavayer le Lac"}}, "location": "Kerzers"}, "Kerzerslauf": {"latitude": 46.97488999999999, "longitude": 7.1954365, "race": "Kerzerslauf", "date": {"sam. 21.03.2015": {"year": 2015, "day": 21, "month": 3, "categories": {"15-M50": {"distance": 15, "rank": 468, "pace": 377000000000, "time": 5659.5}}, "weekday": "saturday", "livingplace": "Estavayer le Lac"}}, "location": "Kerzers"}}, "birth": 1965}