{"name": "Gonin Florence", "sex": "F", "races": {"Tour du Chablais #6 Monthey": {"latitude": 46.3190253, "longitude": 6.970566, "race": "Tour du Chablais #6 Monthey", "date": {"mer. 08.05.2013": {"year": 2013, "day": 8, "month": 5, "categories": {"F-F20": {"distance": 9, "rank": 48, "pace": 300000000000, "time": 2799.3}}, "weekday": "wednesday", "livingplace": "Chigny"}}, "location": "Aigle"}, "Morat-Fribourg": {"latitude": 46.92922110000001, "longitude": 7.120184, "race": "Morat-Fribourg", "date": {"sam. 01.10.2011": {"year": 2011, "day": 1, "month": 10, "categories": {"17-JunF": {"distance": 17, "rank": 6, "pace": 312000000000, "time": 5363.2}}, "weekday": "saturday", "livingplace": "Chigny"}, "sam. 04.10.2014": {"year": 2014, "day": 4, "month": 10, "categories": {"17-W20": {"distance": 17, "rank": 69, "pace": 304000000000, "time": 5234.3}}, "weekday": "saturday", "livingplace": "Chigny"}}, "location": "Murten"}, "Schweizer Frauenlauf Bern": {"latitude": 46.9479739, "longitude": 7.4474468, "race": "Schweizer Frauenlauf Bern", "date": {"dim. 10.06.2012": {"year": 2012, "day": 10, "month": 6, "categories": {"10-Jun": {"distance": 10, "rank": 11, "pace": 295000000000, "time": 2952.2}}, "weekday": "sunday", "livingplace": "Chigny"}}, "location": "Bern"}, "Tour du pays de Vaud #6 - St  Prex": {"latitude": 46.4829113, "longitude": 6.458343500000001, "race": "Tour du pays de Vaud #6 - St  Prex", "date": {"mer. 14.09.2011": {"year": 2011, "day": 14, "month": 9, "categories": {"D-Jun": {"distance": 9, "rank": 8, "pace": 308000000000, "time": 2651.8}}, "weekday": "wednesday", "livingplace": "Chigny"}}, "location": "St-Prex"}, "20km de Lausanne": {"latitude": 46.5196535, "longitude": 6.6322734, "race": "20km de Lausanne", "date": {"sam. 27.04.2013": {"year": 2013, "day": 27, "month": 4, "categories": {"10-F20": {"distance": 10, "rank": 28, "pace": 282000000000, "time": 2825.7}}, "weekday": "saturday", "livingplace": "Visilab Team Running"}, "sam. 25.04.2015": {"year": 2015, "day": 25, "month": 4, "categories": {"10-F20": {"distance": 10, "rank": 23, "pace": 269000000000, "time": 2693.0}}, "weekday": "saturday", "livingplace": "Visilab Running Team"}, "sam. 26.04.2014": {"year": 2014, "day": 26, "month": 4, "categories": {"10-F20": {"distance": 10, "rank": 241, "pace": 330000000000, "time": 3305.9}}, "weekday": "saturday", "livingplace": "Chigny"}}, "location": "Lausanne"}, "Z\u00fcrich Marathon, Teamrun und Cityrun": {"latitude": 47.3768866, "longitude": 8.541694, "race": "Z\u00fcrich Marathon, Teamrun und Cityrun", "date": {"dim. 19.04.2015": {"year": 2015, "day": 19, "month": 4, "categories": {"10-W20": {"distance": 10, "rank": 128, "pace": 323000000000, "time": 3168.5}}, "weekday": "sunday", "livingplace": "Chigny"}}, "location": "Z\u00fcrich"}, "Kerzerslauf": {"latitude": 46.97488999999999, "longitude": 7.1954365, "race": "Kerzerslauf", "date": {"sam. 21.03.2015": {"year": 2015, "day": 21, "month": 3, "categories": {"15-F20": {"distance": 15, "rank": 46, "pace": 276000000000, "time": 4143.9}}, "weekday": "saturday", "livingplace": "Chigny"}}, "location": "Kerzers"}, "Course de l'Escalade, Gen\u00e8ve": {"latitude": 46.2043907, "longitude": 6.1431577, "race": "Course de l'Escalade, Gen\u00e8ve", "date": {"sam. 01.12.2012": {"year": 2012, "day": 1, "month": 12, "categories": {"Duc-JunF": {"distance": 18, "rank": 2, "pace": 315000000000, "time": 5515.1}}, "weekday": "saturday", "livingplace": "Chigny"}}, "location": "Gen\u00e8ve"}}, "birth": 1993}