{"name": "Gossauer Laurent", "sex": "M", "races": {"BCN Tour Couvet": {"latitude": 47.0624261, "longitude": 6.9175754, "race": "BCN Tour Couvet", "date": {"mer. 02.05.2012": {"year": 2012, "day": 2, "month": 5, "categories": {"HE": {"distance": 11, "rank": 35, "pace": 265000000000, "time": 2956.3}}, "weekday": "wednesday", "livingplace": "Rochefort"}}, "location": "Ch\u00e9zard-St-Martin"}, "Course de l'Escalade, Gen\u00e8ve": {"latitude": 46.2043907, "longitude": 6.1431577, "race": "Course de l'Escalade, Gen\u00e8ve", "date": {"sam. 07.12.2002": {"year": 2002, "day": 7, "month": 12, "categories": {"HJun": {"distance": 7, "rank": 52, "pace": 255000000000, "time": 1849.7}}, "weekday": "saturday", "livingplace": "Boudry"}, "sam. 05.12.2009": {"year": 2009, "day": 5, "month": 12, "categories": {"Hommes1": {"distance": 7, "rank": 381, "pace": 274000000000, "time": 1992.3}}, "weekday": "saturday", "livingplace": "Neuchatel"}, "sam. 04.12.2010": {"year": 2010, "day": 4, "month": 12, "categories": {"H-H1": {"distance": 7, "rank": 347, "pace": 251000000000, "time": 1823.8}}, "weekday": "saturday", "livingplace": "Neuchatel"}, "sam. 01.12.2007": {"year": 2007, "day": 1, "month": 12, "categories": {"Hommes1": {"distance": 7, "rank": 117, "pace": 252000000000, "time": 1827.9}}, "weekday": "saturday", "livingplace": "Boudry"}, "sam. 01.12.2012": {"year": 2012, "day": 1, "month": 12, "categories": {"Esc-Hom1": {"distance": 7, "rank": 236, "pace": 264000000000, "time": 1918.5}}, "weekday": "saturday", "livingplace": "Rochefort"}, "sam. 02.12.2006": {"year": 2006, "day": 2, "month": 12, "categories": {"Hommes1": {"distance": 7, "rank": 212, "pace": 257000000000, "time": 1865.9}}, "weekday": "saturday", "livingplace": "Boudry"}, "sam. 06.12.2008": {"year": 2008, "day": 6, "month": 12, "categories": {"Hommes1": {"distance": 7, "rank": 317, "pace": 267000000000, "time": 1937.9}}, "weekday": "saturday", "livingplace": "Boudry"}, "sam. 03.12.2011": {"year": 2011, "day": 3, "month": 12, "categories": {"H-H1": {"distance": 7, "rank": 107, "pace": 247000000000, "time": 1792.5}}, "weekday": "saturday", "livingplace": "Neuchatel"}}, "location": "Gen\u00e8ve"}, "BCN Tour Les Ponts-de-Martel": {"latitude": 46.999113, "longitude": 6.733554799999999, "race": "BCN Tour Les Ponts-de-Martel", "date": {"mer. 09.05.2012": {"year": 2012, "day": 9, "month": 5, "categories": {"HE": {"distance": 10, "rank": 43, "pace": 263000000000, "time": 2717.7}}, "weekday": "wednesday", "livingplace": "Rochefort"}}, "location": "Les Ponts-de-Martel"}, "BCN Tour Fontaine Cernier": {"latitude": 47.0624261, "longitude": 6.9175754, "race": "BCN Tour Fontaine Cernier", "date": {"mer. 27.04.2011": {"year": 2011, "day": 27, "month": 4, "categories": {"HE": {"distance": 10, "rank": 88, "pace": 274000000000, "time": 2825.9}}, "weekday": "wednesday", "livingplace": "Neuchatel"}}, "location": "Ch\u00e9zard-St-Martin"}, "BCN Tour Le Landeron": {"latitude": 46.9668714, "longitude": 6.8589727, "race": "BCN Tour Le Landeron", "date": {"mer. 22.04.2009": {"year": 2009, "day": 22, "month": 4, "categories": {"HE": {"distance": 11, "rank": 68, "pace": 294000000000, "time": 3270.2}}, "weekday": "wednesday", "livingplace": "Petroplus refining Cressi"}}, "location": "Colombier NE"}, "BCN Tour Le Locle": {"latitude": 46.999113, "longitude": 6.733554799999999, "race": "BCN Tour Le Locle", "date": {"mer. 05.05.2010": {"year": 2010, "day": 5, "month": 5, "categories": {"HE": {"distance": 11, "rank": 44, "pace": 275000000000, "time": 2998.7}}, "weekday": "wednesday", "livingplace": "Neuchatel"}}, "location": "Les Ponts-de-Martel"}, "BCN Tour Ponts-de-Martel": {"latitude": 47.0624261, "longitude": 6.9175754, "race": "BCN Tour Ponts-de-Martel", "date": {"mer. 28.04.2010": {"year": 2010, "day": 28, "month": 4, "categories": {"HE": {"distance": 11, "rank": 56, "pace": 293000000000, "time": 3282.3}}, "weekday": "wednesday", "livingplace": "Neuchatel"}}, "location": "Ch\u00e9zard-St-Martin"}, "BCN Tour Auvernier": {"latitude": 46.9668714, "longitude": 6.8589727, "race": "BCN Tour Auvernier", "date": {"mer. 20.04.2011": {"year": 2011, "day": 20, "month": 4, "categories": {"HE": {"distance": 11, "rank": 86, "pace": 293000000000, "time": 3167.5}}, "weekday": "wednesday", "livingplace": "Neuchatel"}}, "location": "Colombier NE"}, "BCN Tour #4 Fleurier": {"latitude": 47.1034892, "longitude": 6.832783800000001, "race": "BCN Tour #4 Fleurier", "date": {"mer. 15.05.2013": {"year": 2013, "day": 15, "month": 5, "categories": {"HE": {"distance": 9, "rank": 92, "pace": 272000000000, "time": 2352.9}}, "weekday": "wednesday", "livingplace": "Rochefort"}}, "location": "La Chaux-de-Fonds"}, "BCN Tour Cornaux": {"latitude": 46.9668714, "longitude": 6.8589727, "race": "BCN Tour Cornaux", "date": {"mer. 25.04.2012": {"year": 2012, "day": 25, "month": 4, "categories": {"HE": {"distance": 11, "rank": 34, "pace": 285000000000, "time": 3144.4}}, "weekday": "wednesday", "livingplace": "Rochefort"}}, "location": "Colombier NE"}, "BCN Tour La Chaux-de-Fonds": {"latitude": 47.1034892, "longitude": 6.832783800000001, "race": "BCN Tour La Chaux-de-Fonds", "date": {"mer. 23.05.2012": {"year": 2012, "day": 23, "month": 5, "categories": {"HE": {"distance": 11, "rank": 35, "pace": 262000000000, "time": 2838.7}}, "weekday": "wednesday", "livingplace": "Rochefort"}, "mer. 11.05.2011": {"year": 2011, "day": 11, "month": 5, "categories": {"HE": {"distance": 11, "rank": 80, "pace": 328000000000, "time": 3518.1}}, "weekday": "wednesday", "livingplace": "Neuchatel"}}, "location": "La Chaux-de-Fonds"}, "BCN Tour La Br\u00e9vine": {"latitude": 46.999113, "longitude": 6.733554799999999, "race": "BCN Tour La Br\u00e9vine", "date": {"mer. 04.05.2011": {"year": 2011, "day": 4, "month": 5, "categories": {"HE": {"distance": 10, "rank": 86, "pace": 291000000000, "time": 2918.1}}, "weekday": "wednesday", "livingplace": "Neuchatel"}}, "location": "Les Ponts-de-Martel"}, "BCN Tour Neuch\u00e2tel": {"latitude": 46.9899874, "longitude": 6.9292732, "race": "BCN Tour Neuch\u00e2tel", "date": {"mer. 26.05.2010": {"year": 2010, "day": 26, "month": 5, "categories": {"HE": {"distance": 10, "rank": 54, "pace": 285000000000, "time": 2771.6}}, "weekday": "wednesday", "livingplace": "Neuchatel"}, "mer. 30.05.2012": {"year": 2012, "day": 30, "month": 5, "categories": {"HE": {"distance": 11, "rank": 45, "pace": 274000000000, "time": 3070.7}}, "weekday": "wednesday", "livingplace": "Rochefort"}, "mer. 25.05.2011": {"year": 2011, "day": 25, "month": 5, "categories": {"HE": {"distance": 11, "rank": 87, "pace": 290000000000, "time": 3314.8}}, "weekday": "wednesday", "livingplace": "Neuchatel"}}, "location": "Neuch\u00e2tel"}, "BCN Tour Les Ponts de Martel": {"latitude": 46.9262933, "longitude": 6.6324944, "race": "BCN Tour Les Ponts de Martel", "date": {"mer. 18.05.2011": {"year": 2011, "day": 18, "month": 5, "categories": {"HE": {"distance": 13, "rank": 67, "pace": 286000000000, "time": 3663.1}}, "weekday": "wednesday", "livingplace": "Neuchatel"}}, "location": "Couvet"}, "BCN Tour M\u00f4tier": {"latitude": 46.9262933, "longitude": 6.6324944, "race": "BCN Tour M\u00f4tier", "date": {"mer. 19.05.2010": {"year": 2010, "day": 19, "month": 5, "categories": {"HE": {"distance": 10, "rank": 36, "pace": 259000000000, "time": 2570.1}}, "weekday": "wednesday", "livingplace": "Neuchatel"}}, "location": "Couvet"}, "BCN Tour Boudry": {"latitude": 46.9668714, "longitude": 6.8589727, "race": "BCN Tour Boudry", "date": {"mer. 26.04.2006": {"year": 2006, "day": 26, "month": 4, "categories": {"HE": {"distance": 10, "rank": 40, "pace": 269000000000, "time": 2749.7}}, "weekday": "wednesday", "livingplace": "Boudry"}}, "location": "Colombier NE"}, "BCN Tour #2 La Chaux-de-Fonds": {"latitude": 47.0624261, "longitude": 6.9175754, "race": "BCN Tour #2 La Chaux-de-Fonds", "date": {"mer. 01.05.2013": {"year": 2013, "day": 1, "month": 5, "categories": {"HE": {"distance": 11, "rank": 129, "pace": 278000000000, "time": 2977.5}}, "weekday": "wednesday", "livingplace": "Rochefort"}}, "location": "Ch\u00e9zard-St-Martin"}, "BCN Tour La Chaux-de-fonds": {"latitude": 47.1034892, "longitude": 6.832783800000001, "race": "BCN Tour La Chaux-de-fonds", "date": {"mer. 12.05.2010": {"year": 2010, "day": 12, "month": 5, "categories": {"HE": {"distance": 11, "rank": 60, "pace": 342000000000, "time": 3661.1}}, "weekday": "wednesday", "livingplace": "Neuchatel"}}, "location": "La Chaux-de-Fonds"}, "BCN Tour Colombier": {"latitude": 46.9668714, "longitude": 6.8589727, "race": "BCN Tour Colombier", "date": {"mer. 16.05.2012": {"year": 2012, "day": 16, "month": 5, "categories": {"HE": {"distance": 11, "rank": 46, "pace": 262000000000, "time": 2831.2}}, "weekday": "wednesday", "livingplace": "Rochefort"}, "mer. 23.04.2008": {"year": 2008, "day": 23, "month": 4, "categories": {"HE": {"distance": 10, "rank": 57, "pace": 299000000000, "time": 3059.5}}, "weekday": "wednesday", "livingplace": "Boudry"}, "mer. 21.04.2010": {"year": 2010, "day": 21, "month": 4, "categories": {"HE": {"distance": 10, "rank": 67, "pace": 313000000000, "time": 3136.8}}, "weekday": "wednesday", "livingplace": "Neuchatel"}}, "location": "Colombier NE"}, "BCN Tour #3 Dombresson": {"latitude": 46.999113, "longitude": 6.733554799999999, "race": "BCN Tour #3 Dombresson", "date": {"mer. 08.05.2013": {"year": 2013, "day": 8, "month": 5, "categories": {"HE": {"distance": 10, "rank": 115, "pace": 272000000000, "time": 2698.0}}, "weekday": "wednesday", "livingplace": "Rochefort"}}, "location": "Les Ponts-de-Martel"}}, "birth": 1985}