{"name": "Gossweiler Fabien", "sex": "M", "races": {"Tour du Pays de Vaud printanier #2 Yverdon-les-Bains": {"latitude": 46.6698891, "longitude": 6.7975224, "race": "Tour du Pays de Vaud printanier #2 Yverdon-les-Bains", "date": {"mer. 11.06.2014": {"year": 2014, "day": 11, "month": 6, "categories": {"H-Sen1": {"distance": 9, "rank": 40, "pace": 297000000000, "time": 2705.4}}, "weekday": "wednesday", "livingplace": "Daillens"}, "mer. 05.06.2013": {"year": 2013, "day": 5, "month": 6, "categories": {"H-Sen1": {"distance": 9, "rank": 50, "pace": 297000000000, "time": 2708.3}}, "weekday": "wednesday", "livingplace": "Daillens"}}, "location": "Moudon"}, "Morat-Fribourg": {"latitude": 46.92922110000001, "longitude": 7.120184, "race": "Morat-Fribourg", "date": {"sam. 05.10.2013": {"year": 2013, "day": 5, "month": 10, "categories": {"17-M20": {"distance": 17, "rank": 468, "pace": 268000000000, "time": 4686.1}}, "weekday": "saturday", "livingplace": "Daillens"}, "sam. 06.10.2012": {"year": 2012, "day": 6, "month": 10, "categories": {"17-M20": {"distance": 17, "rank": 1096, "pace": 306000000000, "time": 5344.9}}, "weekday": "saturday", "livingplace": "Daillens"}, "sam. 06.10.2007": {"year": 2007, "day": 6, "month": 10, "categories": {"C/M20": {"distance": 17, "rank": 211, "pace": 254000000000, "time": 4364.7}}, "weekday": "saturday", "livingplace": "Bremblens"}, "sam. 04.10.2014": {"year": 2014, "day": 4, "month": 10, "categories": {"17-M20": {"distance": 17, "rank": 643, "pace": 284000000000, "time": 4888.6}}, "weekday": "saturday", "livingplace": "Daillens"}}, "location": "Murten"}, "Tour du Pays de Vaud #3 - Mezi\u00e8res": {"latitude": 46.7784736, "longitude": 6.641183, "race": "Tour du Pays de Vaud #3 - Mezi\u00e8res", "date": {"mer. 22.08.2012": {"year": 2012, "day": 22, "month": 8, "categories": {"H-Sen1": {"distance": 8, "rank": 46, "pace": 290000000000, "time": 2440.5}}, "weekday": "wednesday", "livingplace": "Daillens"}}, "location": "Yverdon-les-Bains"}, "20km de Lausanne": {"latitude": 46.5196535, "longitude": 6.6322734, "race": "20km de Lausanne", "date": {"sam. 23.04.2005": {"year": 2005, "day": 23, "month": 4, "categories": {"11": {"distance": 20, "rank": 234, "pace": 266000000000, "time": 5332.7}}, "weekday": "saturday", "livingplace": "Echandens"}, "sam. 26.04.2014": {"year": 2014, "day": 26, "month": 4, "categories": {"20-H30": {"distance": 20, "rank": 242, "pace": 275000000000, "time": 5508.9}}, "weekday": "saturday", "livingplace": "Daillens"}}, "location": "Lausanne"}, "Tour du Pays de Vaud #3 - Chavornay": {"latitude": 46.7784736, "longitude": 6.641183, "race": "Tour du Pays de Vaud #3 - Chavornay", "date": {"mer. 28.08.2013": {"year": 2013, "day": 28, "month": 8, "categories": {"H-Sen1": {"distance": 9, "rank": 35, "pace": 250000000000, "time": 2233.0}}, "weekday": "wednesday", "livingplace": "Daillens"}}, "location": "Yverdon-les-Bains"}, "Tour du Pays de Vaud printanier #3 - Yens": {"latitude": 46.7829756, "longitude": 6.5728678, "race": "Tour du Pays de Vaud printanier #3 - Yens", "date": {"mer. 12.06.2013": {"year": 2013, "day": 12, "month": 6, "categories": {"H-Sen1": {"distance": 9, "rank": 44, "pace": 288000000000, "time": 2625.8}}, "weekday": "wednesday", "livingplace": "Daillens"}, "mer. 18.06.2014": {"year": 2014, "day": 18, "month": 6, "categories": {"H-Sen1": {"distance": 9, "rank": 37, "pace": 263000000000, "time": 2399.1}}, "weekday": "wednesday", "livingplace": "Daillens"}}, "location": "Champvent"}, "Tour du Pays de Vaud #2 - Mezi\u00e8res": {"latitude": 46.5955273, "longitude": 6.7702883, "race": "Tour du Pays de Vaud #2 - Mezi\u00e8res", "date": {"mer. 21.08.2013": {"year": 2013, "day": 21, "month": 8, "categories": {"H-Sen1": {"distance": 8, "rank": 25, "pace": 267000000000, "time": 2168.7}}, "weekday": "wednesday", "livingplace": "Daillens"}}, "location": "M\u00e9zi\u00e8res VD"}, "Tour du Pays de Vaud printanier #1 Moudon": {"latitude": 46.3832683, "longitude": 6.2347852, "race": "Tour du Pays de Vaud printanier #1 Moudon", "date": {"mer. 04.06.2014": {"year": 2014, "day": 4, "month": 6, "categories": {"H-Sen1": {"distance": 8, "rank": 50, "pace": 278000000000, "time": 2340.3}}, "weekday": "wednesday", "livingplace": "Daillens"}}, "location": "Nyon"}, "Lausanne Marathon": {"latitude": 46.5196535, "longitude": 6.6322734, "race": "Lausanne Marathon", "date": {"dim. 27.10.2013": {"year": 2013, "day": 27, "month": 10, "categories": {"42-H2": {"distance": 42, "rank": 205, "pace": 338000000000, "time": 14275.6}}, "weekday": "sunday", "livingplace": "Daillens"}, "dim. 26.10.2014": {"year": 2014, "day": 26, "month": 10, "categories": {"21-H30": {"distance": 21, "rank": 187, "pace": 275000000000, "time": 5805.2}}, "weekday": "sunday", "livingplace": "Daillens"}, "dim. 28.10.2012": {"year": 2012, "day": 28, "month": 10, "categories": {"21-H2": {"distance": 21, "rank": 326, "pace": 290000000000, "time": 6139.9}}, "weekday": "sunday", "livingplace": "Daillens"}}, "location": "Lausanne"}, "Tour du Pays de Vaud #4 - La Sarraz": {"latitude": 46.7088129, "longitude": 6.5707689, "race": "Tour du Pays de Vaud #4 - La Sarraz", "date": {"mer. 29.08.2012": {"year": 2012, "day": 29, "month": 8, "categories": {"H-Sen1": {"distance": 9, "rank": 58, "pace": 266000000000, "time": 2268.5}}, "weekday": "wednesday", "livingplace": "Daillens"}, "mer. 04.09.2013": {"year": 2013, "day": 4, "month": 9, "categories": {"H-Sen1": {"distance": 9, "rank": 34, "pace": 258000000000, "time": 2201.0}}, "weekday": "wednesday", "livingplace": "Daillens"}}, "location": "Chavornay"}, "Tour du Pays de Vaud etape 3 - Aubonne": {"latitude": 46.7829756, "longitude": 6.5728678, "race": "Tour du Pays de Vaud etape 3 - Aubonne", "date": {"mer. 29.08.2007": {"year": 2007, "day": 29, "month": 8, "categories": {"HS1": {"distance": 8, "rank": 13, "pace": 252000000000, "time": 2047.8}}, "weekday": "wednesday", "livingplace": "Echandens Denges"}}, "location": "Champvent"}, "Semi-Marathon de la C\u00f4te, Allaman-Nyon": {"latitude": 46.3832683, "longitude": 6.2347852, "race": "Semi-Marathon de la C\u00f4te, Allaman-Nyon", "date": {"dim. 14.09.2014": {"year": 2014, "day": 14, "month": 9, "categories": {"21-H30": {"distance": 21, "rank": 53, "pace": 267000000000, "time": 5636.2}}, "weekday": "sunday", "livingplace": "Daillens"}}, "location": "Nyon"}, "Sierre-Zinal, Sierre": {"latitude": 46.29413110000001, "longitude": 7.533536199999999, "race": "Sierre-Zinal, Sierre", "date": {"dim. 11.08.2013": {"year": 2013, "day": 11, "month": 8, "categories": {"Elites": {"distance": 31, "rank": 325, "pace": 531000000000, "time": 16461.4}}, "weekday": "sunday", "livingplace": "Daillens"}}, "location": "Sierre"}, "Tour du pays de Vaud #1 - Penthaz": {"latitude": 46.5993131, "longitude": 6.539251200000001, "race": "Tour du pays de Vaud #1 - Penthaz", "date": {"mer. 14.08.2013": {"year": 2013, "day": 14, "month": 8, "categories": {"H-Sen1": {"distance": 9, "rank": 31, "pace": 246000000000, "time": 2105.0}}, "weekday": "wednesday", "livingplace": "Daillens"}, "mer. 08.08.2012": {"year": 2012, "day": 8, "month": 8, "categories": {"H-Sen1": {"distance": 9, "rank": 51, "pace": 272000000000, "time": 2324.6}}, "weekday": "wednesday", "livingplace": "Daillens"}}, "location": "Penthaz"}, "Tour du Pays de Vaud #4, La Sarraz": {"latitude": 46.7088129, "longitude": 6.5707689, "race": "Tour du Pays de Vaud #4, La Sarraz", "date": {"mer. 03.09.2014": {"year": 2014, "day": 3, "month": 9, "categories": {"H-Sen1": {"distance": 9, "rank": 45, "pace": 256000000000, "time": 2178.0}}, "weekday": "wednesday", "livingplace": "Daillens"}}, "location": "Chavornay"}, "Tour du Pays de Vaud #3, Chavornay": {"latitude": 46.7784736, "longitude": 6.641183, "race": "Tour du Pays de Vaud #3, Chavornay", "date": {"mer. 27.08.2014": {"year": 2014, "day": 27, "month": 8, "categories": {"H-Sen1": {"distance": 9, "rank": 37, "pace": 264000000000, "time": 2276.5}}, "weekday": "wednesday", "livingplace": "Daillens"}}, "location": "Yverdon-les-Bains"}, "Tour du Pays de Vaud #2 - Genolier": {"latitude": 46.5955273, "longitude": 6.7702883, "race": "Tour du Pays de Vaud #2 - Genolier", "date": {"mer. 15.08.2012": {"year": 2012, "day": 15, "month": 8, "categories": {"H-Sen1": {"distance": 9, "rank": 57, "pace": 270000000000, "time": 2296.0}}, "weekday": "wednesday", "livingplace": "Daillens"}}, "location": "M\u00e9zi\u00e8res VD"}, "Tour du Pays de Vaud #1, Penthaz": {"latitude": 46.5993131, "longitude": 6.539251200000001, "race": "Tour du Pays de Vaud #1, Penthaz", "date": {"mer. 13.08.2014": {"year": 2014, "day": 13, "month": 8, "categories": {"H-Sen1": {"distance": 9, "rank": 36, "pace": 249000000000, "time": 2128.7}}, "weekday": "wednesday", "livingplace": "Daillens"}}, "location": "Penthaz"}, "Tour du Pays de Vaud #2, Mezi\u00e8res": {"latitude": 46.5955273, "longitude": 6.7702883, "race": "Tour du Pays de Vaud #2, Mezi\u00e8res", "date": {"mer. 20.08.2014": {"year": 2014, "day": 20, "month": 8, "categories": {"H-Sen1": {"distance": 8, "rank": 32, "pace": 273000000000, "time": 2217.2}}, "weekday": "wednesday", "livingplace": "Daillens"}}, "location": "M\u00e9zi\u00e8res VD"}, "Tour du Pays de Vaud etape 1 - Le Mont sur Lausanne": {"latitude": 46.7784736, "longitude": 6.641183, "race": "Tour du Pays de Vaud etape 1 - Le Mont sur Lausanne", "date": {"mer. 15.08.2007": {"year": 2007, "day": 15, "month": 8, "categories": {"HS1": {"distance": 8, "rank": 20, "pace": 254000000000, "time": 2112.9}}, "weekday": "wednesday", "livingplace": "Echandens Denges"}}, "location": "Yverdon-les-Bains"}, "Montreux - Les Rochers de Naye": {"latitude": 46.4312213, "longitude": 6.9106799, "race": "Montreux - Les Rochers de Naye", "date": {"dim. 06.07.2014": {"year": 2014, "day": 6, "month": 7, "categories": {"M-HElite": {"distance": 19, "rank": 186, "pace": 502000000000, "time": 9443.8}}, "weekday": "sunday", "livingplace": "Daillens"}, "dim. 30.06.2002": {"year": 2002, "day": 30, "month": 6, "categories": {"Se": {"distance": 20, "rank": 106, "pace": 518000000000, "time": 10525.1}}, "weekday": "sunday", "livingplace": "Bremblens"}, "dim. 26.06.2005": {"year": 2005, "day": 26, "month": 6, "categories": {"Sen": {"distance": 19, "rank": 70, "pace": 473000000000, "time": 8897.8}}, "weekday": "sunday", "livingplace": "Bremblens"}}, "location": "Montreux"}, "Les Traine-Savates, Cheseaux-sur-Lausanne": {"latitude": 46.585452, "longitude": 6.6047712, "race": "Les Traine-Savates, Cheseaux-sur-Lausanne", "date": {"sam. 13.04.2013": {"year": 2013, "day": 13, "month": 4, "categories": {"10-M20": {"distance": 10, "rank": 147, "pace": 284000000000, "time": 2930.5}}, "weekday": "saturday", "livingplace": "Daillens"}, "sam. 12.04.2014": {"year": 2014, "day": 12, "month": 4, "categories": {"10-M20": {"distance": 10, "rank": 78, "pace": 261000000000, "time": 2696.6}}, "weekday": "saturday", "livingplace": "Daillens"}}, "location": "Cheseaux-sur-Lausanne"}}, "birth": 1977}