{"name": "Gosteli Estelle", "sex": "F", "races": {"Tour du Pays de Vaud printanier #2 Yverdon-les-Bains": {"latitude": 46.6698891, "longitude": 6.7975224, "race": "Tour du Pays de Vaud printanier #2 Yverdon-les-Bains", "date": {"mer. 11.06.2014": {"year": 2014, "day": 11, "month": 6, "categories": {"D-Sen1": {"distance": 9, "rank": 48, "pace": 426000000000, "time": 3880.8}}, "weekday": "wednesday", "livingplace": "Echallens"}}, "location": "Moudon"}, "Tour du pays de Vaud #1 - Penthaz": {"latitude": 46.5993131, "longitude": 6.539251200000001, "race": "Tour du pays de Vaud #1 - Penthaz", "date": {"mer. 14.08.2013": {"year": 2013, "day": 14, "month": 8, "categories": {"D-Sen1": {"distance": 9, "rank": 91, "pace": 416000000000, "time": 3552.2}}, "weekday": "wednesday", "livingplace": "Echallens"}}, "location": "Penthaz"}, "Tour du Pays de Vaud printanier #1 Moudon": {"latitude": 46.3832683, "longitude": 6.2347852, "race": "Tour du Pays de Vaud printanier #1 Moudon", "date": {"mer. 04.06.2014": {"year": 2014, "day": 4, "month": 6, "categories": {"D-Sen1": {"distance": 8, "rank": 38, "pace": 408000000000, "time": 3429.0}}, "weekday": "wednesday", "livingplace": "Echallens"}}, "location": "Nyon"}, "20km de Lausanne": {"latitude": 46.5196535, "longitude": 6.6322734, "race": "20km de Lausanne", "date": {"sam. 26.04.2014": {"year": 2014, "day": 26, "month": 4, "categories": {"10-F30": {"distance": 10, "rank": 820, "pace": 425000000000, "time": 4258.0}}, "weekday": "saturday", "livingplace": "Echallens"}}, "location": "Lausanne"}, "Tour du Pays de Vaud #3 - Chavornay": {"latitude": 46.7784736, "longitude": 6.641183, "race": "Tour du Pays de Vaud #3 - Chavornay", "date": {"mer. 28.08.2013": {"year": 2013, "day": 28, "month": 8, "categories": {"D-Sen1": {"distance": 9, "rank": 88, "pace": 397000000000, "time": 3535.5}}, "weekday": "wednesday", "livingplace": "Echallens"}}, "location": "Yverdon-les-Bains"}}, "birth": 1982}