{"name": "Goto Fumihiko", "sex": "M", "races": {"Lausanne Marathon": {"latitude": 46.5196535, "longitude": 6.6322734, "race": "Lausanne Marathon", "date": {"dim. 31.10.2010": {"year": 2010, "day": 31, "month": 10, "categories": {"21-H2": {"distance": 21, "rank": 295, "pace": 282000000000, "time": 5960.8}}, "weekday": "sunday", "livingplace": "Geneve"}}, "location": "Lausanne"}, "Morat-Fribourg": {"latitude": 46.92922110000001, "longitude": 7.120184, "race": "Morat-Fribourg", "date": {"sam. 03.10.2009": {"year": 2009, "day": 3, "month": 10, "categories": {"C-M20": {"distance": 17, "rank": 1340, "pace": 321000000000, "time": 5520.9}}, "weekday": "saturday", "livingplace": "Geneva"}}, "location": "Murten"}, "Montreux - Les Rochers de Naye": {"latitude": 46.4312213, "longitude": 6.9106799, "race": "Montreux - Les Rochers de Naye", "date": {"dim. 11.07.2010": {"year": 2010, "day": 11, "month": 7, "categories": {"M-V\u00e9t1": {"distance": 19, "rank": 188, "pace": 555000000000, "time": 10441.5}}, "weekday": "sunday", "livingplace": "Geneve"}}, "location": "Montreux"}, "20km de Lausanne": {"latitude": 46.5196535, "longitude": 6.6322734, "race": "20km de Lausanne", "date": {"sam. 25.04.2009": {"year": 2009, "day": 25, "month": 4, "categories": {"20-H30": {"distance": 20, "rank": 491, "pace": 314000000000, "time": 6289.4}}, "weekday": "saturday", "livingplace": "Geneva"}}, "location": "Lausanne"}, "Kerzerslauf": {"latitude": 46.97488999999999, "longitude": 7.1954365, "race": "Kerzerslauf", "date": {"sam. 19.03.2011": {"year": 2011, "day": 19, "month": 3, "categories": {"15-M35": {"distance": 15, "rank": 214, "pace": 286000000000, "time": 4291.9}}, "weekday": "saturday", "livingplace": "Geneve"}}, "location": "Kerzers"}, "Z\u00fcrich Marathon, Teamrun und Cityrun": {"latitude": 47.3768866, "longitude": 8.541694, "race": "Z\u00fcrich Marathon, Teamrun und Cityrun", "date": {"dim. 17.04.2011": {"year": 2011, "day": 17, "month": 4, "categories": {"42-M30": {"distance": 42, "rank": 255, "pace": 296000000000, "time": 12504.1}}, "weekday": "sunday", "livingplace": "Geneve"}}, "location": "Z\u00fcrich"}}, "birth": 1972}