{"name": "Graf Felix", "sex": "M", "races": {"Schlosslauf Rapperswil-Jona": {"latitude": 47.2266239, "longitude": 8.818437399999999, "race": "Schlosslauf Rapperswil-Jona", "date": {"dim. 07.10.2007": {"year": 2007, "day": 7, "month": 10, "categories": {"M2": {"distance": 9, "rank": 53, "pace": 311000000000, "time": 2813.4}}, "weekday": "sunday", "livingplace": "Monchaltorf"}}, "location": "Rapperswil SG"}, "Lucerne Marathon, Luzern": {"latitude": 47.05016819999999, "longitude": 8.3093072, "race": "Lucerne Marathon, Luzern", "date": {"dim. 25.10.2009": {"year": 2009, "day": 25, "month": 10, "categories": {"M-M30": {"distance": 42, "rank": 179, "pace": 295000000000, "time": 12452.2}}, "weekday": "sunday", "livingplace": "Monchaltorf"}}, "location": "Luzern"}, "Winterthur Marathon": {"latitude": 39.8088766, "longitude": -75.6037351, "race": "Winterthur Marathon", "date": {"dim. 16.05.2010": {"year": 2010, "day": 16, "month": 5, "categories": {"MM30": {"distance": 42, "rank": 18, "pace": 283000000000, "time": 11980.3}}, "weekday": "sunday", "livingplace": "Monchaltorf"}}, "location": "Winterthur"}, "Z\u00fcrcher Silvesterlauf, Z\u00fcrich": {"latitude": 47.3768866, "longitude": 8.541694, "race": "Z\u00fcrcher Silvesterlauf, Z\u00fcrich", "date": {"dim. 13.12.2009": {"year": 2009, "day": 13, "month": 12, "categories": {"8-MenAK1": {"distance": 9, "rank": 284, "pace": 260000000000, "time": 2238.3}}, "weekday": "sunday", "livingplace": "Monchaltorf"}}, "location": "Z\u00fcrich"}, "Int Greifenseelauf, Uster": {"latitude": 47.3482747, "longitude": 8.717873899999999, "race": "Int Greifenseelauf, Uster", "date": {"sam. 22.09.2007": {"year": 2007, "day": 22, "month": 9, "categories": {"H/M35": {"distance": 21, "rank": 588, "pace": 320000000000, "time": 6757.1}}, "weekday": "saturday", "livingplace": "Monchaltorf"}, "sam. 20.09.2003": {"year": 2003, "day": 20, "month": 9, "categories": {"K/M30": {"distance": 6, "rank": 42, "pace": 320000000000, "time": 1989.0}}, "weekday": "saturday", "livingplace": "Oetwil am See"}, "sam. 18.09.2004": {"year": 2004, "day": 18, "month": 9, "categories": {"K/M30": {"distance": 6, "rank": 63, "pace": 333000000000, "time": 2067.0}}, "weekday": "saturday", "livingplace": "Oetwil am See"}, "sam. 19.09.2009": {"year": 2009, "day": 19, "month": 9, "categories": {"H-M35": {"distance": 21, "rank": 231, "pace": 286000000000, "time": 6052.8}}, "weekday": "saturday", "livingplace": "Monchaltorf"}}, "location": "Uster"}}, "birth": 1971}