{"name": "Grandjean David", "sex": "M", "races": {"Grand Prix Craft, Neuch\u00e2tel": {"latitude": 46.9899874, "longitude": 6.9292732, "race": "Grand Prix Craft, Neuch\u00e2tel", "date": {"dim. 17.12.2006": {"year": 2006, "day": 17, "month": 12, "categories": {"HE": {"distance": 7, "rank": 52, "pace": 299000000000, "time": 2098.6}}, "weekday": "sunday", "livingplace": "Enges"}}, "location": "Neuch\u00e2tel"}, "BCN Tour #1 Corcelles": {"latitude": 46.9668714, "longitude": 6.8589727, "race": "BCN Tour #1 Corcelles", "date": {"mer. 24.04.2013": {"year": 2013, "day": 24, "month": 4, "categories": {"HS1": {"distance": 10, "rank": 267, "pace": 350000000000, "time": 3430.4}}, "weekday": "wednesday", "livingplace": "Bevaix"}}, "location": "Colombier NE"}, "Morat-Fribourg": {"latitude": 46.92922110000001, "longitude": 7.120184, "race": "Morat-Fribourg", "date": {"sam. 03.10.2009": {"year": 2009, "day": 3, "month": 10, "categories": {"C-M20": {"distance": 17, "rank": 1643, "pace": 343000000000, "time": 5906.3}}, "weekday": "saturday", "livingplace": "Cernier"}, "sam. 04.10.2008": {"year": 2008, "day": 4, "month": 10, "categories": {"C-M20": {"distance": 17, "rank": 1599, "pace": 348000000000, "time": 5990.6}}, "weekday": "saturday", "livingplace": "Cernier"}, "sam. 02.10.2010": {"year": 2010, "day": 2, "month": 10, "categories": {"17-M20": {"distance": 17, "rank": 1578, "pace": 347000000000, "time": 5960.0}}, "weekday": "saturday", "livingplace": "Bevaix"}}, "location": "Murten"}, "BCN Tour Fontaine Cernier": {"latitude": 47.0624261, "longitude": 6.9175754, "race": "BCN Tour Fontaine Cernier", "date": {"mer. 27.04.2011": {"year": 2011, "day": 27, "month": 4, "categories": {"HS1": {"distance": 10, "rank": 151, "pace": 294000000000, "time": 3035.0}}, "weekday": "wednesday", "livingplace": "Bevaix"}}, "location": "Ch\u00e9zard-St-Martin"}, "BCN Tour Le Landeron": {"latitude": 46.9668714, "longitude": 6.8589727, "race": "BCN Tour Le Landeron", "date": {"mer. 22.04.2009": {"year": 2009, "day": 22, "month": 4, "categories": {"HS1": {"distance": 11, "rank": 166, "pace": 331000000000, "time": 3681.2}}, "weekday": "wednesday", "livingplace": "Cernier"}}, "location": "Colombier NE"}, "BCN Tour Le Locle": {"latitude": 46.999113, "longitude": 6.733554799999999, "race": "BCN Tour Le Locle", "date": {"mer. 05.05.2010": {"year": 2010, "day": 5, "month": 5, "categories": {"HS1": {"distance": 11, "rank": 149, "pace": 315000000000, "time": 3444.0}}, "weekday": "wednesday", "livingplace": "Cernier"}}, "location": "Les Ponts-de-Martel"}, "BCN Tour Neuch\u00e2tel": {"latitude": 46.9899874, "longitude": 6.9292732, "race": "BCN Tour Neuch\u00e2tel", "date": {"mer. 25.05.2011": {"year": 2011, "day": 25, "month": 5, "categories": {"HS1": {"distance": 11, "rank": 210, "pace": 343000000000, "time": 3912.5}}, "weekday": "wednesday", "livingplace": "Bevaix"}}, "location": "Neuch\u00e2tel"}, "BCN Tour Auvernier": {"latitude": 46.9668714, "longitude": 6.8589727, "race": "BCN Tour Auvernier", "date": {"mer. 20.04.2011": {"year": 2011, "day": 20, "month": 4, "categories": {"HS1": {"distance": 11, "rank": 138, "pace": 316000000000, "time": 3421.7}}, "weekday": "wednesday", "livingplace": "Bevaix"}}, "location": "Colombier NE"}, "Z\u00fcrcher Silvesterlauf, Z\u00fcrich": {"latitude": 47.3768866, "longitude": 8.541694, "race": "Z\u00fcrcher Silvesterlauf, Z\u00fcrich", "date": {"dim. 14.12.2008": {"year": 2008, "day": 14, "month": 12, "categories": {"MenHK-8": {"distance": 9, "rank": 464, "pace": 303000000000, "time": 2610.1}}, "weekday": "sunday", "livingplace": "Cernier"}, "dim. 16.12.2007": {"year": 2007, "day": 16, "month": 12, "categories": {"MenHK-8": {"distance": 9, "rank": 461, "pace": 301000000000, "time": 2590.6}}, "weekday": "sunday", "livingplace": "Cernier"}}, "location": "Z\u00fcrich"}, "D\u00e9fi Val-de-Travers, Couvet": {"latitude": 46.9262933, "longitude": 6.6324944, "race": "D\u00e9fi Val-de-Travers, Couvet", "date": {"sam. 21.06.2008": {"year": 2008, "day": 21, "month": 6, "categories": {"EH": {"distance": 12, "rank": 12, "pace": 408000000000, "time": 4980.2}}, "weekday": "saturday", "livingplace": "Cernier"}, "sam. 20.06.2009": {"year": 2009, "day": 20, "month": 6, "categories": {"EH": {"distance": 12, "rank": 8, "pace": 370000000000, "time": 4515.2}}, "weekday": "saturday", "livingplace": "Cernier"}}, "location": "Couvet"}, "BCN Tour Ponts-de-Martel": {"latitude": 47.0624261, "longitude": 6.9175754, "race": "BCN Tour Ponts-de-Martel", "date": {"mer. 28.04.2010": {"year": 2010, "day": 28, "month": 4, "categories": {"HS1": {"distance": 11, "rank": 144, "pace": 326000000000, "time": 3655.4}}, "weekday": "wednesday", "livingplace": "Cernier"}}, "location": "Ch\u00e9zard-St-Martin"}, "BCN Tour M\u00f4tier": {"latitude": 46.9262933, "longitude": 6.6324944, "race": "BCN Tour M\u00f4tier", "date": {"mer. 19.05.2010": {"year": 2010, "day": 19, "month": 5, "categories": {"HS1": {"distance": 10, "rank": 142, "pace": 295000000000, "time": 2923.0}}, "weekday": "wednesday", "livingplace": "Cernier"}}, "location": "Couvet"}, "BCN Tour La Chaux-de-fonds": {"latitude": 47.1034892, "longitude": 6.832783800000001, "race": "BCN Tour La Chaux-de-fonds", "date": {"mer. 12.05.2010": {"year": 2010, "day": 12, "month": 5, "categories": {"HS1": {"distance": 11, "rank": 150, "pace": 385000000000, "time": 4130.1}}, "weekday": "wednesday", "livingplace": "Cernier"}}, "location": "La Chaux-de-Fonds"}, "BCN Tour Colombier": {"latitude": 46.9668714, "longitude": 6.8589727, "race": "BCN Tour Colombier", "date": {"mer. 23.04.2008": {"year": 2008, "day": 23, "month": 4, "categories": {"HE": {"distance": 10, "rank": 103, "pace": 366000000000, "time": 3734.3}}, "weekday": "wednesday", "livingplace": "Cernier"}, "mer. 21.04.2010": {"year": 2010, "day": 21, "month": 4, "categories": {"HS1": {"distance": 10, "rank": 144, "pace": 344000000000, "time": 3445.5}}, "weekday": "wednesday", "livingplace": "Cernier"}}, "location": "Colombier NE"}}, "birth": 1979}