{"name": "Granger Olivier", "sex": "M", "races": {"Tour du Chablais #1 Roche": {"latitude": 46.2957462, "longitude": 6.9916269, "race": "Tour du Chablais #1 Roche", "date": {"mer. 07.04.2010": {"year": 2010, "day": 7, "month": 4, "categories": {"M-M40": {"distance": 9, "rank": 145, "pace": 307000000000, "time": 2750.7}}, "weekday": "wednesday", "livingplace": "Collombey"}}, "location": "Ollon VD"}, "Tour du Chablais #6 Mouthey": {"latitude": 46.3190253, "longitude": 6.970566, "race": "Tour du Chablais #6 Mouthey", "date": {"mer. 12.05.2010": {"year": 2010, "day": 12, "month": 5, "categories": {"M-M40": {"distance": 9, "rank": 149, "pace": 305000000000, "time": 2810.4}}, "weekday": "wednesday", "livingplace": "Collombey"}}, "location": "Aigle"}, "Tour du Chablais #4 Yvorne": {"latitude": NaN, "longitude": NaN, "race": "Tour du Chablais #4 Yvorne", "date": {"mer. 28.04.2010": {"year": 2010, "day": 28, "month": 4, "categories": {"M-M40": {"distance": 8, "rank": 154, "pace": 340000000000, "time": 2817.8}}, "weekday": "wednesday", "livingplace": "Collombey"}}, "location": "Les Mosses"}, "Morat-Fribourg": {"latitude": 46.92922110000001, "longitude": 7.120184, "race": "Morat-Fribourg", "date": {"sam. 04.10.2008": {"year": 2008, "day": 4, "month": 10, "categories": {"C-M20": {"distance": 17, "rank": 1620, "pace": 352000000000, "time": 6051.1}}, "weekday": "saturday", "livingplace": "Collombey"}}, "location": "Murten"}, "Lausanne Marathon": {"latitude": 46.5196535, "longitude": 6.6322734, "race": "Lausanne Marathon", "date": {"dim. 30.10.2011": {"year": 2011, "day": 30, "month": 10, "categories": {"21-H3": {"distance": 21, "rank": 709, "pace": 335000000000, "time": 7081.9}}, "weekday": "sunday", "livingplace": "Collombey"}}, "location": "Lausanne"}, "Tour du Chablais #3 Bex": {"latitude": 46.1782231, "longitude": 7.0223787, "race": "Tour du Chablais #3 Bex", "date": {"mer. 21.04.2010": {"year": 2010, "day": 21, "month": 4, "categories": {"M-M40": {"distance": 10, "rank": 129, "pace": 309000000000, "time": 3097.2}}, "weekday": "wednesday", "livingplace": "Collombey"}}, "location": "Evionnaz"}, "Tour du Chablais #2 Bex": {"latitude": 46.3835529, "longitude": 6.854975199999999, "race": "Tour du Chablais #2 Bex", "date": {"mer. 18.04.2012": {"year": 2012, "day": 18, "month": 4, "categories": {"M-M40": {"distance": 8, "rank": 156, "pace": 371000000000, "time": 2970.8}}, "weekday": "wednesday", "livingplace": "Collombey"}}, "location": "Bouveret"}, "Tour du Chablais #2 St-Gingolph": {"latitude": 46.3835529, "longitude": 6.854975199999999, "race": "Tour du Chablais #2 St-Gingolph", "date": {"mer. 14.04.2010": {"year": 2010, "day": 14, "month": 4, "categories": {"M-M40": {"distance": 8, "rank": 141, "pace": 334000000000, "time": 2791.5}}, "weekday": "wednesday", "livingplace": "Collombey"}}, "location": "Bouveret"}}, "birth": 1969}