{"name": "Grangier Luc", "sex": "M", "races": {"Groupe E Tour Fribourg #1 Gurmels": {"latitude": 46.81832, "longitude": 6.977279999999999, "race": "Groupe E Tour Fribourg #1 Gurmels", "date": {"mer. 29.08.2012": {"year": 2012, "day": 29, "month": 8, "categories": {"HS1": {"distance": 8, "rank": 19, "pace": 270000000000, "time": 2274.8}}, "weekday": "wednesday", "livingplace": "Treyvaux"}}, "location": "Cousset"}, "Morat-Fribourg": {"latitude": 46.92922110000001, "longitude": 7.120184, "race": "Morat-Fribourg", "date": {"sam. 05.10.2013": {"year": 2013, "day": 5, "month": 10, "categories": {"17-M20": {"distance": 17, "rank": 1802, "pace": 331000000000, "time": 5791.6}}, "weekday": "saturday", "livingplace": "Treyvaux"}, "sam. 06.10.2012": {"year": 2012, "day": 6, "month": 10, "categories": {"17-M20": {"distance": 17, "rank": 1431, "pace": 328000000000, "time": 5724.5}}, "weekday": "saturday", "livingplace": "Treyvaux"}, "sam. 01.10.2011": {"year": 2011, "day": 1, "month": 10, "categories": {"17-M20": {"distance": 17, "rank": 460, "pace": 274000000000, "time": 4709.1}}, "weekday": "saturday", "livingplace": "Treyvaux"}, "sam. 06.10.2007": {"year": 2007, "day": 6, "month": 10, "categories": {"C/M20": {"distance": 17, "rank": 171, "pace": 248000000000, "time": 4275.3}}, "weekday": "saturday", "livingplace": "Treyvaux"}}, "location": "Murten"}, "Groupe E Tour Fribourg #5 Fribourg": {"latitude": 46.8128615, "longitude": 7.131657799999999, "race": "Groupe E Tour Fribourg #5 Fribourg", "date": {"mer. 26.09.2012": {"year": 2012, "day": 26, "month": 9, "categories": {"HS1": {"distance": 11, "rank": 17, "pace": 255000000000, "time": 2730.2}}, "weekday": "wednesday", "livingplace": "Treyvaux"}}, "location": "Givisiez"}, "Groupe E Tour Fribourg #3 Estavayer-le-Lac": {"latitude": 46.97488999999999, "longitude": 7.1954365, "race": "Groupe E Tour Fribourg #3 Estavayer-le-Lac", "date": {"mer. 12.09.2012": {"year": 2012, "day": 12, "month": 9, "categories": {"HS1": {"distance": 10, "rank": 14, "pace": 237000000000, "time": 2342.0}}, "weekday": "wednesday", "livingplace": "Treyvaux"}}, "location": "Kerzers"}, "Groupe E Tour Fribourg #2 Plafayon": {"latitude": 46.6175845, "longitude": 7.1654493, "race": "Groupe E Tour Fribourg #2 Plafayon", "date": {"mer. 05.09.2012": {"year": 2012, "day": 5, "month": 9, "categories": {"HS1": {"distance": 9, "rank": 18, "pace": 246000000000, "time": 2300.2}}, "weekday": "wednesday", "livingplace": "Treyvaux"}}, "location": "Charmey (Gruy\u00e8re)"}, "Groupe E Tour Fribourg #4 Siviriez": {"latitude": 46.6585092, "longitude": 6.877722, "race": "Groupe E Tour Fribourg #4 Siviriez", "date": {"mer. 19.09.2012": {"year": 2012, "day": 19, "month": 9, "categories": {"HS1": {"distance": 9, "rank": 16, "pace": 264000000000, "time": 2489.5}}, "weekday": "wednesday", "livingplace": "Treyvaux"}}, "location": "Siviriez"}, "Z\u00fcrich Marathon, Teamrun und Cityrun": {"latitude": 47.3768866, "longitude": 8.541694, "race": "Z\u00fcrich Marathon, Teamrun und Cityrun", "date": {"dim. 01.04.2007": {"year": 2007, "day": 1, "month": 4, "categories": {"M20": {"distance": 42, "rank": 21, "pace": 248000000000, "time": 10471.9}}, "weekday": "sunday", "livingplace": "Treyvaux"}}, "location": "Z\u00fcrich"}}, "birth": 1980}