{"name": "Grandjean Michel", "sex": "M", "races": {"Glacier 3000 Run, Gstaad": {"latitude": 46.4717588, "longitude": 7.2865728, "race": "Glacier 3000 Run, Gstaad", "date": {"sam. 09.08.2008": {"year": 2008, "day": 9, "month": 8, "categories": {"M30": {"distance": 26, "rank": 50, "pace": 527000000000, "time": 13724.3}}, "weekday": "saturday", "livingplace": "Preles"}}, "location": "Gstaad"}, "Humani'Trail, Les Diablerets": {"latitude": 46.351389, "longitude": 7.158055999999999, "race": "Humani'Trail, Les Diablerets", "date": {"sam. 21.09.2013": {"year": 2013, "day": 21, "month": 9, "categories": {"50-HV1": {"distance": 50, "rank": 14, "pace": 761000000000, "time": 38060.6}}, "weekday": "saturday", "livingplace": "Preles"}}, "location": "Les Diablerets"}, "Morat-Fribourg": {"latitude": 46.92922110000001, "longitude": 7.120184, "race": "Morat-Fribourg", "date": {"sam. 03.10.2009": {"year": 2009, "day": 3, "month": 10, "categories": {"C-M40": {"distance": 17, "rank": 370, "pace": 302000000000, "time": 5191.7}}, "weekday": "saturday", "livingplace": "Prles"}, "sam. 04.10.2008": {"year": 2008, "day": 4, "month": 10, "categories": {"C-M20": {"distance": 17, "rank": 863, "pace": 295000000000, "time": 5074.8}}, "weekday": "saturday", "livingplace": "Preles"}, "sam. 06.10.2007": {"year": 2007, "day": 6, "month": 10, "categories": {"C/M20": {"distance": 17, "rank": 628, "pace": 284000000000, "time": 4879.4}}, "weekday": "saturday", "livingplace": "Preles"}}, "location": "Murten"}, "La Trotteuse-Tissot, La Chaux-de-Fonds": {"latitude": 47.1034892, "longitude": 6.832783800000001, "race": "La Trotteuse-Tissot, La Chaux-de-Fonds", "date": {"sam. 12.12.2015": {"year": 2015, "day": 12, "month": 12, "categories": {"GC-H40": {"distance": 8, "rank": 111, "pace": 281000000000, "time": 2253.2}}, "weekday": "saturday", "livingplace": "La Sportive"}, "sam. 13.12.2014": {"year": 2014, "day": 13, "month": 12, "categories": {"GC-H40": {"distance": 8, "rank": 80, "pace": 279000000000, "time": 2233.4}}, "weekday": "saturday", "livingplace": "La Sportive Plateau de Di"}}, "location": "La Chaux-de-Fonds"}, "Bieler Lauftage, Biel Bienne": {"latitude": 47.1367785, "longitude": 7.2467909, "race": "Bieler Lauftage, Biel Bienne", "date": {"ven. 15.06.2007": {"year": 2007, "day": 15, "month": 6, "categories": {"100/M35": {"distance": 100, "rank": 93, "pace": 452000000000, "time": 45283.8}}, "weekday": "friday", "livingplace": "Preles"}}, "location": "Biel/Bienne"}}, "birth": 1969}