{"name": "Gras Olga", "sex": "F", "races": {"Tour du Pays de Vaud printanier #2 Yverdon-les-Bains": {"latitude": 46.6698891, "longitude": 6.7975224, "race": "Tour du Pays de Vaud printanier #2 Yverdon-les-Bains", "date": {"mer. 11.06.2014": {"year": 2014, "day": 11, "month": 6, "categories": {"D-Sen1": {"distance": 9, "rank": 22, "pace": 375000000000, "time": 3419.0}}, "weekday": "wednesday", "livingplace": "Lausanne"}}, "location": "Moudon"}, "Morat-Fribourg": {"latitude": 46.92922110000001, "longitude": 7.120184, "race": "Morat-Fribourg", "date": {"sam. 03.10.2015": {"year": 2015, "day": 3, "month": 10, "categories": {"17-W20": {"distance": 17, "rank": 440, "pace": 368000000000, "time": 6334.5}}, "weekday": "saturday", "livingplace": "Lausanne"}}, "location": "Murten"}, "Groupe E Tour Fribourg #2, Charmey": {"latitude": 46.6175845, "longitude": 7.1654493, "race": "Groupe E Tour Fribourg #2, Charmey", "date": {"mer. 27.08.2014": {"year": 2014, "day": 27, "month": 8, "categories": {"D-Dam2": {"distance": 10, "rank": 19, "pace": 374000000000, "time": 3610.1}}, "weekday": "wednesday", "livingplace": "Lausanne"}}, "location": "Charmey (Gruy\u00e8re)"}, "Tour du Pays de Vaud #2, Mezi\u00e8res": {"latitude": 46.5955273, "longitude": 6.7702883, "race": "Tour du Pays de Vaud #2, Mezi\u00e8res", "date": {"mer. 20.08.2014": {"year": 2014, "day": 20, "month": 8, "categories": {"D-Sen1": {"distance": 8, "rank": 36, "pace": 375000000000, "time": 3041.3}}, "weekday": "wednesday", "livingplace": "Lausanne"}}, "location": "M\u00e9zi\u00e8res VD"}, "Tour du Pays de Vaud printanier #1 Moudon": {"latitude": 46.3832683, "longitude": 6.2347852, "race": "Tour du Pays de Vaud printanier #1 Moudon", "date": {"mer. 04.06.2014": {"year": 2014, "day": 4, "month": 6, "categories": {"D-Sen1": {"distance": 8, "rank": 25, "pace": 367000000000, "time": 3084.6}}, "weekday": "wednesday", "livingplace": "Lausanne"}}, "location": "Nyon"}, "20km de Lausanne": {"latitude": 46.5196535, "longitude": 6.6322734, "race": "20km de Lausanne", "date": {"sam. 27.04.2013": {"year": 2013, "day": 27, "month": 4, "categories": {"10-F30": {"distance": 10, "rank": 176, "pace": 322000000000, "time": 3226.5}}, "weekday": "saturday", "livingplace": "Pully"}, "sam. 26.04.2014": {"year": 2014, "day": 26, "month": 4, "categories": {"10-F30": {"distance": 10, "rank": 166, "pace": 326000000000, "time": 3260.4}}, "weekday": "saturday", "livingplace": "Pully"}}, "location": "Lausanne"}, "Aletsch-Halbmarathon, Bettmeralp": {"latitude": NaN, "longitude": NaN, "race": "Aletsch-Halbmarathon, Bettmeralp", "date": {"dim. 28.06.2015": {"year": 2015, "day": 28, "month": 6, "categories": {"F20": {"distance": 21, "rank": 158, "pace": 544000000000, "time": 11485.3}}, "weekday": "sunday", "livingplace": "Lausanne"}}, "location": "Bettmeralp"}}, "birth": 1983}