{"name": "Gregoire Benoit", "sex": "M", "races": {"Tour du pays de Vaud #6 - St  Prex": {"latitude": 46.4829113, "longitude": 6.458343500000001, "race": "Tour du pays de Vaud #6 - St  Prex", "date": {"mer. 14.09.2011": {"year": 2011, "day": 14, "month": 9, "categories": {"H-Hom": {"distance": 9, "rank": 25, "pace": 254000000000, "time": 2192.1}}, "weekday": "wednesday", "livingplace": "Lausanne"}}, "location": "St-Prex"}, "Tour du Pays de Vaud printanier #1 Chavornay": {"latitude": 46.3832683, "longitude": 6.2347852, "race": "Tour du Pays de Vaud printanier #1 Chavornay", "date": {"mer. 30.05.2012": {"year": 2012, "day": 30, "month": 5, "categories": {"H-Hom": {"distance": 9, "rank": 16, "pace": 264000000000, "time": 2364.4}}, "weekday": "wednesday", "livingplace": "Lausanne"}}, "location": "Nyon"}, "Tour du pays de Vaud #1 - Mezi\u00e8res": {"latitude": 46.7784736, "longitude": 6.641183, "race": "Tour du pays de Vaud #1 - Mezi\u00e8res", "date": {"mer. 10.08.2011": {"year": 2011, "day": 10, "month": 8, "categories": {"H-Hom": {"distance": 9, "rank": 29, "pace": 252000000000, "time": 2143.1}}, "weekday": "wednesday", "livingplace": "Lausanne"}}, "location": "Yverdon-les-Bains"}, "Tour du Pays de Vaud #3 - Mezi\u00e8res": {"latitude": 46.7784736, "longitude": 6.641183, "race": "Tour du Pays de Vaud #3 - Mezi\u00e8res", "date": {"mer. 22.08.2012": {"year": 2012, "day": 22, "month": 8, "categories": {"H-Hom": {"distance": 8, "rank": 25, "pace": 272000000000, "time": 2289.1}}, "weekday": "wednesday", "livingplace": "Lausanne"}}, "location": "Yverdon-les-Bains"}, "20km de Lausanne": {"latitude": 46.5196535, "longitude": 6.6322734, "race": "20km de Lausanne", "date": {"sam. 24.04.2010": {"year": 2010, "day": 24, "month": 4, "categories": {"20-H20": {"distance": 20, "rank": 114, "pace": 275000000000, "time": 5518.9}}, "weekday": "saturday", "livingplace": "Lausanne"}, "sam. 25.04.2009": {"year": 2009, "day": 25, "month": 4, "categories": {"10-H20": {"distance": 10, "rank": 86, "pace": 263000000000, "time": 2639.7}}, "weekday": "saturday", "livingplace": "Lausanne"}}, "location": "Lausanne"}, "Tour du Pays de Vaud #3 - Chavornay": {"latitude": 46.7784736, "longitude": 6.641183, "race": "Tour du Pays de Vaud #3 - Chavornay", "date": {"mer. 28.08.2013": {"year": 2013, "day": 28, "month": 8, "categories": {"H-Hom": {"distance": 9, "rank": 62, "pace": 280000000000, "time": 2496.1}}, "weekday": "wednesday", "livingplace": "Lausanne"}}, "location": "Yverdon-les-Bains"}, "Tour du Pays de Vaud #2 - Genolier": {"latitude": 46.5955273, "longitude": 6.7702883, "race": "Tour du Pays de Vaud #2 - Genolier", "date": {"mer. 15.08.2012": {"year": 2012, "day": 15, "month": 8, "categories": {"H-Hom": {"distance": 9, "rank": 26, "pace": 251000000000, "time": 2134.1}}, "weekday": "wednesday", "livingplace": "Lausanne"}, "mer. 17.08.2011": {"year": 2011, "day": 17, "month": 8, "categories": {"H-Hom": {"distance": 9, "rank": 18, "pace": 249000000000, "time": 2123.4}}, "weekday": "wednesday", "livingplace": "Lausanne"}}, "location": "M\u00e9zi\u00e8res VD"}, "Tour du Pays de Vaud #2 - Mezi\u00e8res": {"latitude": 46.5955273, "longitude": 6.7702883, "race": "Tour du Pays de Vaud #2 - Mezi\u00e8res", "date": {"mer. 21.08.2013": {"year": 2013, "day": 21, "month": 8, "categories": {"H-Hom": {"distance": 8, "rank": 40, "pace": 293000000000, "time": 2379.5}}, "weekday": "wednesday", "livingplace": "Lausanne"}}, "location": "M\u00e9zi\u00e8res VD"}, "Lausanne Marathon": {"latitude": 46.5196535, "longitude": 6.6322734, "race": "Lausanne Marathon", "date": {"dim. 31.10.2010": {"year": 2010, "day": 31, "month": 10, "categories": {"42-H1": {"distance": 42, "rank": 33, "pace": 292000000000, "time": 12335.5}}, "weekday": "sunday", "livingplace": "Lausanne"}, "dim. 28.10.2012": {"year": 2012, "day": 28, "month": 10, "categories": {"21-H1": {"distance": 21, "rank": 99, "pace": 266000000000, "time": 5631.3}}, "weekday": "sunday", "livingplace": "Lausanne"}}, "location": "Lausanne"}, "Tour du Pays de Vaud #4 - La Sarraz": {"latitude": 46.7088129, "longitude": 6.5707689, "race": "Tour du Pays de Vaud #4 - La Sarraz", "date": {"mer. 04.09.2013": {"year": 2013, "day": 4, "month": 9, "categories": {"H-Hom": {"distance": 9, "rank": 57, "pace": 285000000000, "time": 2423.8}}, "weekday": "wednesday", "livingplace": "Lausanne"}}, "location": "Chavornay"}, "Tour du pays de Vaud #1 - Penthaz": {"latitude": 46.5993131, "longitude": 6.539251200000001, "race": "Tour du pays de Vaud #1 - Penthaz", "date": {"mer. 14.08.2013": {"year": 2013, "day": 14, "month": 8, "categories": {"H-Hom": {"distance": 9, "rank": 48, "pace": 279000000000, "time": 2385.0}}, "weekday": "wednesday", "livingplace": "Lausanne"}, "mer. 08.08.2012": {"year": 2012, "day": 8, "month": 8, "categories": {"H-Hom": {"distance": 9, "rank": 34, "pace": 263000000000, "time": 2247.5}}, "weekday": "wednesday", "livingplace": "Lausanne"}}, "location": "Penthaz"}, "Tour du Pays de Vaud printanier #2 Yens": {"latitude": 46.6698891, "longitude": 6.7975224, "race": "Tour du Pays de Vaud printanier #2 Yens", "date": {"mer. 06.06.2012": {"year": 2012, "day": 6, "month": 6, "categories": {"H-Hom": {"distance": 9, "rank": 19, "pace": 261000000000, "time": 2379.7}}, "weekday": "wednesday", "livingplace": "Lausanne"}}, "location": "Moudon"}}, "birth": 1985}