{"name": "Gregorin Ivan", "sex": "M", "races": {"Tour du Pays de Vaud #2 - Genolier": {"latitude": 46.5955273, "longitude": 6.7702883, "race": "Tour du Pays de Vaud #2 - Genolier", "date": {"mer. 15.08.2012": {"year": 2012, "day": 15, "month": 8, "categories": {"H-Sen1": {"distance": 9, "rank": 63, "pace": 273000000000, "time": 2324.0}}, "weekday": "wednesday", "livingplace": "Preverenges"}, "mer. 18.08.2010": {"year": 2010, "day": 18, "month": 8, "categories": {"HSen1": {"distance": 8, "rank": 95, "pace": 307000000000, "time": 2491.9}}, "weekday": "wednesday", "livingplace": "Preverenges"}}, "location": "M\u00e9zi\u00e8res VD"}, "Tour du Pays de Vaud #3 - Mezi\u00e8res": {"latitude": 46.7784736, "longitude": 6.641183, "race": "Tour du Pays de Vaud #3 - Mezi\u00e8res", "date": {"mer. 22.08.2012": {"year": 2012, "day": 22, "month": 8, "categories": {"H-Sen1": {"distance": 8, "rank": 68, "pace": 304000000000, "time": 2557.9}}, "weekday": "wednesday", "livingplace": "Preverenges"}}, "location": "Yverdon-les-Bains"}, "Tour du pays de Vaud #1 - Penthaz": {"latitude": 46.5993131, "longitude": 6.539251200000001, "race": "Tour du pays de Vaud #1 - Penthaz", "date": {"mer. 08.08.2012": {"year": 2012, "day": 8, "month": 8, "categories": {"H-Sen1": {"distance": 9, "rank": 72, "pace": 284000000000, "time": 2425.4}}, "weekday": "wednesday", "livingplace": "Preverenges"}}, "location": "Penthaz"}, "Morat-Fribourg": {"latitude": 46.92922110000001, "longitude": 7.120184, "race": "Morat-Fribourg", "date": {"sam. 03.10.2009": {"year": 2009, "day": 3, "month": 10, "categories": {"C-M20": {"distance": 17, "rank": 1489, "pace": 330000000000, "time": 5674.5}}, "weekday": "saturday", "livingplace": "Preverenges"}}, "location": "Murten"}, "Tour du Pays de Vaud #5 - La Sarraz": {"latitude": 46.5993131, "longitude": 6.539251200000001, "race": "Tour du Pays de Vaud #5 - La Sarraz", "date": {"mer. 08.09.2010": {"year": 2010, "day": 8, "month": 9, "categories": {"HSen1": {"distance": 9, "rank": 90, "pace": 297000000000, "time": 2705.7}}, "weekday": "wednesday", "livingplace": "Preverenges"}}, "location": "Penthaz"}, "Tour du pays de Vaud #1 - Mezi\u00e8res": {"latitude": 46.7784736, "longitude": 6.641183, "race": "Tour du pays de Vaud #1 - Mezi\u00e8res", "date": {"mer. 10.08.2011": {"year": 2011, "day": 10, "month": 8, "categories": {"H-Sen1": {"distance": 9, "rank": 63, "pace": 276000000000, "time": 2353.0}}, "weekday": "wednesday", "livingplace": "Preverenges"}}, "location": "Yverdon-les-Bains"}, "Lausanne Marathon": {"latitude": 46.5196535, "longitude": 6.6322734, "race": "Lausanne Marathon", "date": {"dim. 31.10.2010": {"year": 2010, "day": 31, "month": 10, "categories": {"10-H2": {"distance": 10, "rank": 222, "pace": 283000000000, "time": 2837.5}}, "weekday": "sunday", "livingplace": "Preverenges"}}, "location": "Lausanne"}, "20km de Lausanne": {"latitude": 46.5196535, "longitude": 6.6322734, "race": "20km de Lausanne", "date": {"sam. 30.04.2011": {"year": 2011, "day": 30, "month": 4, "categories": {"20-H30": {"distance": 20, "rank": 530, "pace": 304000000000, "time": 6091.6}}, "weekday": "saturday", "livingplace": "Preverenges"}, "sam. 25.04.2009": {"year": 2009, "day": 25, "month": 4, "categories": {"10-H30": {"distance": 10, "rank": 170, "pace": 278000000000, "time": 2782.3}}, "weekday": "saturday", "livingplace": "Rushteam"}, "sam. 28.04.2007": {"year": 2007, "day": 28, "month": 4, "categories": {"20H30": {"distance": 20, "rank": 280, "pace": 291000000000, "time": 5829.6}}, "weekday": "saturday", "livingplace": "Preverenges"}}, "location": "Lausanne"}, "Les Traine-Savates, Cheseaux-sur-Lausanne": {"latitude": 46.585452, "longitude": 6.6047712, "race": "Les Traine-Savates, Cheseaux-sur-Lausanne", "date": {"sam. 04.04.2009": {"year": 2009, "day": 4, "month": 4, "categories": {"Hom Sen": {"distance": 10, "rank": 146, "pace": 288000000000, "time": 3000.9}}, "weekday": "saturday", "livingplace": "Preverenges"}}, "location": "Cheseaux-sur-Lausanne"}}, "birth": 1975}