{"name": "Gremaud Cyrill", "sex": "M", "races": {"Groupe E Tour Fribourg #4 Montagny": {"latitude": 46.6585092, "longitude": 6.877722, "race": "Groupe E Tour Fribourg #4 Montagny", "date": {"mer. 11.09.2013": {"year": 2013, "day": 11, "month": 9, "categories": {"HE": {"distance": 10, "rank": 39, "pace": 311000000000, "time": 3054.0}}, "weekday": "wednesday", "livingplace": "Corminboeuf"}}, "location": "Siviriez"}, "Morat-Fribourg": {"latitude": 46.92922110000001, "longitude": 7.120184, "race": "Morat-Fribourg", "date": {"sam. 05.10.2013": {"year": 2013, "day": 5, "month": 10, "categories": {"17-M20": {"distance": 17, "rank": 1940, "pace": 342000000000, "time": 5969.1}}, "weekday": "saturday", "livingplace": "Corminboeuf"}}, "location": "Murten"}, "Groupe E Tour Fribourg #2 Kerzers": {"latitude": 46.6175845, "longitude": 7.1654493, "race": "Groupe E Tour Fribourg #2 Kerzers", "date": {"mer. 28.08.2013": {"year": 2013, "day": 28, "month": 8, "categories": {"HE": {"distance": 12, "rank": 27, "pace": 305000000000, "time": 3622.7}}, "weekday": "wednesday", "livingplace": "Corminboeuf"}}, "location": "Charmey (Gruy\u00e8re)"}, "Groupe E Tour Fribourg #3 Charmey": {"latitude": 46.97488999999999, "longitude": 7.1954365, "race": "Groupe E Tour Fribourg #3 Charmey", "date": {"mer. 04.09.2013": {"year": 2013, "day": 4, "month": 9, "categories": {"HE": {"distance": 11, "rank": 42, "pace": 338000000000, "time": 3676.5}}, "weekday": "wednesday", "livingplace": "Corminboeuf"}}, "location": "Kerzers"}, "Groupe E Tour Fribourg #1 Siviriez": {"latitude": 46.81832, "longitude": 6.977279999999999, "race": "Groupe E Tour Fribourg #1 Siviriez", "date": {"mer. 21.08.2013": {"year": 2013, "day": 21, "month": 8, "categories": {"HE": {"distance": 10, "rank": 31, "pace": 329000000000, "time": 3228.0}}, "weekday": "wednesday", "livingplace": "Corminboeuf"}}, "location": "Cousset"}, "Groupe E Tour Fribourg #5 Fribourg": {"latitude": 46.8128615, "longitude": 7.131657799999999, "race": "Groupe E Tour Fribourg #5 Fribourg", "date": {"mer. 18.09.2013": {"year": 2013, "day": 18, "month": 9, "categories": {"HE": {"distance": 10, "rank": 32, "pace": 292000000000, "time": 2924.6}}, "weekday": "wednesday", "livingplace": "Corminboeuf"}, "mer. 26.09.2012": {"year": 2012, "day": 26, "month": 9, "categories": {"HE": {"distance": 11, "rank": 36, "pace": 331000000000, "time": 3543.3}}, "weekday": "wednesday", "livingplace": "Corminboeuf"}}, "location": "Givisiez"}, "Groupe E Tour Fribourg #2 Plafayon": {"latitude": 46.6175845, "longitude": 7.1654493, "race": "Groupe E Tour Fribourg #2 Plafayon", "date": {"mer. 05.09.2012": {"year": 2012, "day": 5, "month": 9, "categories": {"HE": {"distance": 9, "rank": 20, "pace": 309000000000, "time": 2890.3}}, "weekday": "wednesday", "livingplace": "Corminboeuf"}}, "location": "Charmey (Gruy\u00e8re)"}, "Groupe E Tour Fribourg #4 Siviriez": {"latitude": 46.6585092, "longitude": 6.877722, "race": "Groupe E Tour Fribourg #4 Siviriez", "date": {"mer. 19.09.2012": {"year": 2012, "day": 19, "month": 9, "categories": {"HE": {"distance": 9, "rank": 32, "pace": 326000000000, "time": 3067.8}}, "weekday": "wednesday", "livingplace": "Corminboeuf"}}, "location": "Siviriez"}}, "birth": 1988}