{"name": "Grisel Myriam", "sex": "F", "races": {"Groupe E Tour Fribourg #3 Estavayer-le-Lac": {"latitude": 46.97488999999999, "longitude": 7.1954365, "race": "Groupe E Tour Fribourg #3 Estavayer-le-Lac", "date": {"mer. 12.09.2012": {"year": 2012, "day": 12, "month": 9, "categories": {"DJ": {"distance": 10, "rank": 3, "pace": 347000000000, "time": 3429.2}}, "weekday": "wednesday", "livingplace": "Travers"}}, "location": "Kerzers"}, "Groupe E Tour Fribourg #5, Givisiez": {"latitude": 46.8128615, "longitude": 7.131657799999999, "race": "Groupe E Tour Fribourg #5, Givisiez", "date": {"mer. 17.09.2014": {"year": 2014, "day": 17, "month": 9, "categories": {"D-Dam1": {"distance": 10, "rank": 34, "pace": 388000000000, "time": 3991.1}}, "weekday": "wednesday", "livingplace": "Travers"}}, "location": "Givisiez"}, "Groupe E Tour Fribourg #4 Siviriez": {"latitude": 46.6585092, "longitude": 6.877722, "race": "Groupe E Tour Fribourg #4 Siviriez", "date": {"mer. 19.09.2012": {"year": 2012, "day": 19, "month": 9, "categories": {"DJ": {"distance": 9, "rank": 3, "pace": 366000000000, "time": 3448.2}}, "weekday": "wednesday", "livingplace": "Travers"}}, "location": "Siviriez"}, "Groupe E Tour Fribourg #1, Cousset": {"latitude": 46.81832, "longitude": 6.977279999999999, "race": "Groupe E Tour Fribourg #1, Cousset", "date": {"mer. 20.08.2014": {"year": 2014, "day": 20, "month": 8, "categories": {"D-Dam1": {"distance": 9, "rank": 35, "pace": 363000000000, "time": 3419.6}}, "weekday": "wednesday", "livingplace": "Travers"}}, "location": "Cousset"}, "BCN Tour Neuch\u00e2tel": {"latitude": 46.9899874, "longitude": 6.9292732, "race": "BCN Tour Neuch\u00e2tel", "date": {"mer. 30.05.2012": {"year": 2012, "day": 30, "month": 5, "categories": {"DJ": {"distance": 11, "rank": 38, "pace": 439000000000, "time": 4919.0}}, "weekday": "wednesday", "livingplace": "Travers"}}, "location": "Neuch\u00e2tel"}}, "birth": 1994}