{"name": "Grisel Annabelle", "sex": "F", "races": {"Groupe E Tour Fribourg #4, Siviriez": {"latitude": 46.6585092, "longitude": 6.877722, "race": "Groupe E Tour Fribourg #4, Siviriez", "date": {"mer. 10.09.2014": {"year": 2014, "day": 10, "month": 9, "categories": {"D-Dam3": {"distance": 11, "rank": 10, "pace": 400000000000, "time": 4320.8}}, "weekday": "wednesday", "livingplace": "Travers"}}, "location": "Siviriez"}, "Groupe E Tour Fribourg #3, Kerzers": {"latitude": 46.97488999999999, "longitude": 7.1954365, "race": "Groupe E Tour Fribourg #3, Kerzers", "date": {"mer. 03.09.2014": {"year": 2014, "day": 3, "month": 9, "categories": {"D-Dam3": {"distance": 10, "rank": 15, "pace": 339000000000, "time": 3457.6}}, "weekday": "wednesday", "livingplace": "Travers"}}, "location": "Kerzers"}, "Groupe E Tour Fribourg #5, Givisiez": {"latitude": 46.8128615, "longitude": 7.131657799999999, "race": "Groupe E Tour Fribourg #5, Givisiez", "date": {"mer. 17.09.2014": {"year": 2014, "day": 17, "month": 9, "categories": {"D-Dam3": {"distance": 10, "rank": 25, "pace": 358000000000, "time": 3685.6}}, "weekday": "wednesday", "livingplace": "Travers"}}, "location": "Givisiez"}, "Groupe E Tour Fribourg #1, Cousset": {"latitude": 46.81832, "longitude": 6.977279999999999, "race": "Groupe E Tour Fribourg #1, Cousset", "date": {"mer. 20.08.2014": {"year": 2014, "day": 20, "month": 8, "categories": {"D-Dam3": {"distance": 9, "rank": 22, "pace": 346000000000, "time": 3259.0}}, "weekday": "wednesday", "livingplace": "Travers"}}, "location": "Cousset"}, "D\u00e9fi Val-de-Travers, Couvet": {"latitude": 46.9262933, "longitude": 6.6324944, "race": "D\u00e9fi Val-de-Travers, Couvet", "date": {"sam. 19.06.2010": {"year": 2010, "day": 19, "month": 6, "categories": {"12-FSen2": {"distance": 12, "rank": 6, "pace": 426000000000, "time": 5205.1}}, "weekday": "saturday", "livingplace": "Travers"}}, "location": "Couvet"}}, "birth": 1966}