{"name": "Gross Jessica", "sex": "F", "races": {"Pfingstlauf Wohlen AG": {"latitude": 47.3493653, "longitude": 8.2768762, "race": "Pfingstlauf Wohlen AG", "date": {"sam. 07.06.2014": {"year": 2014, "day": 7, "month": 6, "categories": {"10-F20": {"distance": 10, "rank": 6, "pace": 357000000000, "time": 3578.6}}, "weekday": "saturday", "livingplace": "Widen"}}, "location": "Wohlen AG"}, "ASICS Bremgarter Reusslauf": {"latitude": 47.34917739999999, "longitude": 8.3397905, "race": "ASICS Bremgarter Reusslauf", "date": {"sam. 28.02.2015": {"year": 2015, "day": 28, "month": 2, "categories": {"11-F20": {"distance": 11, "rank": 91, "pace": 337000000000, "time": 3713.4}}, "weekday": "saturday", "livingplace": "Widen"}}, "location": "Bremgarten AG"}, "Schweizer Frauenlauf Bern": {"latitude": 46.9479739, "longitude": 7.4474468, "race": "Schweizer Frauenlauf Bern", "date": {"dim. 15.06.2014": {"year": 2014, "day": 15, "month": 6, "categories": {"10-W20": {"distance": 10, "rank": 315, "pace": 329000000000, "time": 3296.3}}, "weekday": "sunday", "livingplace": "Widen"}, "dim. 14.06.2015": {"year": 2015, "day": 14, "month": 6, "categories": {"10-W20": {"distance": 10, "rank": 607, "pace": 357000000000, "time": 3571.7}}, "weekday": "sunday", "livingplace": "Widen"}}, "location": "Bern"}, "Badener Limmat-Lauf, Baden": {"latitude": 48.5699281, "longitude": 8.5303972, "race": "Badener Limmat-Lauf, Baden", "date": {"sam. 29.03.2014": {"year": 2014, "day": 29, "month": 3, "categories": {"F20": {"distance": 13, "rank": 34, "pace": 331000000000, "time": 4362.1}}, "weekday": "saturday", "livingplace": "Widen"}}, "location": "Baden"}, "Z\u00fcrcher Silvesterlauf, Z\u00fcrich": {"latitude": 47.3768866, "longitude": 8.541694, "race": "Z\u00fcrcher Silvesterlauf, Z\u00fcrich", "date": {"dim. 14.12.2014": {"year": 2014, "day": 14, "month": 12, "categories": {"10-F20": {"distance": 10, "rank": 502, "pace": 346000000000, "time": 3462.9}}, "weekday": "sunday", "livingplace": "Widen"}}, "location": "Z\u00fcrich"}, "Kerzerslauf": {"latitude": 46.97488999999999, "longitude": 7.1954365, "race": "Kerzerslauf", "date": {"sam. 15.03.2014": {"year": 2014, "day": 15, "month": 3, "categories": {"15-F20": {"distance": 15, "rank": 295, "pace": 342000000000, "time": 5144.9}}, "weekday": "saturday", "livingplace": "Widen"}}, "location": "Kerzers"}, "Z\u00fcrich Marathon, Teamrun und Cityrun": {"latitude": 47.3768866, "longitude": 8.541694, "race": "Z\u00fcrich Marathon, Teamrun und Cityrun", "date": {"dim. 06.04.2014": {"year": 2014, "day": 6, "month": 4, "categories": {"10-W20": {"distance": 10, "rank": 83, "pace": 307000000000, "time": 3010.0}}, "weekday": "sunday", "livingplace": "Widen"}, "dim. 19.04.2015": {"year": 2015, "day": 19, "month": 4, "categories": {"10-W20": {"distance": 10, "rank": 174, "pace": 334000000000, "time": 3275.1}}, "weekday": "sunday", "livingplace": "Widen"}}, "location": "Z\u00fcrich"}}, "birth": 1987}