{"name": "Gross Julia", "sex": "F", "races": {"Gippinger Stauseelauf": {"latitude": 47.5810513, "longitude": 8.2152586, "race": "Gippinger Stauseelauf", "date": {"jeu. 31.12.2015": {"year": 2015, "day": 31, "month": 12, "categories": {"7-F20": {"distance": 8, "rank": 3, "pace": 220000000000, "time": 1661.8}}, "weekday": "thursday", "livingplace": "Zurich"}}, "location": "Leuggern"}, "Gempenlauf, Dornach": {"latitude": 47.4790491, "longitude": 7.6170412, "race": "Gempenlauf, Dornach", "date": {"mer. 03.06.2009": {"year": 2009, "day": 3, "month": 6, "categories": {"F18": {"distance": 8, "rank": 2, "pace": 297000000000, "time": 2323.9}}, "weekday": "wednesday", "livingplace": "Richterswil"}, "mer. 04.06.2008": {"year": 2008, "day": 4, "month": 6, "categories": {"F18": {"distance": 8, "rank": 7, "pace": 313000000000, "time": 2442.1}}, "weekday": "wednesday", "livingplace": "Richterswil"}}, "location": "Dornach"}, "Z\u00fcrcher Silvesterlauf, Z\u00fcrich": {"latitude": 47.3768866, "longitude": 8.541694, "race": "Z\u00fcrcher Silvesterlauf, Z\u00fcrich", "date": {"dim. 11.12.2011": {"year": 2011, "day": 11, "month": 12, "categories": {"8-DaHK": {"distance": 9, "rank": 7, "pace": 243000000000, "time": 2096.6}}, "weekday": "sunday", "livingplace": "Richterswil"}}, "location": "Z\u00fcrich"}, "Basler Stadtlauf": {"latitude": 47.5595986, "longitude": 7.5885761, "race": "Basler Stadtlauf", "date": {"sam. 30.11.2013": {"year": 2013, "day": 30, "month": 11, "categories": {"F20": {"distance": 6, "rank": 6, "pace": 217000000000, "time": 1195.4}}, "weekday": "saturday", "livingplace": "Richterswil"}}, "location": "Basel"}, "ASICS Bremgarter Reusslauf": {"latitude": 47.34917739999999, "longitude": 8.3397905, "race": "ASICS Bremgarter Reusslauf", "date": {"sam. 22.02.2014": {"year": 2014, "day": 22, "month": 2, "categories": {"11-F20": {"distance": 11, "rank": 7, "pace": 229000000000, "time": 2528.7}}, "weekday": "saturday", "livingplace": "OL Zimmerberg"}}, "location": "Bremgarten AG"}}, "birth": 1991}