{"name": "Gross Stephan", "sex": "M", "races": {"Groupe E Tour Fribourg #1 Gurmels": {"latitude": 46.81832, "longitude": 6.977279999999999, "race": "Groupe E Tour Fribourg #1 Gurmels", "date": {"mer. 29.08.2012": {"year": 2012, "day": 29, "month": 8, "categories": {"HS2": {"distance": 8, "rank": 11, "pace": 284000000000, "time": 2389.8}}, "weekday": "wednesday", "livingplace": "Bole"}}, "location": "Cousset"}, "SwissCityMarathon - Lucerne, Luzern": {"latitude": 47.05016819999999, "longitude": 8.3093072, "race": "SwissCityMarathon - Lucerne, Luzern", "date": {"dim. 26.10.2014": {"year": 2014, "day": 26, "month": 10, "categories": {"M-M40": {"distance": 42, "rank": 112, "pace": 295000000000, "time": 12468.6}}, "weekday": "sunday", "livingplace": "Bole"}}, "location": "Luzern"}, "BCN Tour #1 Corcelles": {"latitude": 46.9668714, "longitude": 6.8589727, "race": "BCN Tour #1 Corcelles", "date": {"mer. 24.04.2013": {"year": 2013, "day": 24, "month": 4, "categories": {"HS2": {"distance": 10, "rank": 81, "pace": 277000000000, "time": 2716.4}}, "weekday": "wednesday", "livingplace": "Bole"}}, "location": "Colombier NE"}, "Corrida Bulloise, Bulle": {"latitude": 46.6154512, "longitude": 7.057726799999999, "race": "Corrida Bulloise, Bulle", "date": {"sam. 15.11.2008": {"year": 2008, "day": 15, "month": 11, "categories": {"M20": {"distance": 8, "rank": 86, "pace": 240000000000, "time": 1922.5}}, "weekday": "saturday", "livingplace": "St Blaise"}}, "location": "Bulle"}, "BCN Tour Le Landeron": {"latitude": 46.9668714, "longitude": 6.8589727, "race": "BCN Tour Le Landeron", "date": {"mer. 22.04.2009": {"year": 2009, "day": 22, "month": 4, "categories": {"HS1": {"distance": 11, "rank": 44, "pace": 259000000000, "time": 2875.5}}, "weekday": "wednesday", "livingplace": "Marti Sports 1"}}, "location": "Colombier NE"}, "20km de Lausanne": {"latitude": 46.5196535, "longitude": 6.6322734, "race": "20km de Lausanne", "date": {"sam. 25.04.2015": {"year": 2015, "day": 25, "month": 4, "categories": {"20-H40": {"distance": 20, "rank": 386, "pace": 325000000000, "time": 6513.9}}, "weekday": "saturday", "livingplace": "Meneurs d'allure"}, "sam. 26.04.2014": {"year": 2014, "day": 26, "month": 4, "categories": {"20-H40": {"distance": 20, "rank": 340, "pace": 326000000000, "time": 6530.7}}, "weekday": "saturday", "livingplace": "Meneur d'allure 20 km"}}, "location": "Lausanne"}, "BCN Tour Ponts-de-Martel": {"latitude": 47.0624261, "longitude": 6.9175754, "race": "BCN Tour Ponts-de-Martel", "date": {"mer. 28.04.2010": {"year": 2010, "day": 28, "month": 4, "categories": {"HS1": {"distance": 11, "rank": 50, "pace": 272000000000, "time": 3052.7}}, "weekday": "wednesday", "livingplace": "St Blaise"}}, "location": "Ch\u00e9zard-St-Martin"}, "BCN Tour Auvernier": {"latitude": 46.9668714, "longitude": 6.8589727, "race": "BCN Tour Auvernier", "date": {"mer. 20.04.2011": {"year": 2011, "day": 20, "month": 4, "categories": {"HS2": {"distance": 11, "rank": 47, "pace": 269000000000, "time": 2913.7}}, "weekday": "wednesday", "livingplace": "Saint Blaise"}}, "location": "Colombier NE"}, "BCN Tour #4 Fleurier": {"latitude": 47.1034892, "longitude": 6.832783800000001, "race": "BCN Tour #4 Fleurier", "date": {"mer. 15.05.2013": {"year": 2013, "day": 15, "month": 5, "categories": {"HS2": {"distance": 9, "rank": 51, "pace": 268000000000, "time": 2324.0}}, "weekday": "wednesday", "livingplace": "Bole"}}, "location": "La Chaux-de-Fonds"}, "BCN Tour #2 La Chaux-de-Fonds": {"latitude": 47.0624261, "longitude": 6.9175754, "race": "BCN Tour #2 La Chaux-de-Fonds", "date": {"mer. 01.05.2013": {"year": 2013, "day": 1, "month": 5, "categories": {"HS2": {"distance": 11, "rank": 93, "pace": 272000000000, "time": 2919.3}}, "weekday": "wednesday", "livingplace": "Bole"}}, "location": "Ch\u00e9zard-St-Martin"}, "BCN Tour La Chaux-de-Fonds": {"latitude": 47.1034892, "longitude": 6.832783800000001, "race": "BCN Tour La Chaux-de-Fonds", "date": {"mer. 23.05.2012": {"year": 2012, "day": 23, "month": 5, "categories": {"HS2": {"distance": 11, "rank": 76, "pace": 279000000000, "time": 3013.6}}, "weekday": "wednesday", "livingplace": "Bole"}, "mer. 11.05.2011": {"year": 2011, "day": 11, "month": 5, "categories": {"HS2": {"distance": 11, "rank": 58, "pace": 310000000000, "time": 3319.8}}, "weekday": "wednesday", "livingplace": "Saint Blaise"}}, "location": "La Chaux-de-Fonds"}, "BCN Tour Les Ponts-de-Martel": {"latitude": 46.999113, "longitude": 6.733554799999999, "race": "BCN Tour Les Ponts-de-Martel", "date": {"mer. 09.05.2012": {"year": 2012, "day": 9, "month": 5, "categories": {"HS2": {"distance": 10, "rank": 63, "pace": 276000000000, "time": 2848.6}}, "weekday": "wednesday", "livingplace": "Bole"}}, "location": "Les Ponts-de-Martel"}, "BCN Tour Neuch\u00e2tel": {"latitude": 46.9899874, "longitude": 6.9292732, "race": "BCN Tour Neuch\u00e2tel", "date": {"mer. 26.05.2010": {"year": 2010, "day": 26, "month": 5, "categories": {"HS1": {"distance": 10, "rank": 59, "pace": 279000000000, "time": 2713.2}}, "weekday": "wednesday", "livingplace": "St Blaise"}, "mer. 30.05.2012": {"year": 2012, "day": 30, "month": 5, "categories": {"HS2": {"distance": 11, "rank": 70, "pace": 289000000000, "time": 3241.6}}, "weekday": "wednesday", "livingplace": "Bole"}, "mer. 25.05.2011": {"year": 2011, "day": 25, "month": 5, "categories": {"HS2": {"distance": 11, "rank": 53, "pace": 276000000000, "time": 3150.0}}, "weekday": "wednesday", "livingplace": "Saint Blaise"}}, "location": "Neuch\u00e2tel"}, "Course de l'Escalade, Gen\u00e8ve": {"latitude": 46.2043907, "longitude": 6.1431577, "race": "Course de l'Escalade, Gen\u00e8ve", "date": {"sam. 04.12.2010": {"year": 2010, "day": 4, "month": 12, "categories": {"H-H2": {"distance": 7, "rank": 137, "pace": 232000000000, "time": 1688.2}}, "weekday": "saturday", "livingplace": "St Blaise"}}, "location": "Gen\u00e8ve"}, "BCN Tour Cornaux": {"latitude": 46.9668714, "longitude": 6.8589727, "race": "BCN Tour Cornaux", "date": {"mer. 25.04.2012": {"year": 2012, "day": 25, "month": 4, "categories": {"HS2": {"distance": 11, "rank": 67, "pace": 302000000000, "time": 3322.7}}, "weekday": "wednesday", "livingplace": "Bole"}}, "location": "Colombier NE"}, "BCN Tour #3 Dombresson": {"latitude": 46.999113, "longitude": 6.733554799999999, "race": "BCN Tour #3 Dombresson", "date": {"mer. 08.05.2013": {"year": 2013, "day": 8, "month": 5, "categories": {"HS2": {"distance": 10, "rank": 67, "pace": 263000000000, "time": 2609.7}}, "weekday": "wednesday", "livingplace": "Bole"}}, "location": "Les Ponts-de-Martel"}, "BCN Tour M\u00f4tier": {"latitude": 46.9262933, "longitude": 6.6324944, "race": "BCN Tour M\u00f4tier", "date": {"mer. 19.05.2010": {"year": 2010, "day": 19, "month": 5, "categories": {"HS1": {"distance": 10, "rank": 53, "pace": 254000000000, "time": 2521.1}}, "weekday": "wednesday", "livingplace": "St Blaise"}}, "location": "Couvet"}, "BCN Tour Fontaine Cernier": {"latitude": 47.0624261, "longitude": 6.9175754, "race": "BCN Tour Fontaine Cernier", "date": {"mer. 27.04.2011": {"year": 2011, "day": 27, "month": 4, "categories": {"HS2": {"distance": 10, "rank": 44, "pace": 255000000000, "time": 2629.2}}, "weekday": "wednesday", "livingplace": "Saint Blaise"}}, "location": "Ch\u00e9zard-St-Martin"}, "BCN Tour #5 Colombier": {"latitude": 46.9262933, "longitude": 6.6324944, "race": "BCN Tour #5 Colombier", "date": {"mer. 22.05.2013": {"year": 2013, "day": 22, "month": 5, "categories": {"HS2": {"distance": 11, "rank": 59, "pace": 247000000000, "time": 2599.6}}, "weekday": "wednesday", "livingplace": "Bole"}}, "location": "Couvet"}, "BCN Tour Le Locle": {"latitude": 46.999113, "longitude": 6.733554799999999, "race": "BCN Tour Le Locle", "date": {"mer. 05.05.2010": {"year": 2010, "day": 5, "month": 5, "categories": {"HS1": {"distance": 11, "rank": 56, "pace": 268000000000, "time": 2924.1}}, "weekday": "wednesday", "livingplace": "St Blaise"}}, "location": "Les Ponts-de-Martel"}, "BCN Tour Couvet": {"latitude": 47.0624261, "longitude": 6.9175754, "race": "BCN Tour Couvet", "date": {"mer. 02.05.2012": {"year": 2012, "day": 2, "month": 5, "categories": {"HS2": {"distance": 11, "rank": 71, "pace": 281000000000, "time": 3137.4}}, "weekday": "wednesday", "livingplace": "Bole"}}, "location": "Ch\u00e9zard-St-Martin"}, "Kerzerslauf": {"latitude": 46.97488999999999, "longitude": 7.1954365, "race": "Kerzerslauf", "date": {"sam. 15.03.2014": {"year": 2014, "day": 15, "month": 3, "categories": {"15-M40": {"distance": 15, "rank": 173, "pace": 270000000000, "time": 4061.6}}, "weekday": "saturday", "livingplace": "Bole"}}, "location": "Kerzers"}, "BCN Tour #6 Neuch\u00e2tel": {"latitude": 46.9899874, "longitude": 6.9292732, "race": "BCN Tour #6 Neuch\u00e2tel", "date": {"mer. 29.05.2013": {"year": 2013, "day": 29, "month": 5, "categories": {"HS2": {"distance": 11, "rank": 63, "pace": 276000000000, "time": 3040.1}}, "weekday": "wednesday", "livingplace": "Bole"}}, "location": "Neuch\u00e2tel"}, "BCN Tour La Br\u00e9vine": {"latitude": 46.999113, "longitude": 6.733554799999999, "race": "BCN Tour La Br\u00e9vine", "date": {"mer. 04.05.2011": {"year": 2011, "day": 4, "month": 5, "categories": {"HS2": {"distance": 10, "rank": 66, "pace": 279000000000, "time": 2797.2}}, "weekday": "wednesday", "livingplace": "Saint Blaise"}}, "location": "Les Ponts-de-Martel"}, "BCN Tour Les Ponts de Martel": {"latitude": 46.9262933, "longitude": 6.6324944, "race": "BCN Tour Les Ponts de Martel", "date": {"mer. 18.05.2011": {"year": 2011, "day": 18, "month": 5, "categories": {"HS2": {"distance": 13, "rank": 55, "pace": 278000000000, "time": 3566.2}}, "weekday": "wednesday", "livingplace": "Saint Blaise"}}, "location": "Couvet"}, "BCN Tour Boudry": {"latitude": 46.9668714, "longitude": 6.8589727, "race": "BCN Tour Boudry", "date": {"mer. 26.04.2006": {"year": 2006, "day": 26, "month": 4, "categories": {"HS1": {"distance": 10, "rank": 61, "pace": 270000000000, "time": 2762.9}}, "weekday": "wednesday", "livingplace": "Yverdon les Bains"}}, "location": "Colombier NE"}, "BCN Tour La Chaux-de-fonds": {"latitude": 47.1034892, "longitude": 6.832783800000001, "race": "BCN Tour La Chaux-de-fonds", "date": {"mer. 12.05.2010": {"year": 2010, "day": 12, "month": 5, "categories": {"HS1": {"distance": 11, "rank": 86, "pace": 347000000000, "time": 3716.5}}, "weekday": "wednesday", "livingplace": "St Blaise"}}, "location": "La Chaux-de-Fonds"}, "BCN Tour Colombier": {"latitude": 46.9668714, "longitude": 6.8589727, "race": "BCN Tour Colombier", "date": {"mer. 16.05.2012": {"year": 2012, "day": 16, "month": 5, "categories": {"HS2": {"distance": 11, "rank": 60, "pace": 268000000000, "time": 2899.3}}, "weekday": "wednesday", "livingplace": "Bole"}, "mer. 23.04.2008": {"year": 2008, "day": 23, "month": 4, "categories": {"HS1": {"distance": 10, "rank": 58, "pace": 275000000000, "time": 2813.6}}, "weekday": "wednesday", "livingplace": "\"Le Mixte\" a Marti"}, "mer. 21.04.2010": {"year": 2010, "day": 21, "month": 4, "categories": {"HS1": {"distance": 10, "rank": 48, "pace": 292000000000, "time": 2925.9}}, "weekday": "wednesday", "livingplace": "St Blaise"}}, "location": "Colombier NE"}}, "birth": 1971}