{"name": "Grosjean Fr\u00e9d\u00e9ric", "sex": "M", "races": {"Tour du Pays de Vaud #3 - Chavornay": {"latitude": 46.7784736, "longitude": 6.641183, "race": "Tour du Pays de Vaud #3 - Chavornay", "date": {"mer. 28.08.2013": {"year": 2013, "day": 28, "month": 8, "categories": {"H-Sen2": {"distance": 9, "rank": 104, "pace": 294000000000, "time": 2623.8}}, "weekday": "wednesday", "livingplace": "Aubonne"}}, "location": "Yverdon-les-Bains"}, "Morat-Fribourg": {"latitude": 46.92922110000001, "longitude": 7.120184, "race": "Morat-Fribourg", "date": {"sam. 05.10.2013": {"year": 2013, "day": 5, "month": 10, "categories": {"17-M40": {"distance": 17, "rank": 459, "pace": 309000000000, "time": 5404.8}}, "weekday": "saturday", "livingplace": "Aubonne"}, "sam. 04.10.2014": {"year": 2014, "day": 4, "month": 10, "categories": {"17-M40": {"distance": 17, "rank": 396, "pace": 315000000000, "time": 5411.4}}, "weekday": "saturday", "livingplace": "Aubonne"}}, "location": "Murten"}, "Semi-Marathon de la C\u00f4te, Allaman-Nyon": {"latitude": 46.3832683, "longitude": 6.2347852, "race": "Semi-Marathon de la C\u00f4te, Allaman-Nyon", "date": {"dim. 14.09.2014": {"year": 2014, "day": 14, "month": 9, "categories": {"21-H40": {"distance": 21, "rank": 94, "pace": 299000000000, "time": 6317.1}}, "weekday": "sunday", "livingplace": "Aubonne"}}, "location": "Nyon"}, "Tour du Pays de Vaud printanier #1 Chavornay": {"latitude": 46.3832683, "longitude": 6.2347852, "race": "Tour du Pays de Vaud printanier #1 Chavornay", "date": {"mer. 30.05.2012": {"year": 2012, "day": 30, "month": 5, "categories": {"H-Sen2": {"distance": 9, "rank": 40, "pace": 308000000000, "time": 2762.9}}, "weekday": "wednesday", "livingplace": "Aubonne"}}, "location": "Nyon"}, "Tour du Pays de Vaud #3 - Mezi\u00e8res": {"latitude": 46.7784736, "longitude": 6.641183, "race": "Tour du Pays de Vaud #3 - Mezi\u00e8res", "date": {"mer. 22.08.2012": {"year": 2012, "day": 22, "month": 8, "categories": {"H-Sen2": {"distance": 8, "rank": 86, "pace": 317000000000, "time": 2667.5}}, "weekday": "wednesday", "livingplace": "Aubonne"}}, "location": "Yverdon-les-Bains"}, "20km de Lausanne": {"latitude": 46.5196535, "longitude": 6.6322734, "race": "20km de Lausanne", "date": {"sam. 25.04.2015": {"year": 2015, "day": 25, "month": 4, "categories": {"20-H40": {"distance": 20, "rank": 321, "pace": 308000000000, "time": 6169.9}}, "weekday": "saturday", "livingplace": "Se bouger pour sa sante 1"}, "sam. 27.04.2013": {"year": 2013, "day": 27, "month": 4, "categories": {"20-H40": {"distance": 20, "rank": 340, "pace": 319000000000, "time": 6396.2}}, "weekday": "saturday", "livingplace": "Se Bouger pour sa sante 4"}, "sam. 28.04.2012": {"year": 2012, "day": 28, "month": 4, "categories": {"20-H40": {"distance": 20, "rank": 390, "pace": 362000000000, "time": 7247.2}}, "weekday": "saturday", "livingplace": "Aubonne"}, "sam. 26.04.2014": {"year": 2014, "day": 26, "month": 4, "categories": {"20-H40": {"distance": 20, "rank": 281, "pace": 310000000000, "time": 6216.4}}, "weekday": "saturday", "livingplace": "Se bouger pour sa sante 4"}}, "location": "Lausanne"}, "Tour du Pays de Vaud #2 - Mezi\u00e8res": {"latitude": 46.5955273, "longitude": 6.7702883, "race": "Tour du Pays de Vaud #2 - Mezi\u00e8res", "date": {"mer. 21.08.2013": {"year": 2013, "day": 21, "month": 8, "categories": {"H-Sen2": {"distance": 8, "rank": 103, "pace": 324000000000, "time": 2628.0}}, "weekday": "wednesday", "livingplace": "Aubonne"}}, "location": "M\u00e9zi\u00e8res VD"}, "Tour du Pays de Vaud #4, La Sarraz": {"latitude": 46.7088129, "longitude": 6.5707689, "race": "Tour du Pays de Vaud #4, La Sarraz", "date": {"mer. 03.09.2014": {"year": 2014, "day": 3, "month": 9, "categories": {"H-Sen2": {"distance": 9, "rank": 62, "pace": 283000000000, "time": 2410.6}}, "weekday": "wednesday", "livingplace": "Aubonne"}}, "location": "Chavornay"}, "Tour du Pays de Vaud #3, Chavornay": {"latitude": 46.7784736, "longitude": 6.641183, "race": "Tour du Pays de Vaud #3, Chavornay", "date": {"mer. 27.08.2014": {"year": 2014, "day": 27, "month": 8, "categories": {"H-Sen2": {"distance": 9, "rank": 75, "pace": 300000000000, "time": 2585.7}}, "weekday": "wednesday", "livingplace": "Aubonne"}}, "location": "Yverdon-les-Bains"}, "Tour du Pays de Vaud #2 - Genolier": {"latitude": 46.5955273, "longitude": 6.7702883, "race": "Tour du Pays de Vaud #2 - Genolier", "date": {"mer. 15.08.2012": {"year": 2012, "day": 15, "month": 8, "categories": {"H-Sen2": {"distance": 9, "rank": 87, "pace": 298000000000, "time": 2534.8}}, "weekday": "wednesday", "livingplace": "Aubonne"}}, "location": "M\u00e9zi\u00e8res VD"}, "Tour du Pays de Vaud #1, Penthaz": {"latitude": 46.5993131, "longitude": 6.539251200000001, "race": "Tour du Pays de Vaud #1, Penthaz", "date": {"mer. 13.08.2014": {"year": 2014, "day": 13, "month": 8, "categories": {"H-Sen2": {"distance": 9, "rank": 66, "pace": 284000000000, "time": 2422.6}}, "weekday": "wednesday", "livingplace": "Aubonne"}}, "location": "Penthaz"}, "Tour du Pays de Vaud printanier #3 - Yens": {"latitude": 46.7829756, "longitude": 6.5728678, "race": "Tour du Pays de Vaud printanier #3 - Yens", "date": {"mer. 12.06.2013": {"year": 2013, "day": 12, "month": 6, "categories": {"H-Sen2": {"distance": 9, "rank": 72, "pace": 326000000000, "time": 2972.5}}, "weekday": "wednesday", "livingplace": "Aubonne"}}, "location": "Champvent"}, "Tour du Pays de Vaud #2, Mezi\u00e8res": {"latitude": 46.5955273, "longitude": 6.7702883, "race": "Tour du Pays de Vaud #2, Mezi\u00e8res", "date": {"mer. 20.08.2014": {"year": 2014, "day": 20, "month": 8, "categories": {"H-Sen2": {"distance": 8, "rank": 65, "pace": 317000000000, "time": 2572.6}}, "weekday": "wednesday", "livingplace": "Aubonne"}}, "location": "M\u00e9zi\u00e8res VD"}, "Tour du Pays de Vaud printanier #1 Moudon": {"latitude": 46.3832683, "longitude": 6.2347852, "race": "Tour du Pays de Vaud printanier #1 Moudon", "date": {"mer. 04.06.2014": {"year": 2014, "day": 4, "month": 6, "categories": {"H-Sen2": {"distance": 8, "rank": 34, "pace": 300000000000, "time": 2524.6}}, "weekday": "wednesday", "livingplace": "Aubonne"}}, "location": "Nyon"}, "Tour du Pays de Vaud #4 - La Sarraz": {"latitude": 46.7088129, "longitude": 6.5707689, "race": "Tour du Pays de Vaud #4 - La Sarraz", "date": {"mer. 29.08.2012": {"year": 2012, "day": 29, "month": 8, "categories": {"H-Sen2": {"distance": 9, "rank": 74, "pace": 278000000000, "time": 2371.3}}, "weekday": "wednesday", "livingplace": "Aubonne"}, "mer. 04.09.2013": {"year": 2013, "day": 4, "month": 9, "categories": {"H-Sen2": {"distance": 9, "rank": 121, "pace": 306000000000, "time": 2601.1}}, "weekday": "wednesday", "livingplace": "Aubonne"}}, "location": "Chavornay"}, "Tour du pays de Vaud #1 - Penthaz": {"latitude": 46.5993131, "longitude": 6.539251200000001, "race": "Tour du pays de Vaud #1 - Penthaz", "date": {"mer. 14.08.2013": {"year": 2013, "day": 14, "month": 8, "categories": {"H-Sen2": {"distance": 9, "rank": 113, "pace": 301000000000, "time": 2572.7}}, "weekday": "wednesday", "livingplace": "Aubonne"}, "mer. 08.08.2012": {"year": 2012, "day": 8, "month": 8, "categories": {"H-Sen2": {"distance": 9, "rank": 98, "pace": 303000000000, "time": 2591.0}}, "weekday": "wednesday", "livingplace": "Aubonne"}}, "location": "Penthaz"}}, "birth": 1972}