{"name": "Groux Alain", "sex": "M", "races": {"Tour de Presinge": {"latitude": 46.21860299999999, "longitude": 6.2535283, "race": "Tour de Presinge", "date": {"dim. 16.03.2014": {"year": 2014, "day": 16, "month": 3, "categories": {"10-Hom1": {"distance": 10, "rank": 120, "pace": 318000000000, "time": 3181.2}}, "weekday": "sunday", "livingplace": "Crissier"}}, "location": "Presinge"}, "SwissCityMarathon - Lucerne, Luzern": {"latitude": 47.05016819999999, "longitude": 8.3093072, "race": "SwissCityMarathon - Lucerne, Luzern", "date": {"dim. 27.10.2013": {"year": 2013, "day": 27, "month": 10, "categories": {"H-M30": {"distance": 21, "rank": 853, "pace": 329000000000, "time": 6941.0}}, "weekday": "sunday", "livingplace": "Crissier"}}, "location": "Luzern"}, "Semi-Marathon de la C\u00f4te, Allaman-Nyon": {"latitude": 46.3832683, "longitude": 6.2347852, "race": "Semi-Marathon de la C\u00f4te, Allaman-Nyon", "date": {"dim. 14.09.2014": {"year": 2014, "day": 14, "month": 9, "categories": {"21-H30": {"distance": 21, "rank": 237, "pace": 383000000000, "time": 8098.9}}, "weekday": "sunday", "livingplace": "Crissier"}}, "location": "Nyon"}, "Lausanne Marathon": {"latitude": 46.5196535, "longitude": 6.6322734, "race": "Lausanne Marathon", "date": {"dim. 26.10.2014": {"year": 2014, "day": 26, "month": 10, "categories": {"21-H30": {"distance": 21, "rank": 925, "pace": 384000000000, "time": 8103.9}}, "weekday": "sunday", "livingplace": "Crissier"}}, "location": "Lausanne"}, "20km de Lausanne": {"latitude": 46.5196535, "longitude": 6.6322734, "race": "20km de Lausanne", "date": {"sam. 26.04.2014": {"year": 2014, "day": 26, "month": 4, "categories": {"20-H30": {"distance": 20, "rank": 684, "pace": 329000000000, "time": 6598.5}}, "weekday": "saturday", "livingplace": "Crissier"}}, "location": "Lausanne"}, "Dreil\u00e4nder-Lauf, Basel": {"latitude": 47.5595986, "longitude": 7.5885761, "race": "Dreil\u00e4nder-Lauf, Basel", "date": {"dim. 25.05.2014": {"year": 2014, "day": 25, "month": 5, "categories": {"HM30": {"distance": 21, "rank": 115, "pace": 351000000000, "time": 7417.7}}, "weekday": "sunday", "livingplace": "Crissier"}}, "location": "Basel"}}, "birth": 1980}