{"name": "Gruet Lionel", "sex": "M", "races": {"Tour du Pays de Vaud printanier #2 Yverdon-les-Bains": {"latitude": 46.6698891, "longitude": 6.7975224, "race": "Tour du Pays de Vaud printanier #2 Yverdon-les-Bains", "date": {"mer. 11.06.2014": {"year": 2014, "day": 11, "month": 6, "categories": {"H-Hom": {"distance": 9, "rank": 29, "pace": 298000000000, "time": 2718.8}}, "weekday": "wednesday", "livingplace": "Cheseaux Noreaz"}}, "location": "Moudon"}, "Tour du Pays de Vaud #4, La Sarraz": {"latitude": 46.7088129, "longitude": 6.5707689, "race": "Tour du Pays de Vaud #4, La Sarraz", "date": {"mer. 03.09.2014": {"year": 2014, "day": 3, "month": 9, "categories": {"H-Hom": {"distance": 9, "rank": 28, "pace": 258000000000, "time": 2193.5}}, "weekday": "wednesday", "livingplace": "Cheseaux Noreaz"}}, "location": "Chavornay"}, "Tour du Pays de Vaud printanier #3 - Yens": {"latitude": 46.7829756, "longitude": 6.5728678, "race": "Tour du Pays de Vaud printanier #3 - Yens", "date": {"mer. 18.06.2014": {"year": 2014, "day": 18, "month": 6, "categories": {"H-Hom": {"distance": 9, "rank": 27, "pace": 269000000000, "time": 2451.5}}, "weekday": "wednesday", "livingplace": "Cheseaux Noreaz"}}, "location": "Champvent"}, "Tour du Pays de Vaud printanier #1 Moudon": {"latitude": 46.3832683, "longitude": 6.2347852, "race": "Tour du Pays de Vaud printanier #1 Moudon", "date": {"mer. 04.06.2014": {"year": 2014, "day": 4, "month": 6, "categories": {"H-Hom": {"distance": 8, "rank": 33, "pace": 286000000000, "time": 2404.9}}, "weekday": "wednesday", "livingplace": "Cheseaux Noreaz"}}, "location": "Nyon"}, "Tour du Pays de Vaud #3 - Chavornay": {"latitude": 46.7784736, "longitude": 6.641183, "race": "Tour du Pays de Vaud #3 - Chavornay", "date": {"mer. 28.08.2013": {"year": 2013, "day": 28, "month": 8, "categories": {"H-Hom": {"distance": 9, "rank": 54, "pace": 274000000000, "time": 2442.8}}, "weekday": "wednesday", "livingplace": "Gressy"}}, "location": "Yverdon-les-Bains"}, "Tour du Pays de Vaud #3, Chavornay": {"latitude": 46.7784736, "longitude": 6.641183, "race": "Tour du Pays de Vaud #3, Chavornay", "date": {"mer. 27.08.2014": {"year": 2014, "day": 27, "month": 8, "categories": {"H-Hom": {"distance": 9, "rank": 27, "pace": 273000000000, "time": 2349.8}}, "weekday": "wednesday", "livingplace": "Cheseaux Noreaz"}}, "location": "Yverdon-les-Bains"}}, "birth": 1986}