{"name": "Guentner Harald", "sex": "M", "races": {"Badener Limmat-Lauf, Baden": {"latitude": 48.5699281, "longitude": 8.5303972, "race": "Badener Limmat-Lauf, Baden", "date": {"sam. 24.03.2012": {"year": 2012, "day": 24, "month": 3, "categories": {"M40": {"distance": 13, "rank": 21, "pace": 234000000000, "time": 3090.5}}, "weekday": "saturday", "livingplace": "Bellikon"}}, "location": "Baden"}, "Dietiker Neujahrslauf, Dietikon": {"latitude": 47.4053885, "longitude": 8.39977, "race": "Dietiker Neujahrslauf, Dietikon", "date": {"sam. 14.01.2012": {"year": 2012, "day": 14, "month": 1, "categories": {"C": {"distance": 12, "rank": 49, "pace": 236000000000, "time": 2867.0}}, "weekday": "saturday", "livingplace": "Bellikon"}}, "location": "Dietikon"}, "ASICS Bremgarter Reusslauf": {"latitude": 47.34917739999999, "longitude": 8.3397905, "race": "ASICS Bremgarter Reusslauf", "date": {"sam. 25.02.2012": {"year": 2012, "day": 25, "month": 2, "categories": {"M40": {"distance": 11, "rank": 84, "pace": 232000000000, "time": 2557.4}}, "weekday": "saturday", "livingplace": "Bellikon"}}, "location": "Bremgarten AG"}, "Basler Stadtlauf": {"latitude": 47.5595986, "longitude": 7.5885761, "race": "Basler Stadtlauf", "date": {"sam. 25.11.2006": {"year": 2006, "day": 25, "month": 11, "categories": {"N": {"distance": 6, "rank": 26, "pace": 218000000000, "time": 1202.1}}, "weekday": "saturday", "livingplace": "Spreitenbach"}}, "location": "Basel"}, "Z\u00fcrich Marathon, Teamrun und Cityrun": {"latitude": 47.3768866, "longitude": 8.541694, "race": "Z\u00fcrich Marathon, Teamrun und Cityrun", "date": {"dim. 09.04.2006": {"year": 2006, "day": 9, "month": 4, "categories": {"M40": {"distance": 42, "rank": 71, "pace": 253000000000, "time": 10684.6}}, "weekday": "sunday", "livingplace": "Spreitenbach"}, "dim. 04.04.2004": {"year": 2004, "day": 4, "month": 4, "categories": {"M30": {"distance": 42, "rank": 178, "pace": 257000000000, "time": 10845.4}}, "weekday": "sunday", "livingplace": "Spreitenbach"}}, "location": "Z\u00fcrich"}}, "birth": 1965}