{"name": "Guex Pascale", "sex": "F", "races": {"Montreux - Les Rochers de Naye": {"latitude": 46.4312213, "longitude": 6.9106799, "race": "Montreux - Les Rochers de Naye", "date": {"dim. 11.07.2010": {"year": 2010, "day": 11, "month": 7, "categories": {"C-FemVet": {"distance": 10, "rank": 20, "pace": 579000000000, "time": 5501.4}}, "weekday": "sunday", "livingplace": "Ollon"}}, "location": "Montreux"}, "20km de Lausanne": {"latitude": 46.5196535, "longitude": 6.6322734, "race": "20km de Lausanne", "date": {"sam. 24.04.2010": {"year": 2010, "day": 24, "month": 4, "categories": {"20-F40": {"distance": 20, "rank": 70, "pace": 346000000000, "time": 6935.6}}, "weekday": "saturday", "livingplace": "Ollon"}, "sam. 25.04.2009": {"year": 2009, "day": 25, "month": 4, "categories": {"20-F40": {"distance": 20, "rank": 78, "pace": 353000000000, "time": 7075.5}}, "weekday": "saturday", "livingplace": "Ollon"}}, "location": "Lausanne"}, "Tour du Chablais #3 Bex": {"latitude": 46.1782231, "longitude": 7.0223787, "race": "Tour du Chablais #3 Bex", "date": {"mer. 21.04.2010": {"year": 2010, "day": 21, "month": 4, "categories": {"F-F40": {"distance": 10, "rank": 26, "pace": 316000000000, "time": 3169.8}}, "weekday": "wednesday", "livingplace": "Ollon"}}, "location": "Evionnaz"}, "Morat-Fribourg": {"latitude": 46.92922110000001, "longitude": 7.120184, "race": "Morat-Fribourg", "date": {"sam. 04.10.2008": {"year": 2008, "day": 4, "month": 10, "categories": {"C-W40": {"distance": 17, "rank": 183, "pace": 358000000000, "time": 6156.0}}, "weekday": "saturday", "livingplace": "Vevey"}, "dim. 05.10.2003": {"year": 2003, "day": 5, "month": 10, "categories": {"W35": {"distance": 17, "rank": 195, "pace": 388000000000, "time": 6672.5}}, "weekday": "sunday", "livingplace": "Ollon"}, "dim. 06.10.2002": {"year": 2002, "day": 6, "month": 10, "categories": {"W35": {"distance": 17, "rank": 191, "pace": 378000000000, "time": 6490.7}}, "weekday": "sunday", "livingplace": "Ollon"}}, "location": "Murten"}, "Z\u00fcrich Marathon, Teamrun und Cityrun": {"latitude": 47.3768866, "longitude": 8.541694, "race": "Z\u00fcrich Marathon, Teamrun und Cityrun", "date": {"dim. 04.04.2004": {"year": 2004, "day": 4, "month": 4, "categories": {"W30": {"distance": 42, "rank": 410, "pace": 394000000000, "time": 16633.2}}, "weekday": "sunday", "livingplace": "Ollon"}}, "location": "Z\u00fcrich"}}, "birth": 1966}