{"name": "Guignard J\u00e9r\u00f4me", "sex": "M", "races": {"Tour du Pays de Vaud #2 - Genolier": {"latitude": 46.5955273, "longitude": 6.7702883, "race": "Tour du Pays de Vaud #2 - Genolier", "date": {"mer. 15.08.2012": {"year": 2012, "day": 15, "month": 8, "categories": {"H-Sen1": {"distance": 9, "rank": 85, "pace": 285000000000, "time": 2425.7}}, "weekday": "wednesday", "livingplace": "Lausanne"}}, "location": "M\u00e9zi\u00e8res VD"}, "Tour du pays de Vaud #1 - Penthaz": {"latitude": 46.5993131, "longitude": 6.539251200000001, "race": "Tour du pays de Vaud #1 - Penthaz", "date": {"mer. 08.08.2012": {"year": 2012, "day": 8, "month": 8, "categories": {"H-Sen1": {"distance": 9, "rank": 108, "pace": 298000000000, "time": 2543.2}}, "weekday": "wednesday", "livingplace": "Lausanne"}}, "location": "Penthaz"}, "Course de l'Escalade, Gen\u00e8ve": {"latitude": 46.2043907, "longitude": 6.1431577, "race": "Course de l'Escalade, Gen\u00e8ve", "date": {"sam. 03.12.2011": {"year": 2011, "day": 3, "month": 12, "categories": {"H-H2": {"distance": 7, "rank": 611, "pace": 282000000000, "time": 2049.4}}, "weekday": "saturday", "livingplace": "Lausanne"}}, "location": "Gen\u00e8ve"}, "Basler Stadtlauf": {"latitude": 47.5595986, "longitude": 7.5885761, "race": "Basler Stadtlauf", "date": {"sam. 26.11.2011": {"year": 2011, "day": 26, "month": 11, "categories": {"N": {"distance": 6, "rank": 96, "pace": 252000000000, "time": 1388.9}}, "weekday": "saturday", "livingplace": "Lausanne"}}, "location": "Basel"}, "20km de Lausanne": {"latitude": 46.5196535, "longitude": 6.6322734, "race": "20km de Lausanne", "date": {"sam. 24.04.2010": {"year": 2010, "day": 24, "month": 4, "categories": {"20-H20": {"distance": 20, "rank": 416, "pace": 351000000000, "time": 7024.6}}, "weekday": "saturday", "livingplace": "Lausanne"}, "sam. 25.04.2009": {"year": 2009, "day": 25, "month": 4, "categories": {"20-H20": {"distance": 20, "rank": 103, "pace": 275000000000, "time": 5518.9}}, "weekday": "saturday", "livingplace": "Lausanne"}, "sam. 28.04.2012": {"year": 2012, "day": 28, "month": 4, "categories": {"20-H30": {"distance": 20, "rank": 292, "pace": 294000000000, "time": 5882.4}}, "weekday": "saturday", "livingplace": "Lausanne"}, "sam. 25.04.2015": {"year": 2015, "day": 25, "month": 4, "categories": {"20-H30": {"distance": 20, "rank": 620, "pace": 302000000000, "time": 6058.0}}, "weekday": "saturday", "livingplace": "Lausanne"}}, "location": "Lausanne"}, "Tour du Pays de Vaud #4 - La Sarraz": {"latitude": 46.7088129, "longitude": 6.5707689, "race": "Tour du Pays de Vaud #4 - La Sarraz", "date": {"mer. 29.08.2012": {"year": 2012, "day": 29, "month": 8, "categories": {"H-Sen1": {"distance": 9, "rank": 86, "pace": 277000000000, "time": 2362.0}}, "weekday": "wednesday", "livingplace": "Lausanne"}}, "location": "Chavornay"}, "Z\u00fcrcher Silvesterlauf, Z\u00fcrich": {"latitude": 47.3768866, "longitude": 8.541694, "race": "Z\u00fcrcher Silvesterlauf, Z\u00fcrich", "date": {"dim. 11.12.2011": {"year": 2011, "day": 11, "month": 12, "categories": {"8-MenAK1": {"distance": 9, "rank": 341, "pace": 269000000000, "time": 2317.5}}, "weekday": "sunday", "livingplace": "Lausanne"}}, "location": "Z\u00fcrich"}}, "birth": 1981}