{"name": "Guillaume-Gentil Antoine", "sex": "M", "races": {"Morat-Fribourg": {"latitude": 46.92922110000001, "longitude": 7.120184, "race": "Morat-Fribourg", "date": {"sam. 01.10.2011": {"year": 2011, "day": 1, "month": 10, "categories": {"17-M20": {"distance": 17, "rank": 821, "pace": 294000000000, "time": 5061.0}}, "weekday": "saturday", "livingplace": "Boudry"}}, "location": "Murten"}, "BCN Tour Le Landeron": {"latitude": 46.9668714, "longitude": 6.8589727, "race": "BCN Tour Le Landeron", "date": {"mer. 22.04.2009": {"year": 2009, "day": 22, "month": 4, "categories": {"HS1": {"distance": 11, "rank": 118, "pace": 306000000000, "time": 3406.1}}, "weekday": "wednesday", "livingplace": "Boudry"}}, "location": "Colombier NE"}, "BCN Tour #1 Corcelles": {"latitude": 46.9668714, "longitude": 6.8589727, "race": "BCN Tour #1 Corcelles", "date": {"mer. 24.04.2013": {"year": 2013, "day": 24, "month": 4, "categories": {"HS1": {"distance": 10, "rank": 151, "pace": 297000000000, "time": 2913.4}}, "weekday": "wednesday", "livingplace": "Boudry"}}, "location": "Colombier NE"}, "BCN Tour Auvernier": {"latitude": 46.9668714, "longitude": 6.8589727, "race": "BCN Tour Auvernier", "date": {"mer. 20.04.2011": {"year": 2011, "day": 20, "month": 4, "categories": {"HS1": {"distance": 11, "rank": 106, "pace": 297000000000, "time": 3214.2}}, "weekday": "wednesday", "livingplace": "Boudry"}}, "location": "Colombier NE"}, "BCN Tour #4 Fleurier": {"latitude": 47.1034892, "longitude": 6.832783800000001, "race": "BCN Tour #4 Fleurier", "date": {"mer. 15.05.2013": {"year": 2013, "day": 15, "month": 5, "categories": {"HS1": {"distance": 9, "rank": 121, "pace": 291000000000, "time": 2520.0}}, "weekday": "wednesday", "livingplace": "Boudry"}}, "location": "La Chaux-de-Fonds"}, "BCN Tour #2 La Chaux-de-Fonds": {"latitude": 47.0624261, "longitude": 6.9175754, "race": "BCN Tour #2 La Chaux-de-Fonds", "date": {"mer. 01.05.2013": {"year": 2013, "day": 1, "month": 5, "categories": {"HS1": {"distance": 11, "rank": 167, "pace": 292000000000, "time": 3125.5}}, "weekday": "wednesday", "livingplace": "Boudry"}}, "location": "Ch\u00e9zard-St-Martin"}, "Montreux - Les Rochers de Naye": {"latitude": 46.4312213, "longitude": 6.9106799, "race": "Montreux - Les Rochers de Naye", "date": {"dim. 11.07.2010": {"year": 2010, "day": 11, "month": 7, "categories": {"M-V\u00e9t1": {"distance": 19, "rank": 180, "pace": 544000000000, "time": 10243.5}}, "weekday": "sunday", "livingplace": "Boudry"}}, "location": "Montreux"}, "BCN Tour La Chaux-de-Fonds": {"latitude": 47.1034892, "longitude": 6.832783800000001, "race": "BCN Tour La Chaux-de-Fonds", "date": {"mer. 23.05.2012": {"year": 2012, "day": 23, "month": 5, "categories": {"HS1": {"distance": 11, "rank": 125, "pace": 293000000000, "time": 3167.1}}, "weekday": "wednesday", "livingplace": "Boudry"}, "mer. 11.05.2011": {"year": 2011, "day": 11, "month": 5, "categories": {"HS1": {"distance": 11, "rank": 111, "pace": 327000000000, "time": 3502.1}}, "weekday": "wednesday", "livingplace": "Boudry"}}, "location": "La Chaux-de-Fonds"}, "Jungfrau-Marathon, Interlaken": {"latitude": NaN, "longitude": NaN, "race": "Jungfrau-Marathon, Interlaken", "date": {"sam. 08.09.2012": {"year": 2012, "day": 8, "month": 9, "categories": {"SO-M20": {"distance": 42, "rank": 905, "pace": 477000000000, "time": 20130.6}}, "weekday": "saturday", "livingplace": "Boudry"}}, "location": "Interlaken"}, "BCN Tour Les Ponts-de-Martel": {"latitude": 46.999113, "longitude": 6.733554799999999, "race": "BCN Tour Les Ponts-de-Martel", "date": {"mer. 09.05.2012": {"year": 2012, "day": 9, "month": 5, "categories": {"HS1": {"distance": 10, "rank": 127, "pace": 304000000000, "time": 3136.5}}, "weekday": "wednesday", "livingplace": "Boudry"}}, "location": "Les Ponts-de-Martel"}, "BCN Tour Neuch\u00e2tel": {"latitude": 46.9899874, "longitude": 6.9292732, "race": "BCN Tour Neuch\u00e2tel", "date": {"mer. 26.05.2010": {"year": 2010, "day": 26, "month": 5, "categories": {"HS1": {"distance": 10, "rank": 143, "pace": 346000000000, "time": 3363.3}}, "weekday": "wednesday", "livingplace": "Boudry"}, "mer. 30.05.2012": {"year": 2012, "day": 30, "month": 5, "categories": {"HS1": {"distance": 11, "rank": 201, "pace": 349000000000, "time": 3914.2}}, "weekday": "wednesday", "livingplace": "Boudry"}, "mer. 25.05.2011": {"year": 2011, "day": 25, "month": 5, "categories": {"HS1": {"distance": 11, "rank": 100, "pace": 288000000000, "time": 3292.3}}, "weekday": "wednesday", "livingplace": "Boudry"}}, "location": "Neuch\u00e2tel"}, "Lausanne Marathon": {"latitude": 46.5196535, "longitude": 6.6322734, "race": "Lausanne Marathon", "date": {"dim. 31.10.2010": {"year": 2010, "day": 31, "month": 10, "categories": {"42-H2": {"distance": 42, "rank": 246, "pace": 341000000000, "time": 14426.1}}, "weekday": "sunday", "livingplace": "Boudry"}, "dim. 30.10.2011": {"year": 2011, "day": 30, "month": 10, "categories": {"42-H2": {"distance": 42, "rank": 196, "pace": 334000000000, "time": 14106.9}}, "weekday": "sunday", "livingplace": "Boudry"}}, "location": "Lausanne"}, "BCN Tour #5 Colombier": {"latitude": 46.9262933, "longitude": 6.6324944, "race": "BCN Tour #5 Colombier", "date": {"mer. 22.05.2013": {"year": 2013, "day": 22, "month": 5, "categories": {"HS1": {"distance": 11, "rank": 118, "pace": 265000000000, "time": 2784.6}}, "weekday": "wednesday", "livingplace": "Boudry"}}, "location": "Couvet"}, "BCN Tour Ponts-de-Martel": {"latitude": 47.0624261, "longitude": 6.9175754, "race": "BCN Tour Ponts-de-Martel", "date": {"mer. 28.04.2010": {"year": 2010, "day": 28, "month": 4, "categories": {"HS1": {"distance": 11, "rank": 115, "pace": 310000000000, "time": 3481.5}}, "weekday": "wednesday", "livingplace": "Boudry"}}, "location": "Ch\u00e9zard-St-Martin"}, "BCN Tour Cornaux": {"latitude": 46.9668714, "longitude": 6.8589727, "race": "BCN Tour Cornaux", "date": {"mer. 25.04.2012": {"year": 2012, "day": 25, "month": 4, "categories": {"HS1": {"distance": 11, "rank": 123, "pace": 334000000000, "time": 3680.3}}, "weekday": "wednesday", "livingplace": "Boudry"}}, "location": "Colombier NE"}, "BCN Tour #3 Dombresson": {"latitude": 46.999113, "longitude": 6.733554799999999, "race": "BCN Tour #3 Dombresson", "date": {"mer. 08.05.2013": {"year": 2013, "day": 8, "month": 5, "categories": {"HS1": {"distance": 10, "rank": 152, "pace": 286000000000, "time": 2831.5}}, "weekday": "wednesday", "livingplace": "Boudry"}}, "location": "Les Ponts-de-Martel"}, "BCN Tour M\u00f4tier": {"latitude": 46.9262933, "longitude": 6.6324944, "race": "BCN Tour M\u00f4tier", "date": {"mer. 19.05.2010": {"year": 2010, "day": 19, "month": 5, "categories": {"HS1": {"distance": 10, "rank": 119, "pace": 288000000000, "time": 2859.2}}, "weekday": "wednesday", "livingplace": "Boudry"}}, "location": "Couvet"}, "BCN Tour Fontaine Cernier": {"latitude": 47.0624261, "longitude": 6.9175754, "race": "BCN Tour Fontaine Cernier", "date": {"mer. 27.04.2011": {"year": 2011, "day": 27, "month": 4, "categories": {"HS1": {"distance": 10, "rank": 107, "pace": 277000000000, "time": 2862.7}}, "weekday": "wednesday", "livingplace": "Boudry"}}, "location": "Ch\u00e9zard-St-Martin"}, "BCN Tour Le Locle": {"latitude": 46.999113, "longitude": 6.733554799999999, "race": "BCN Tour Le Locle", "date": {"mer. 05.05.2010": {"year": 2010, "day": 5, "month": 5, "categories": {"HS1": {"distance": 11, "rank": 127, "pace": 305000000000, "time": 3332.5}}, "weekday": "wednesday", "livingplace": "Boudry"}}, "location": "Les Ponts-de-Martel"}, "BCN Tour Couvet": {"latitude": 47.0624261, "longitude": 6.9175754, "race": "BCN Tour Couvet", "date": {"mer. 02.05.2012": {"year": 2012, "day": 2, "month": 5, "categories": {"HS1": {"distance": 11, "rank": 116, "pace": 302000000000, "time": 3367.7}}, "weekday": "wednesday", "livingplace": "Boudry"}}, "location": "Ch\u00e9zard-St-Martin"}, "BCN Tour #6 Neuch\u00e2tel": {"latitude": 46.9899874, "longitude": 6.9292732, "race": "BCN Tour #6 Neuch\u00e2tel", "date": {"mer. 29.05.2013": {"year": 2013, "day": 29, "month": 5, "categories": {"HS1": {"distance": 11, "rank": 111, "pace": 293000000000, "time": 3225.9}}, "weekday": "wednesday", "livingplace": "Boudry"}}, "location": "Neuch\u00e2tel"}, "BCN Tour La Br\u00e9vine": {"latitude": 46.999113, "longitude": 6.733554799999999, "race": "BCN Tour La Br\u00e9vine", "date": {"mer. 04.05.2011": {"year": 2011, "day": 4, "month": 5, "categories": {"HS1": {"distance": 10, "rank": 100, "pace": 291000000000, "time": 2916.7}}, "weekday": "wednesday", "livingplace": "Boudry"}}, "location": "Les Ponts-de-Martel"}, "BCN Tour Les Ponts de Martel": {"latitude": 46.9262933, "longitude": 6.6324944, "race": "BCN Tour Les Ponts de Martel", "date": {"mer. 18.05.2011": {"year": 2011, "day": 18, "month": 5, "categories": {"HS1": {"distance": 13, "rank": 91, "pace": 288000000000, "time": 3693.4}}, "weekday": "wednesday", "livingplace": "Boudry"}}, "location": "Couvet"}, "BCN Tour La Chaux-de-fonds": {"latitude": 47.1034892, "longitude": 6.832783800000001, "race": "BCN Tour La Chaux-de-fonds", "date": {"mer. 12.05.2010": {"year": 2010, "day": 12, "month": 5, "categories": {"HS1": {"distance": 11, "rank": 136, "pace": 376000000000, "time": 4025.5}}, "weekday": "wednesday", "livingplace": "Boudry"}}, "location": "La Chaux-de-Fonds"}, "BCN Tour Colombier": {"latitude": 46.9668714, "longitude": 6.8589727, "race": "BCN Tour Colombier", "date": {"mer. 16.05.2012": {"year": 2012, "day": 16, "month": 5, "categories": {"HS1": {"distance": 11, "rank": 98, "pace": 281000000000, "time": 3044.0}}, "weekday": "wednesday", "livingplace": "Boudry"}, "mer. 21.04.2010": {"year": 2010, "day": 21, "month": 4, "categories": {"HS1": {"distance": 10, "rank": 109, "pace": 330000000000, "time": 3304.1}}, "weekday": "wednesday", "livingplace": "Boudry"}}, "location": "Colombier NE"}}, "birth": 1975}