{"name": "Guillod Martina", "sex": "F", "races": {"Groupe E Tour Fribourg #4, Siviriez": {"latitude": 46.6585092, "longitude": 6.877722, "race": "Groupe E Tour Fribourg #4, Siviriez", "date": {"mer. 10.09.2014": {"year": 2014, "day": 10, "month": 9, "categories": {"D-Dam1": {"distance": 11, "rank": 36, "pace": 430000000000, "time": 4653.7}}, "weekday": "wednesday", "livingplace": "Fribourg"}}, "location": "Siviriez"}, "Morat-Fribourg": {"latitude": 46.92922110000001, "longitude": 7.120184, "race": "Morat-Fribourg", "date": {"sam. 03.10.2015": {"year": 2015, "day": 3, "month": 10, "categories": {"17-W20": {"distance": 17, "rank": 489, "pace": 375000000000, "time": 6452.0}}, "weekday": "saturday", "livingplace": "Farvagny le Petit"}, "sam. 04.10.2014": {"year": 2014, "day": 4, "month": 10, "categories": {"17-W20": {"distance": 17, "rank": 426, "pace": 368000000000, "time": 6322.0}}, "weekday": "saturday", "livingplace": "Fribourg"}}, "location": "Murten"}, "Groupe E Tour Fribourg #2, Charmey": {"latitude": 46.6175845, "longitude": 7.1654493, "race": "Groupe E Tour Fribourg #2, Charmey", "date": {"mer. 27.08.2014": {"year": 2014, "day": 27, "month": 8, "categories": {"D-Dam1": {"distance": 10, "rank": 33, "pace": 432000000000, "time": 4170.9}}, "weekday": "wednesday", "livingplace": "Fribourg"}}, "location": "Charmey (Gruy\u00e8re)"}, "Groupe E Tour Fribourg #3, Kerzers": {"latitude": 46.97488999999999, "longitude": 7.1954365, "race": "Groupe E Tour Fribourg #3, Kerzers", "date": {"mer. 03.09.2014": {"year": 2014, "day": 3, "month": 9, "categories": {"D-Dam1": {"distance": 10, "rank": 32, "pace": 364000000000, "time": 3708.2}}, "weekday": "wednesday", "livingplace": "Fribourg"}}, "location": "Kerzers"}, "Course de l'Avent, Fribourg": {"latitude": 46.8064773, "longitude": 7.161971899999999, "race": "Course de l'Avent, Fribourg", "date": {"dim. 23.11.2014": {"year": 2014, "day": 23, "month": 11, "categories": {"P-F20": {"distance": 6, "rank": 21, "pace": 338000000000, "time": 2132.2}}, "weekday": "sunday", "livingplace": "Fribourg"}}, "location": "Fribourg"}, "Groupe E Tour Fribourg #5, Givisiez": {"latitude": 46.8128615, "longitude": 7.131657799999999, "race": "Groupe E Tour Fribourg #5, Givisiez", "date": {"mer. 17.09.2014": {"year": 2014, "day": 17, "month": 9, "categories": {"D-Dam1": {"distance": 10, "rank": 30, "pace": 376000000000, "time": 3868.0}}, "weekday": "wednesday", "livingplace": "Fribourg"}}, "location": "Givisiez"}, "20km de Lausanne": {"latitude": 46.5196535, "longitude": 6.6322734, "race": "20km de Lausanne", "date": {"sam. 25.04.2015": {"year": 2015, "day": 25, "month": 4, "categories": {"10-F20": {"distance": 10, "rank": 666, "pace": 354000000000, "time": 3544.8}}, "weekday": "saturday", "livingplace": "Farvagny le Petit"}}, "location": "Lausanne"}, "Groupe E Tour Fribourg #1, Cousset": {"latitude": 46.81832, "longitude": 6.977279999999999, "race": "Groupe E Tour Fribourg #1, Cousset", "date": {"mer. 20.08.2014": {"year": 2014, "day": 20, "month": 8, "categories": {"D-Dam1": {"distance": 9, "rank": 38, "pace": 376000000000, "time": 3543.2}}, "weekday": "wednesday", "livingplace": "Fribourg"}}, "location": "Cousset"}}, "birth": 1986}