{"name": "Guisolan Delinda", "sex": "F", "races": {"Groupe E Tour Fribourg #4, Siviriez": {"latitude": 46.6585092, "longitude": 6.877722, "race": "Groupe E Tour Fribourg #4, Siviriez", "date": {"mer. 10.09.2014": {"year": 2014, "day": 10, "month": 9, "categories": {"Filles": {"distance": 1, "rank": 8, "pace": 395000000000, "time": 221.2}}, "weekday": "wednesday", "livingplace": "Neyruz"}}, "location": "Siviriez"}, "Morat-Fribourg": {"latitude": 46.92922110000001, "longitude": 7.120184, "race": "Morat-Fribourg", "date": {"sam. 03.10.2015": {"year": 2015, "day": 3, "month": 10, "categories": {"PousF": {"distance": 1, "rank": 7, "pace": 256000000000, "time": 179.3}}, "weekday": "saturday", "livingplace": "Neyruz"}, "sam. 04.10.2014": {"year": 2014, "day": 4, "month": 10, "categories": {"PousF": {"distance": 1, "rank": 37, "pace": 300000000000, "time": 210.4}}, "weekday": "saturday", "livingplace": "Neyruz"}}, "location": "Murten"}, "Corrida Bulloise, Bulle": {"latitude": 46.6154512, "longitude": 7.057726799999999, "race": "Corrida Bulloise, Bulle", "date": {"sam. 15.11.2014": {"year": 2014, "day": 15, "month": 11, "categories": {"F-U6": {"distance": 1, "rank": 19, "pace": 370000000000, "time": 277.8}}, "weekday": "saturday", "livingplace": "Neyruz"}, "sam. 21.11.2015": {"year": 2015, "day": 21, "month": 11, "categories": {"F-U6": {"distance": 1, "rank": 6, "pace": 332000000000, "time": 249.7}}, "weekday": "saturday", "livingplace": "Neyruz"}}, "location": "Bulle"}, "Groupe E Tour Fribourg #2, Charmey": {"latitude": 46.6175845, "longitude": 7.1654493, "race": "Groupe E Tour Fribourg #2, Charmey", "date": {"mer. 27.08.2014": {"year": 2014, "day": 27, "month": 8, "categories": {"Filles": {"distance": 1, "rank": 5, "pace": 349000000000, "time": 192.0}}, "weekday": "wednesday", "livingplace": "Neyruz"}}, "location": "Charmey (Gruy\u00e8re)"}, "Groupe E Tour Fribourg #3, Kerzers": {"latitude": 46.97488999999999, "longitude": 7.1954365, "race": "Groupe E Tour Fribourg #3, Kerzers", "date": {"mer. 03.09.2014": {"year": 2014, "day": 3, "month": 9, "categories": {"Filles": {"distance": 1, "rank": 12, "pace": 509000000000, "time": 305.4}}, "weekday": "wednesday", "livingplace": "Neyruz"}}, "location": "Kerzers"}, "Groupe E Tour Fribourg #5, Givisiez": {"latitude": 46.8128615, "longitude": 7.131657799999999, "race": "Groupe E Tour Fribourg #5, Givisiez", "date": {"mer. 17.09.2014": {"year": 2014, "day": 17, "month": 9, "categories": {"Filles": {"distance": 1, "rank": 17, "pace": 512000000000, "time": 307.7}}, "weekday": "wednesday", "livingplace": "Neyruz"}}, "location": "Givisiez"}, "Groupe E Tour Fribourg #1, Cousset": {"latitude": 46.81832, "longitude": 6.977279999999999, "race": "Groupe E Tour Fribourg #1, Cousset", "date": {"mer. 20.08.2014": {"year": 2014, "day": 20, "month": 8, "categories": {"Filles": {"distance": 1, "rank": 13, "pace": 462000000000, "time": 250.0}}, "weekday": "wednesday", "livingplace": "Neyruz"}}, "location": "Cousset"}}, "birth": 2010}