{"name": "Gullotta Filippo", "sex": "M", "races": {"Tour du Chablais #2 Rennaz": {"latitude": 46.3835529, "longitude": 6.854975199999999, "race": "Tour du Chablais #2 Rennaz", "date": {"mer. 04.05.2011": {"year": 2011, "day": 4, "month": 5, "categories": {"M-M40": {"distance": 9, "rank": 136, "pace": 305000000000, "time": 2853.9}}, "weekday": "wednesday", "livingplace": "St Maurice"}}, "location": "Bouveret"}, "Tour du Chablais #1 Roche": {"latitude": 46.2957462, "longitude": 6.9916269, "race": "Tour du Chablais #1 Roche", "date": {"mer. 03.04.2013": {"year": 2013, "day": 3, "month": 4, "categories": {"M-M40": {"distance": 9, "rank": 80, "pace": 280000000000, "time": 2488.9}}, "weekday": "wednesday", "livingplace": "St Maurice"}}, "location": "Ollon VD"}, "Tour du Chablais #4 Morgins": {"latitude": NaN, "longitude": NaN, "race": "Tour du Chablais #4 Morgins", "date": {"mer. 18.05.2011": {"year": 2011, "day": 18, "month": 5, "categories": {"M-M40": {"distance": 8, "rank": 109, "pace": 313000000000, "time": 2614.4}}, "weekday": "wednesday", "livingplace": "St Maurice"}}, "location": "Les Mosses"}, "Tour du Chablais #3 Le Bouveret": {"latitude": 46.1782231, "longitude": 7.0223787, "race": "Tour du Chablais #3 Le Bouveret", "date": {"mer. 11.05.2011": {"year": 2011, "day": 11, "month": 5, "categories": {"M-M40": {"distance": 10, "rank": 114, "pace": 296000000000, "time": 2960.4}}, "weekday": "wednesday", "livingplace": "St Maurice"}}, "location": "Evionnaz"}, "Tour du Chablais #6 Monthey": {"latitude": 46.3190253, "longitude": 6.970566, "race": "Tour du Chablais #6 Monthey", "date": {"mer. 08.05.2013": {"year": 2013, "day": 8, "month": 5, "categories": {"M-M40": {"distance": 9, "rank": 111, "pace": 298000000000, "time": 2779.4}}, "weekday": "wednesday", "livingplace": "St Maurice"}}, "location": "Aigle"}, "Tour du Chablais #1 Lavey": {"latitude": 46.2957462, "longitude": 6.9916269, "race": "Tour du Chablais #1 Lavey", "date": {"mer. 27.04.2011": {"year": 2011, "day": 27, "month": 4, "categories": {"M-M40": {"distance": 9, "rank": 129, "pace": 310000000000, "time": 2796.6}}, "weekday": "wednesday", "livingplace": "St Maurice"}}, "location": "Ollon VD"}, "Tour du Chablais #4 Champ\u00e9ry": {"latitude": NaN, "longitude": NaN, "race": "Tour du Chablais #4 Champ\u00e9ry", "date": {"mer. 02.05.2012": {"year": 2012, "day": 2, "month": 5, "categories": {"M-M40": {"distance": 8, "rank": 84, "pace": 286000000000, "time": 2378.1}}, "weekday": "wednesday", "livingplace": "St Maurice"}}, "location": "Les Mosses"}, "Tour du Chablais #2 Yvorne": {"latitude": 46.3835529, "longitude": 6.854975199999999, "race": "Tour du Chablais #2 Yvorne", "date": {"mer. 10.04.2013": {"year": 2013, "day": 10, "month": 4, "categories": {"M-M40": {"distance": 8, "rank": 76, "pace": 310000000000, "time": 2486.8}}, "weekday": "wednesday", "livingplace": "St Maurice"}}, "location": "Bouveret"}, "Tour du Chablais #5 Bex": {"latitude": 46.3603257, "longitude": 6.931504599999999, "race": "Tour du Chablais #5 Bex", "date": {"mer. 09.05.2012": {"year": 2012, "day": 9, "month": 5, "categories": {"M-M40": {"distance": 9, "rank": 82, "pace": 282000000000, "time": 2499.5}}, "weekday": "wednesday", "livingplace": "St Maurice"}}, "location": "Roche VD"}, "Tour du Chablais #6 Mouthey": {"latitude": 46.3190253, "longitude": 6.970566, "race": "Tour du Chablais #6 Mouthey", "date": {"mer. 12.05.2010": {"year": 2010, "day": 12, "month": 5, "categories": {"M-M40": {"distance": 9, "rank": 122, "pace": 292000000000, "time": 2693.4}}, "weekday": "wednesday", "livingplace": "St Maurice"}}, "location": "Aigle"}, "Tour du Chablais #3 Bouveret": {"latitude": 46.1782231, "longitude": 7.0223787, "race": "Tour du Chablais #3 Bouveret", "date": {"mer. 17.04.2013": {"year": 2013, "day": 17, "month": 4, "categories": {"M-M40": {"distance": 10, "rank": 97, "pace": 292000000000, "time": 2920.8}}, "weekday": "wednesday", "livingplace": "St Maurice"}}, "location": "Evionnaz"}, "Tour du Chablais #1 Montreux": {"latitude": 46.2957462, "longitude": 6.9916269, "race": "Tour du Chablais #1 Montreux", "date": {"mer. 11.04.2012": {"year": 2012, "day": 11, "month": 4, "categories": {"M-M40": {"distance": 8, "rank": 118, "pace": 306000000000, "time": 2332.6}}, "weekday": "wednesday", "livingplace": "St Maurice"}}, "location": "Ollon VD"}, "Tour du Chablais #5 Les Mosses": {"latitude": 46.3603257, "longitude": 6.931504599999999, "race": "Tour du Chablais #5 Les Mosses", "date": {"mer. 25.05.2011": {"year": 2011, "day": 25, "month": 5, "categories": {"M-M40": {"distance": 8, "rank": 80, "pace": 316000000000, "time": 2533.3}}, "weekday": "wednesday", "livingplace": "St Maurice"}}, "location": "Roche VD"}, "Lausanne Marathon": {"latitude": 46.5196535, "longitude": 6.6322734, "race": "Lausanne Marathon", "date": {"dim. 31.10.2010": {"year": 2010, "day": 31, "month": 10, "categories": {"10-H3": {"distance": 10, "rank": 231, "pace": 294000000000, "time": 2943.0}}, "weekday": "sunday", "livingplace": "St Maurice"}, "dim. 30.10.2011": {"year": 2011, "day": 30, "month": 10, "categories": {"21-H3": {"distance": 21, "rank": 631, "pace": 322000000000, "time": 6804.4}}, "weekday": "sunday", "livingplace": "St Maurice"}}, "location": "Lausanne"}, "Tour du Chablais #6 Aigle": {"latitude": 46.3190253, "longitude": 6.970566, "race": "Tour du Chablais #6 Aigle", "date": {"mer. 01.06.2011": {"year": 2011, "day": 1, "month": 6, "categories": {"M-M40": {"distance": 10, "rank": 104, "pace": 288000000000, "time": 2938.8}}, "weekday": "wednesday", "livingplace": "St Maurice"}}, "location": "Aigle"}, "Tour du Chablais #4 St  Maurice": {"latitude": NaN, "longitude": NaN, "race": "Tour du Chablais #4 St  Maurice", "date": {"mer. 24.04.2013": {"year": 2013, "day": 24, "month": 4, "categories": {"M-M40": {"distance": 10, "rank": 86, "pace": 286000000000, "time": 2865.3}}, "weekday": "wednesday", "livingplace": "St Maurice"}}, "location": "Les Mosses"}, "Tour du Chablais #2 Bex": {"latitude": 46.3835529, "longitude": 6.854975199999999, "race": "Tour du Chablais #2 Bex", "date": {"mer. 18.04.2012": {"year": 2012, "day": 18, "month": 4, "categories": {"M-M40": {"distance": 8, "rank": 102, "pace": 291000000000, "time": 2329.4}}, "weekday": "wednesday", "livingplace": "St Maurice"}}, "location": "Bouveret"}, "Tour du Chablais #3 Collombey-Muraz": {"latitude": 46.1782231, "longitude": 7.0223787, "race": "Tour du Chablais #3 Collombey-Muraz", "date": {"mer. 25.04.2012": {"year": 2012, "day": 25, "month": 4, "categories": {"M-M40": {"distance": 9, "rank": 87, "pace": 282000000000, "time": 2537.4}}, "weekday": "wednesday", "livingplace": "St Maurice"}}, "location": "Evionnaz"}, "Tour du Chablais #6 Montreux": {"latitude": 46.3190253, "longitude": 6.970566, "race": "Tour du Chablais #6 Montreux", "date": {"mer. 16.05.2012": {"year": 2012, "day": 16, "month": 5, "categories": {"M-M40": {"distance": 9, "rank": 82, "pace": 271000000000, "time": 2510.9}}, "weekday": "wednesday", "livingplace": "St Maurice"}}, "location": "Aigle"}}, "birth": 1968}