{"name": "Gunziger Sascha", "sex": "M", "races": {"Eiger Ultra Trail, Grindelwald": {"latitude": 46.624164, "longitude": 8.0413962, "race": "Eiger Ultra Trail, Grindelwald", "date": {"sam. 19.07.2014": {"year": 2014, "day": 19, "month": 7, "categories": {"C-H": {"distance": 16, "rank": 20, "pace": 390000000000, "time": 6245.4}}, "weekday": "saturday", "livingplace": "Laupersdorf"}}, "location": "Grindelwald"}, "Gempenlauf, Dornach": {"latitude": 47.4790491, "longitude": 7.6170412, "race": "Gempenlauf, Dornach", "date": {"mer. 04.06.2014": {"year": 2014, "day": 4, "month": 6, "categories": {"M35": {"distance": 8, "rank": 25, "pace": 323000000000, "time": 2521.7}}, "weekday": "wednesday", "livingplace": "Laupersdorf"}}, "location": "Dornach"}, "Kerzerslauf": {"latitude": 46.97488999999999, "longitude": 7.1954365, "race": "Kerzerslauf", "date": {"sam. 21.03.2009": {"year": 2009, "day": 21, "month": 3, "categories": {"15-M20": {"distance": 15, "rank": 310, "pace": 279000000000, "time": 4199.4}}, "weekday": "saturday", "livingplace": "Laupersdorf"}}, "location": "Kerzers"}, "Bieler Lauftage, Biel Bienne": {"latitude": 47.1367785, "longitude": 7.2467909, "race": "Bieler Lauftage, Biel Bienne", "date": {"ven. 13.06.2008": {"year": 2008, "day": 13, "month": 6, "categories": {"H/M30": {"distance": 21, "rank": 16, "pace": 296000000000, "time": 6259.2}}, "weekday": "friday", "livingplace": "Laupersdorf"}}, "location": "Biel/Bienne"}, "Z\u00fcrich Marathon, Teamrun und Cityrun": {"latitude": 47.3768866, "longitude": 8.541694, "race": "Z\u00fcrich Marathon, Teamrun und Cityrun", "date": {"dim. 26.04.2009": {"year": 2009, "day": 26, "month": 4, "categories": {"M30": {"distance": 42, "rank": 598, "pace": 325000000000, "time": 13719.1}}, "weekday": "sunday", "livingplace": "Laupersdorf"}}, "location": "Z\u00fcrich"}}, "birth": 1975}