{"name": "Gurtner No\u00e9", "sex": "M", "races": {"BCN Tour Les Ponts de Martel": {"latitude": 46.9262933, "longitude": 6.6324944, "race": "BCN Tour Les Ponts de Martel", "date": {"mer. 18.05.2011": {"year": 2011, "day": 18, "month": 5, "categories": {"KG2": {"distance": 2, "rank": 29, "pace": 248000000000, "time": 489.4}}, "weekday": "wednesday", "livingplace": "Colombier"}}, "location": "Couvet"}, "BCN Tour M\u00f4tier": {"latitude": 46.9262933, "longitude": 6.6324944, "race": "BCN Tour M\u00f4tier", "date": {"mer. 19.05.2010": {"year": 2010, "day": 19, "month": 5, "categories": {"KG2": {"distance": 2, "rank": 30, "pace": 250000000000, "time": 451.7}}, "weekday": "wednesday", "livingplace": "Colombier"}}, "location": "Couvet"}, "BCN Tour La Br\u00e9vine": {"latitude": 46.999113, "longitude": 6.733554799999999, "race": "BCN Tour La Br\u00e9vine", "date": {"mer. 04.05.2011": {"year": 2011, "day": 4, "month": 5, "categories": {"KG2": {"distance": 2, "rank": 31, "pace": 272000000000, "time": 518.2}}, "weekday": "wednesday", "livingplace": "Colombier"}}, "location": "Les Ponts-de-Martel"}, "BCN Tour Fontaine Cernier": {"latitude": 47.0624261, "longitude": 6.9175754, "race": "BCN Tour Fontaine Cernier", "date": {"mer. 27.04.2011": {"year": 2011, "day": 27, "month": 4, "categories": {"KG2": {"distance": 2, "rank": 35, "pace": 315000000000, "time": 535.9}}, "weekday": "wednesday", "livingplace": "Colombier"}}, "location": "Ch\u00e9zard-St-Martin"}, "BCN Tour Ponts-de-Martel": {"latitude": 47.0624261, "longitude": 6.9175754, "race": "BCN Tour Ponts-de-Martel", "date": {"mer. 28.04.2010": {"year": 2010, "day": 28, "month": 4, "categories": {"KG2": {"distance": 2, "rank": 45, "pace": 227000000000, "time": 500.5}}, "weekday": "wednesday", "livingplace": "Colombier"}}, "location": "Ch\u00e9zard-St-Martin"}, "BCN Tour Le Landeron": {"latitude": 46.9668714, "longitude": 6.8589727, "race": "BCN Tour Le Landeron", "date": {"mer. 22.04.2009": {"year": 2009, "day": 22, "month": 4, "categories": {"KG1": {"distance": 2, "rank": 9, "pace": 255000000000, "time": 511.1}}, "weekday": "wednesday", "livingplace": "Colombier"}}, "location": "Colombier NE"}, "BCN Tour La Chaux-de-Fonds": {"latitude": 47.1034892, "longitude": 6.832783800000001, "race": "BCN Tour La Chaux-de-Fonds", "date": {"mer. 11.05.2011": {"year": 2011, "day": 11, "month": 5, "categories": {"KG2": {"distance": 1, "rank": 27, "pace": 442000000000, "time": 429.7}}, "weekday": "wednesday", "livingplace": "Colombier"}}, "location": "La Chaux-de-Fonds"}, "BCN Tour Le Locle": {"latitude": 46.999113, "longitude": 6.733554799999999, "race": "BCN Tour Le Locle", "date": {"mer. 05.05.2010": {"year": 2010, "day": 5, "month": 5, "categories": {"KG2": {"distance": 2, "rank": 36, "pace": 284000000000, "time": 512.6}}, "weekday": "wednesday", "livingplace": "Colombier"}}, "location": "Les Ponts-de-Martel"}, "BCN Tour Neuch\u00e2tel": {"latitude": 46.9899874, "longitude": 6.9292732, "race": "BCN Tour Neuch\u00e2tel", "date": {"mer. 26.05.2010": {"year": 2010, "day": 26, "month": 5, "categories": {"KG2": {"distance": 2, "rank": 36, "pace": 232000000000, "time": 349.2}}, "weekday": "wednesday", "livingplace": "Colombier"}, "mer. 25.05.2011": {"year": 2011, "day": 25, "month": 5, "categories": {"KG2": {"distance": 2, "rank": 59, "pace": 271000000000, "time": 542.5}}, "weekday": "wednesday", "livingplace": "Colombier"}}, "location": "Neuch\u00e2tel"}, "BCN Tour La Chaux-de-fonds": {"latitude": 47.1034892, "longitude": 6.832783800000001, "race": "BCN Tour La Chaux-de-fonds", "date": {"mer. 12.05.2010": {"year": 2010, "day": 12, "month": 5, "categories": {"KG2": {"distance": 1, "rank": 44, "pace": 788000000000, "time": 765.1}}, "weekday": "wednesday", "livingplace": "Colombier"}}, "location": "La Chaux-de-Fonds"}, "BCN Tour Colombier": {"latitude": 46.9668714, "longitude": 6.8589727, "race": "BCN Tour Colombier", "date": {"mer. 23.04.2008": {"year": 2008, "day": 23, "month": 4, "categories": {"KG1": {"distance": 2, "rank": 8, "pace": 324000000000, "time": 648.5}}, "weekday": "wednesday", "livingplace": "Colombier"}, "mer. 21.04.2010": {"year": 2010, "day": 21, "month": 4, "categories": {"KG2": {"distance": 2, "rank": 23, "pace": 292000000000, "time": 585.2}}, "weekday": "wednesday", "livingplace": "Colombier"}}, "location": "Colombier NE"}}, "birth": 2000}