{"name": "Gurtner Bastian", "sex": "M", "races": {"Groupe E Tour Fribourg #4, Siviriez": {"latitude": 46.6585092, "longitude": 6.877722, "race": "Groupe E Tour Fribourg #4, Siviriez", "date": {"mer. 10.09.2014": {"year": 2014, "day": 10, "month": 9, "categories": {"H-Sen1": {"distance": 11, "rank": 62, "pace": 337000000000, "time": 3644.0}}, "weekday": "wednesday", "livingplace": "Fribourg"}}, "location": "Siviriez"}, "Morat-Fribourg": {"latitude": 46.92922110000001, "longitude": 7.120184, "race": "Morat-Fribourg", "date": {"sam. 03.10.2015": {"year": 2015, "day": 3, "month": 10, "categories": {"17-M20": {"distance": 17, "rank": 1447, "pace": 324000000000, "time": 5570.4}}, "weekday": "saturday", "livingplace": "Fribourg"}, "sam. 04.10.2014": {"year": 2014, "day": 4, "month": 10, "categories": {"17-M20": {"distance": 17, "rank": 1405, "pace": 322000000000, "time": 5532.1}}, "weekday": "saturday", "livingplace": "Fribourg"}}, "location": "Murten"}, "Groupe E Tour Fribourg #3, Kerzers": {"latitude": 46.97488999999999, "longitude": 7.1954365, "race": "Groupe E Tour Fribourg #3, Kerzers", "date": {"mer. 03.09.2014": {"year": 2014, "day": 3, "month": 9, "categories": {"H-Sen1": {"distance": 10, "rank": 50, "pace": 289000000000, "time": 2943.5}}, "weekday": "wednesday", "livingplace": "Fribourg"}}, "location": "Kerzers"}, "Groupe E Tour Fribourg #3 Charmey": {"latitude": 46.97488999999999, "longitude": 7.1954365, "race": "Groupe E Tour Fribourg #3 Charmey", "date": {"mer. 04.09.2013": {"year": 2013, "day": 4, "month": 9, "categories": {"HS1": {"distance": 11, "rank": 59, "pace": 326000000000, "time": 3544.8}}, "weekday": "wednesday", "livingplace": "Fribourg"}}, "location": "Kerzers"}, "Groupe E Tour Fribourg #2 Kerzers": {"latitude": 46.6175845, "longitude": 7.1654493, "race": "Groupe E Tour Fribourg #2 Kerzers", "date": {"mer. 28.08.2013": {"year": 2013, "day": 28, "month": 8, "categories": {"HS1": {"distance": 12, "rank": 56, "pace": 301000000000, "time": 3569.5}}, "weekday": "wednesday", "livingplace": "Fribourg"}}, "location": "Charmey (Gruy\u00e8re)"}, "Groupe E Tour Fribourg #5, Givisiez": {"latitude": 46.8128615, "longitude": 7.131657799999999, "race": "Groupe E Tour Fribourg #5, Givisiez", "date": {"mer. 17.09.2014": {"year": 2014, "day": 17, "month": 9, "categories": {"H-Sen1": {"distance": 10, "rank": 62, "pace": 298000000000, "time": 3067.6}}, "weekday": "wednesday", "livingplace": "Fribourg"}}, "location": "Givisiez"}, "Groupe E Tour Fribourg #1, Cousset": {"latitude": 46.81832, "longitude": 6.977279999999999, "race": "Groupe E Tour Fribourg #1, Cousset", "date": {"mer. 20.08.2014": {"year": 2014, "day": 20, "month": 8, "categories": {"H-Sen1": {"distance": 9, "rank": 68, "pace": 298000000000, "time": 2803.5}}, "weekday": "wednesday", "livingplace": "Fribourg"}}, "location": "Cousset"}}, "birth": 1980}