{"name": "Gyger Damien", "sex": "M", "races": {"BCN Tour La Chaux-de-Fonds": {"latitude": 47.1034892, "longitude": 6.832783800000001, "race": "BCN Tour La Chaux-de-Fonds", "date": {"mer. 11.05.2011": {"year": 2011, "day": 11, "month": 5, "categories": {"HJ": {"distance": 11, "rank": 29, "pace": 328000000000, "time": 3509.8}}, "weekday": "wednesday", "livingplace": "Bole"}}, "location": "La Chaux-de-Fonds"}, "BCN Tour La Br\u00e9vine": {"latitude": 46.999113, "longitude": 6.733554799999999, "race": "BCN Tour La Br\u00e9vine", "date": {"mer. 04.05.2011": {"year": 2011, "day": 4, "month": 5, "categories": {"HJ": {"distance": 10, "rank": 32, "pace": 295000000000, "time": 2959.9}}, "weekday": "wednesday", "livingplace": "Bole"}}, "location": "Les Ponts-de-Martel"}, "BCN Tour Fontaine Cernier": {"latitude": 47.0624261, "longitude": 6.9175754, "race": "BCN Tour Fontaine Cernier", "date": {"mer. 27.04.2011": {"year": 2011, "day": 27, "month": 4, "categories": {"HJ": {"distance": 10, "rank": 44, "pace": 290000000000, "time": 2989.2}}, "weekday": "wednesday", "livingplace": "Bole"}}, "location": "Ch\u00e9zard-St-Martin"}, "BCN Tour Neuch\u00e2tel": {"latitude": 46.9899874, "longitude": 6.9292732, "race": "BCN Tour Neuch\u00e2tel", "date": {"mer. 26.05.2010": {"year": 2010, "day": 26, "month": 5, "categories": {"HJ": {"distance": 10, "rank": 54, "pace": 341000000000, "time": 3314.7}}, "weekday": "wednesday", "livingplace": "Bole"}, "mer. 25.05.2011": {"year": 2011, "day": 25, "month": 5, "categories": {"HJ": {"distance": 11, "rank": 36, "pace": 300000000000, "time": 3424.0}}, "weekday": "wednesday", "livingplace": "Bole"}}, "location": "Neuch\u00e2tel"}, "BCN Tour #5 Colombier": {"latitude": 46.9262933, "longitude": 6.6324944, "race": "BCN Tour #5 Colombier", "date": {"mer. 22.05.2013": {"year": 2013, "day": 22, "month": 5, "categories": {"HJ": {"distance": 11, "rank": 35, "pace": 260000000000, "time": 2731.2}}, "weekday": "wednesday", "livingplace": "Bole"}}, "location": "Couvet"}, "BCN Tour La Chaux-de-fonds": {"latitude": 47.1034892, "longitude": 6.832783800000001, "race": "BCN Tour La Chaux-de-fonds", "date": {"mer. 12.05.2010": {"year": 2010, "day": 12, "month": 5, "categories": {"HJ": {"distance": 11, "rank": 44, "pace": 369000000000, "time": 3951.1}}, "weekday": "wednesday", "livingplace": "Bole"}}, "location": "La Chaux-de-Fonds"}, "BCN Tour Boudry": {"latitude": 46.9668714, "longitude": 6.8589727, "race": "BCN Tour Boudry", "date": {"mer. 26.04.2006": {"year": 2006, "day": 26, "month": 4, "categories": {"KG3": {"distance": 3, "rank": 22, "pace": 251000000000, "time": 831.4}}, "weekday": "wednesday", "livingplace": "Colombier"}}, "location": "Colombier NE"}, "BCN Tour Auvernier": {"latitude": 46.9668714, "longitude": 6.8589727, "race": "BCN Tour Auvernier", "date": {"mer. 20.04.2011": {"year": 2011, "day": 20, "month": 4, "categories": {"HJ": {"distance": 11, "rank": 38, "pace": 316000000000, "time": 3422.2}}, "weekday": "wednesday", "livingplace": "Bole"}}, "location": "Colombier NE"}, "BCN Tour #3 Dombresson": {"latitude": 46.999113, "longitude": 6.733554799999999, "race": "BCN Tour #3 Dombresson", "date": {"mer. 08.05.2013": {"year": 2013, "day": 8, "month": 5, "categories": {"HJ": {"distance": 10, "rank": 32, "pace": 274000000000, "time": 2721.8}}, "weekday": "wednesday", "livingplace": "Bole"}}, "location": "Les Ponts-de-Martel"}, "BCN Tour #2 La Chaux-de-Fonds": {"latitude": 47.0624261, "longitude": 6.9175754, "race": "BCN Tour #2 La Chaux-de-Fonds", "date": {"mer. 01.05.2013": {"year": 2013, "day": 1, "month": 5, "categories": {"HJ": {"distance": 11, "rank": 36, "pace": 286000000000, "time": 3064.5}}, "weekday": "wednesday", "livingplace": "Bole"}}, "location": "Ch\u00e9zard-St-Martin"}}, "birth": 1994}