{"name": "Habl\u00fctzel Steve", "sex": "M", "races": {"Groupe E Tour Fribourg #4, Siviriez": {"latitude": 46.6585092, "longitude": 6.877722, "race": "Groupe E Tour Fribourg #4, Siviriez", "date": {"mer. 10.09.2014": {"year": 2014, "day": 10, "month": 9, "categories": {"H-Sen1": {"distance": 11, "rank": 39, "pace": 317000000000, "time": 3426.8}}, "weekday": "wednesday", "livingplace": "Middes"}}, "location": "Siviriez"}, "Morat-Fribourg": {"latitude": 46.92922110000001, "longitude": 7.120184, "race": "Morat-Fribourg", "date": {"sam. 03.10.2015": {"year": 2015, "day": 3, "month": 10, "categories": {"17-M20": {"distance": 17, "rank": 1181, "pace": 310000000000, "time": 5329.2}}, "weekday": "saturday", "livingplace": "Middes"}, "sam. 04.10.2014": {"year": 2014, "day": 4, "month": 10, "categories": {"17-M20": {"distance": 17, "rank": 1122, "pace": 307000000000, "time": 5277.4}}, "weekday": "saturday", "livingplace": "Middes"}}, "location": "Murten"}, "Corrida Bulloise, Bulle": {"latitude": 46.6154512, "longitude": 7.057726799999999, "race": "Corrida Bulloise, Bulle", "date": {"sam. 21.11.2015": {"year": 2015, "day": 21, "month": 11, "categories": {"Pop-Hom": {"distance": 6, "rank": 133, "pace": 268000000000, "time": 1649.5}}, "weekday": "saturday", "livingplace": "Middes"}}, "location": "Bulle"}, "Groupe E Tour Fribourg #5 Fribourg": {"latitude": 46.8128615, "longitude": 7.131657799999999, "race": "Groupe E Tour Fribourg #5 Fribourg", "date": {"mer. 26.09.2012": {"year": 2012, "day": 26, "month": 9, "categories": {"HS1": {"distance": 11, "rank": 62, "pace": 323000000000, "time": 3462.8}}, "weekday": "wednesday", "livingplace": "Middes"}}, "location": "Givisiez"}, "Groupe E Tour Fribourg #3 Estavayer-le-Lac": {"latitude": 46.97488999999999, "longitude": 7.1954365, "race": "Groupe E Tour Fribourg #3 Estavayer-le-Lac", "date": {"mer. 12.09.2012": {"year": 2012, "day": 12, "month": 9, "categories": {"HS1": {"distance": 10, "rank": 57, "pace": 291000000000, "time": 2876.3}}, "weekday": "wednesday", "livingplace": "Middes"}}, "location": "Kerzers"}, "Groupe E Tour Fribourg #4 Montagny": {"latitude": 46.6585092, "longitude": 6.877722, "race": "Groupe E Tour Fribourg #4 Montagny", "date": {"mer. 11.09.2013": {"year": 2013, "day": 11, "month": 9, "categories": {"HS1": {"distance": 10, "rank": 64, "pace": 300000000000, "time": 2949.7}}, "weekday": "wednesday", "livingplace": "Middes"}}, "location": "Siviriez"}, "Kerzerslauf": {"latitude": 46.97488999999999, "longitude": 7.1954365, "race": "Kerzerslauf", "date": {"sam. 21.03.2015": {"year": 2015, "day": 21, "month": 3, "categories": {"15-M35": {"distance": 15, "rank": 103, "pace": 261000000000, "time": 3922.6}}, "weekday": "saturday", "livingplace": "Middes"}}, "location": "Kerzers"}, "Groupe E Tour Fribourg #1, Cousset": {"latitude": 46.81832, "longitude": 6.977279999999999, "race": "Groupe E Tour Fribourg #1, Cousset", "date": {"mer. 20.08.2014": {"year": 2014, "day": 20, "month": 8, "categories": {"H-Sen1": {"distance": 9, "rank": 42, "pace": 274000000000, "time": 2584.3}}, "weekday": "wednesday", "livingplace": "Middes"}}, "location": "Cousset"}}, "birth": 1979}