{"name": "Haefely Simon", "sex": "M", "races": {"IWB Basel Marathon": {"latitude": 47.5595986, "longitude": 7.5885761, "race": "IWB Basel Marathon", "date": {"dim. 23.09.2012": {"year": 2012, "day": 23, "month": 9, "categories": {"H-21-M30": {"distance": 21, "rank": 225, "pace": 410000000000, "time": 8661.0}}, "weekday": "sunday", "livingplace": "Mumliswil"}}, "location": "Basel"}, "ASICS Bremgarter Reusslauf": {"latitude": 47.34917739999999, "longitude": 8.3397905, "race": "ASICS Bremgarter Reusslauf", "date": {"sam. 23.02.2013": {"year": 2013, "day": 23, "month": 2, "categories": {"11-M30": {"distance": 11, "rank": 282, "pace": 304000000000, "time": 3352.0}}, "weekday": "saturday", "livingplace": "Mumliswil"}, "sam. 25.02.2012": {"year": 2012, "day": 25, "month": 2, "categories": {"M30": {"distance": 11, "rank": 347, "pace": 310000000000, "time": 3417.7}}, "weekday": "saturday", "livingplace": "Mumliswil"}, "sam. 22.02.2014": {"year": 2014, "day": 22, "month": 2, "categories": {"11-M30": {"distance": 11, "rank": 306, "pace": 291000000000, "time": 3203.8}}, "weekday": "saturday", "livingplace": "Mumliswil"}}, "location": "Bremgarten AG"}, "SwissCityMarathon - Lucerne, Luzern": {"latitude": 47.05016819999999, "longitude": 8.3093072, "race": "SwissCityMarathon - Lucerne, Luzern", "date": {"dim. 26.10.2014": {"year": 2014, "day": 26, "month": 10, "categories": {"M-M30": {"distance": 42, "rank": 337, "pace": 414000000000, "time": 17503.6}}, "weekday": "sunday", "livingplace": "Mumliswil"}}, "location": "Luzern"}, "Gempenlauf, Dornach": {"latitude": 47.4790491, "longitude": 7.6170412, "race": "Gempenlauf, Dornach", "date": {"mer. 04.06.2014": {"year": 2014, "day": 4, "month": 6, "categories": {"M35": {"distance": 8, "rank": 37, "pace": 364000000000, "time": 2839.3}}, "weekday": "wednesday", "livingplace": "Mumliswil"}}, "location": "Dornach"}, "Kerzerslauf": {"latitude": 46.97488999999999, "longitude": 7.1954365, "race": "Kerzerslauf", "date": {"sam. 21.03.2015": {"year": 2015, "day": 21, "month": 3, "categories": {"15-M35": {"distance": 15, "rank": 325, "pace": 322000000000, "time": 4836.0}}, "weekday": "saturday", "livingplace": "Mumliswil"}, "sam. 16.03.2013": {"year": 2013, "day": 16, "month": 3, "categories": {"15-M35": {"distance": 15, "rank": 314, "pace": 336000000000, "time": 5040.8}}, "weekday": "saturday", "livingplace": "Mumliswil"}}, "location": "Kerzers"}, "Morat-Fribourg": {"latitude": 46.92922110000001, "longitude": 7.120184, "race": "Morat-Fribourg", "date": {"sam. 03.10.2015": {"year": 2015, "day": 3, "month": 10, "categories": {"17-M20": {"distance": 17, "rank": 2014, "pace": 370000000000, "time": 6358.3}}, "weekday": "saturday", "livingplace": "Mumliswil"}}, "location": "Murten"}}, "birth": 1977}