{"name": "Haerri Claude-Alain", "sex": "M", "races": {"Grand Prix Craft, Neuch\u00e2tel": {"latitude": 46.9899874, "longitude": 6.9292732, "race": "Grand Prix Craft, Neuch\u00e2tel", "date": {"dim. 16.12.2007": {"year": 2007, "day": 16, "month": 12, "categories": {"HS2": {"distance": 7, "rank": 41, "pace": 278000000000, "time": 1948.6}}, "weekday": "sunday", "livingplace": "Corcelles"}}, "location": "Neuch\u00e2tel"}, "BCN Tour Couvet": {"latitude": 47.0624261, "longitude": 6.9175754, "race": "BCN Tour Couvet", "date": {"mer. 02.05.2012": {"year": 2012, "day": 2, "month": 5, "categories": {"HS2": {"distance": 11, "rank": 229, "pace": 344000000000, "time": 3845.0}}, "weekday": "wednesday", "livingplace": "Corcelles"}}, "location": "Ch\u00e9zard-St-Martin"}, "Morat-Fribourg": {"latitude": 46.92922110000001, "longitude": 7.120184, "race": "Morat-Fribourg", "date": {"sam. 06.10.2012": {"year": 2012, "day": 6, "month": 10, "categories": {"17-M45": {"distance": 17, "rank": 598, "pace": 353000000000, "time": 6170.8}}, "weekday": "saturday", "livingplace": "Corcelles"}, "sam. 02.10.2010": {"year": 2010, "day": 2, "month": 10, "categories": {"17-M45": {"distance": 17, "rank": 575, "pace": 359000000000, "time": 6177.4}}, "weekday": "saturday", "livingplace": "Corcelles"}, "sam. 05.10.2013": {"year": 2013, "day": 5, "month": 10, "categories": {"17-M50": {"distance": 17, "rank": 367, "pace": 333000000000, "time": 5822.8}}, "weekday": "saturday", "livingplace": "Corcelles"}, "sam. 03.10.2009": {"year": 2009, "day": 3, "month": 10, "categories": {"C-M45": {"distance": 17, "rank": 562, "pace": 349000000000, "time": 6002.4}}, "weekday": "saturday", "livingplace": "Corcelles"}, "sam. 01.10.2011": {"year": 2011, "day": 1, "month": 10, "categories": {"17-M45": {"distance": 17, "rank": 397, "pace": 317000000000, "time": 5450.4}}, "weekday": "saturday", "livingplace": "Corcelles"}, "sam. 04.10.2014": {"year": 2014, "day": 4, "month": 10, "categories": {"17-M50": {"distance": 17, "rank": 333, "pace": 333000000000, "time": 5717.8}}, "weekday": "saturday", "livingplace": "Corcelles"}}, "location": "Murten"}, "BCN Tour Les Ponts-de-Martel": {"latitude": 46.999113, "longitude": 6.733554799999999, "race": "BCN Tour Les Ponts-de-Martel", "date": {"mer. 09.05.2012": {"year": 2012, "day": 9, "month": 5, "categories": {"HS2": {"distance": 10, "rank": 215, "pace": 333000000000, "time": 3438.1}}, "weekday": "wednesday", "livingplace": "Corcelles"}}, "location": "Les Ponts-de-Martel"}, "BCN Tour Fontaine Cernier": {"latitude": 47.0624261, "longitude": 6.9175754, "race": "BCN Tour Fontaine Cernier", "date": {"mer. 27.04.2011": {"year": 2011, "day": 27, "month": 4, "categories": {"HS2": {"distance": 10, "rank": 276, "pace": 335000000000, "time": 3450.7}}, "weekday": "wednesday", "livingplace": "Corcelles"}}, "location": "Ch\u00e9zard-St-Martin"}, "BCN Tour Le Landeron": {"latitude": 46.9668714, "longitude": 6.8589727, "race": "BCN Tour Le Landeron", "date": {"mer. 22.04.2009": {"year": 2009, "day": 22, "month": 4, "categories": {"HS2": {"distance": 11, "rank": 215, "pace": 344000000000, "time": 3828.7}}, "weekday": "wednesday", "livingplace": "Equipe Celgene 2"}}, "location": "Colombier NE"}, "BCN Tour Ponts-de-Martel": {"latitude": 47.0624261, "longitude": 6.9175754, "race": "BCN Tour Ponts-de-Martel", "date": {"mer. 28.04.2010": {"year": 2010, "day": 28, "month": 4, "categories": {"HS2": {"distance": 11, "rank": 273, "pace": 368000000000, "time": 4124.2}}, "weekday": "wednesday", "livingplace": "Corcelles"}}, "location": "Ch\u00e9zard-St-Martin"}, "BCN Tour Cornaux": {"latitude": 46.9668714, "longitude": 6.8589727, "race": "BCN Tour Cornaux", "date": {"mer. 25.04.2012": {"year": 2012, "day": 25, "month": 4, "categories": {"HS2": {"distance": 11, "rank": 231, "pace": 382000000000, "time": 4203.5}}, "weekday": "wednesday", "livingplace": "Corcelles"}}, "location": "Colombier NE"}, "BCN Tour La Chaux-de-Fonds": {"latitude": 47.1034892, "longitude": 6.832783800000001, "race": "BCN Tour La Chaux-de-Fonds", "date": {"mer. 23.05.2012": {"year": 2012, "day": 23, "month": 5, "categories": {"HS2": {"distance": 11, "rank": 253, "pace": 342000000000, "time": 3703.3}}, "weekday": "wednesday", "livingplace": "Corcelles"}, "mer. 11.05.2011": {"year": 2011, "day": 11, "month": 5, "categories": {"HS2": {"distance": 11, "rank": 229, "pace": 382000000000, "time": 4090.1}}, "weekday": "wednesday", "livingplace": "Corcelles"}}, "location": "La Chaux-de-Fonds"}, "BCN Tour La Br\u00e9vine": {"latitude": 46.999113, "longitude": 6.733554799999999, "race": "BCN Tour La Br\u00e9vine", "date": {"mer. 04.05.2011": {"year": 2011, "day": 4, "month": 5, "categories": {"HS2": {"distance": 10, "rank": 259, "pace": 350000000000, "time": 3502.9}}, "weekday": "wednesday", "livingplace": "Corcelles"}}, "location": "Les Ponts-de-Martel"}, "BCN Tour Neuch\u00e2tel": {"latitude": 46.9899874, "longitude": 6.9292732, "race": "BCN Tour Neuch\u00e2tel", "date": {"mer. 26.05.2010": {"year": 2010, "day": 26, "month": 5, "categories": {"HS2": {"distance": 10, "rank": 299, "pace": 474000000000, "time": 4601.7}}, "weekday": "wednesday", "livingplace": "Corcelles"}, "mer. 30.05.2012": {"year": 2012, "day": 30, "month": 5, "categories": {"HS2": {"distance": 11, "rank": 231, "pace": 354000000000, "time": 3971.2}}, "weekday": "wednesday", "livingplace": "Corcelles"}, "mer. 25.05.2011": {"year": 2011, "day": 25, "month": 5, "categories": {"HS2": {"distance": 11, "rank": 250, "pace": 353000000000, "time": 4034.8}}, "weekday": "wednesday", "livingplace": "Corcelles"}}, "location": "Neuch\u00e2tel"}, "BCN Tour Les Ponts de Martel": {"latitude": 46.9262933, "longitude": 6.6324944, "race": "BCN Tour Les Ponts de Martel", "date": {"mer. 18.05.2011": {"year": 2011, "day": 18, "month": 5, "categories": {"HS2": {"distance": 13, "rank": 214, "pace": 335000000000, "time": 4296.9}}, "weekday": "wednesday", "livingplace": "Corcelles"}}, "location": "Couvet"}, "BCN Tour M\u00f4tier": {"latitude": 46.9262933, "longitude": 6.6324944, "race": "BCN Tour M\u00f4tier", "date": {"mer. 19.05.2010": {"year": 2010, "day": 19, "month": 5, "categories": {"HS2": {"distance": 10, "rank": 217, "pace": 324000000000, "time": 3214.3}}, "weekday": "wednesday", "livingplace": "Corcelles"}}, "location": "Couvet"}, "BCN Tour Boudry": {"latitude": 46.9668714, "longitude": 6.8589727, "race": "BCN Tour Boudry", "date": {"mer. 26.04.2006": {"year": 2006, "day": 26, "month": 4, "categories": {"HS2": {"distance": 10, "rank": 204, "pace": 338000000000, "time": 3453.3}}, "weekday": "wednesday", "livingplace": "Corcelles"}}, "location": "Colombier NE"}, "BCN Tour Colombier": {"latitude": 46.9668714, "longitude": 6.8589727, "race": "BCN Tour Colombier", "date": {"mer. 16.05.2012": {"year": 2012, "day": 16, "month": 5, "categories": {"HS2": {"distance": 11, "rank": 261, "pace": 330000000000, "time": 3569.4}}, "weekday": "wednesday", "livingplace": "Corcelles"}, "mer. 23.04.2008": {"year": 2008, "day": 23, "month": 4, "categories": {"HS2": {"distance": 10, "rank": 181, "pace": 343000000000, "time": 3508.4}}, "weekday": "wednesday", "livingplace": "Corcelles"}, "mer. 21.04.2010": {"year": 2010, "day": 21, "month": 4, "categories": {"HS2": {"distance": 10, "rank": 273, "pace": 390000000000, "time": 3908.1}}, "weekday": "wednesday", "livingplace": "Corcelles"}}, "location": "Colombier NE"}}, "birth": 1963}