{"name": "Hagenbach Pascal", "sex": "M", "races": {"Basler Stadtlauf": {"latitude": 47.5595986, "longitude": 7.5885761, "race": "Basler Stadtlauf", "date": {"sam. 29.11.2003": {"year": 2003, "day": 29, "month": 11, "categories": {"N": {"distance": 6, "rank": 41, "pace": 227000000000, "time": 1250.7}}, "weekday": "saturday", "livingplace": "Schwieberdingen"}}, "location": "Basel"}, "Lucerne Marathon, Luzern": {"latitude": 47.05016819999999, "longitude": 8.3093072, "race": "Lucerne Marathon, Luzern", "date": {"dim. 25.10.2009": {"year": 2009, "day": 25, "month": 10, "categories": {"M-M40": {"distance": 42, "rank": 75, "pace": 270000000000, "time": 11405.3}}, "weekday": "sunday", "livingplace": "Schwieberdingen"}}, "location": "Luzern"}, "Jungfrau-Marathon, Interlaken": {"latitude": NaN, "longitude": NaN, "race": "Jungfrau-Marathon, Interlaken", "date": {"sam. 10.09.2005": {"year": 2005, "day": 10, "month": 9, "categories": {"M40": {"distance": 42, "rank": 58, "pace": 353000000000, "time": 14912.5}}, "weekday": "saturday", "livingplace": "Schwieberdingen"}}, "location": "Interlaken"}, "D\u00e9fi Val-de-Travers, Couvet": {"latitude": 46.9262933, "longitude": 6.6324944, "race": "D\u00e9fi Val-de-Travers, Couvet", "date": {"sam. 20.06.2009": {"year": 2009, "day": 20, "month": 6, "categories": {"DHS1": {"distance": 75, "rank": 11, "pace": 378000000000, "time": 28389.3}}, "weekday": "saturday", "livingplace": "Schwieberdingen"}}, "location": "Couvet"}, "Bieler Lauftage, Biel Bienne": {"latitude": 47.1367785, "longitude": 7.2467909, "race": "Bieler Lauftage, Biel Bienne", "date": {"ven. 09.06.2006": {"year": 2006, "day": 9, "month": 6, "categories": {"100/M45": {"distance": 100, "rank": 3, "pace": 303000000000, "time": 30339.4}}, "weekday": "friday", "livingplace": "Schwieberdingen"}, "ven. 17.06.2005": {"year": 2005, "day": 17, "month": 6, "categories": {"100/M40": {"distance": 100, "rank": 14, "pace": 327000000000, "time": 32762.9}}, "weekday": "friday", "livingplace": "Schwieberdingen"}}, "location": "Biel/Bienne"}, "Z\u00fcrich Marathon, Teamrun und Cityrun": {"latitude": 47.3768866, "longitude": 8.541694, "race": "Z\u00fcrich Marathon, Teamrun und Cityrun", "date": {"dim. 03.04.2005": {"year": 2005, "day": 3, "month": 4, "categories": {"M40": {"distance": 42, "rank": 115, "pace": 260000000000, "time": 11012.8}}, "weekday": "sunday", "livingplace": "Schwieberdingen"}}, "location": "Z\u00fcrich"}}, "birth": 1961}