{"name": "H\u00e4hlen Nils", "sex": "M", "races": {"Bl\u00fcemlisalp-Lauf, Reichenbach": {"latitude": 46.6254387, "longitude": 7.6940529, "race": "Bl\u00fcemlisalp-Lauf, Reichenbach", "date": {"dim. 24.05.2015": {"year": 2015, "day": 24, "month": 5, "categories": {"M30": {"distance": 16, "rank": 26, "pace": 317000000000, "time": 5112.9}}, "weekday": "sunday", "livingplace": "Spiez"}}, "location": "Reichenbach im Kandertal"}, "Steinh\u00f6lzlilauf, Liebefeld": {"latitude": 46.933331, "longitude": 7.416668, "race": "Steinh\u00f6lzlilauf, Liebefeld", "date": {"dim. 02.12.2012": {"year": 2012, "day": 2, "month": 12, "categories": {"L-S1M": {"distance": 11, "rank": 20, "pace": 290000000000, "time": 3048.6}}, "weekday": "sunday", "livingplace": "Spiez"}}, "location": "Liebefeld"}, "Gurtenclassic, Wabern": {"latitude": 46.92901639999999, "longitude": 7.448973199999999, "race": "Gurtenclassic, Wabern", "date": {"dim. 03.11.2013": {"year": 2013, "day": 3, "month": 11, "categories": {"KM35": {"distance": 8, "rank": 14, "pace": 285000000000, "time": 2395.6}}, "weekday": "sunday", "livingplace": "Spiez"}, "dim. 04.11.2012": {"year": 2012, "day": 4, "month": 11, "categories": {"KM20": {"distance": 8, "rank": 43, "pace": 313000000000, "time": 2633.0}}, "weekday": "sunday", "livingplace": "Spiez"}, "dim. 02.11.2014": {"year": 2014, "day": 2, "month": 11, "categories": {"KM35": {"distance": 8, "rank": 14, "pace": 276000000000, "time": 2319.3}}, "weekday": "sunday", "livingplace": "Spiez"}}, "location": "Wabern"}, "Kerzerslauf": {"latitude": 46.97488999999999, "longitude": 7.1954365, "race": "Kerzerslauf", "date": {"sam. 15.03.2014": {"year": 2014, "day": 15, "month": 3, "categories": {"15-M35": {"distance": 15, "rank": 121, "pace": 259000000000, "time": 3893.9}}, "weekday": "saturday", "livingplace": "Spiez"}, "sam. 16.03.2013": {"year": 2013, "day": 16, "month": 3, "categories": {"15-M35": {"distance": 15, "rank": 142, "pace": 271000000000, "time": 4075.4}}, "weekday": "saturday", "livingplace": "Spiez"}}, "location": "Kerzers"}, "Sierre-Zinal, Sierre": {"latitude": 46.29413110000001, "longitude": 7.533536199999999, "race": "Sierre-Zinal, Sierre", "date": {"dim. 10.08.2014": {"year": 2014, "day": 10, "month": 8, "categories": {"ElitesHo": {"distance": 31, "rank": 172, "pace": 434000000000, "time": 13470.3}}, "weekday": "sunday", "livingplace": "Spiez"}}, "location": "Sierre"}}, "birth": 1976}