{"name": "Halbeisen Dylan", "sex": "M", "races": {"BCN Tour Couvet": {"latitude": 47.0624261, "longitude": 6.9175754, "race": "BCN Tour Couvet", "date": {"mer. 02.05.2012": {"year": 2012, "day": 2, "month": 5, "categories": {"KG1": {"distance": 2, "rank": 94, "pace": 371000000000, "time": 669.5}}, "weekday": "wednesday", "livingplace": "Colombier"}}, "location": "Ch\u00e9zard-St-Martin"}, "BCN Tour #1 Corcelles": {"latitude": 46.9668714, "longitude": 6.8589727, "race": "BCN Tour #1 Corcelles", "date": {"mer. 24.04.2013": {"year": 2013, "day": 24, "month": 4, "categories": {"KG1": {"distance": 2, "rank": 40, "pace": 361000000000, "time": 542.7}}, "weekday": "wednesday", "livingplace": "Colombier"}}, "location": "Colombier NE"}, "BCN Tour #4 Fleurier": {"latitude": 47.1034892, "longitude": 6.832783800000001, "race": "BCN Tour #4 Fleurier", "date": {"mer. 15.05.2013": {"year": 2013, "day": 15, "month": 5, "categories": {"KG1": {"distance": 2, "rank": 48, "pace": 205000000000, "time": 308.1}}, "weekday": "wednesday", "livingplace": "Colombier"}}, "location": "La Chaux-de-Fonds"}, "BCN Tour Cornaux": {"latitude": 46.9668714, "longitude": 6.8589727, "race": "BCN Tour Cornaux", "date": {"mer. 25.04.2012": {"year": 2012, "day": 25, "month": 4, "categories": {"KG1": {"distance": 2, "rank": 75, "pace": 347000000000, "time": 521.9}}, "weekday": "wednesday", "livingplace": "Colombier"}}, "location": "Colombier NE"}, "BCN Tour La Chaux-de-Fonds": {"latitude": 46.9262933, "longitude": 6.6324944, "race": "BCN Tour La Chaux-de-Fonds", "date": {"mer. 23.05.2012": {"year": 2012, "day": 23, "month": 5, "categories": {"KG1": {"distance": 2, "rank": 102, "pace": 427000000000, "time": 940.6}}, "weekday": "wednesday", "livingplace": "Colombier"}}, "location": "Couvet"}, "BCN Tour #6 Neuch\u00e2tel": {"latitude": 46.9899874, "longitude": 6.9292732, "race": "BCN Tour #6 Neuch\u00e2tel", "date": {"mer. 29.05.2013": {"year": 2013, "day": 29, "month": 5, "categories": {"KG1": {"distance": 1, "rank": 48, "pace": 272000000000, "time": 354.0}}, "weekday": "wednesday", "livingplace": "Colombier"}}, "location": "Neuch\u00e2tel"}, "BCN Tour Les Ponts-de-Martel": {"latitude": 46.999113, "longitude": 6.733554799999999, "race": "BCN Tour Les Ponts-de-Martel", "date": {"mer. 09.05.2012": {"year": 2012, "day": 9, "month": 5, "categories": {"KG1": {"distance": 2, "rank": 114, "pace": 357000000000, "time": 679.2}}, "weekday": "wednesday", "livingplace": "Colombier"}}, "location": "Les Ponts-de-Martel"}, "BCN Tour Neuch\u00e2tel": {"latitude": 46.9899874, "longitude": 6.9292732, "race": "BCN Tour Neuch\u00e2tel", "date": {"mer. 30.05.2012": {"year": 2012, "day": 30, "month": 5, "categories": {"KG1": {"distance": 2, "rank": 85, "pace": 326000000000, "time": 570.5}}, "weekday": "wednesday", "livingplace": "Colombier"}}, "location": "Neuch\u00e2tel"}, "BCN Tour #5 Colombier": {"latitude": 46.9262933, "longitude": 6.6324944, "race": "BCN Tour #5 Colombier", "date": {"mer. 22.05.2013": {"year": 2013, "day": 22, "month": 5, "categories": {"KG1": {"distance": 1, "rank": 51, "pace": 289000000000, "time": 347.6}}, "weekday": "wednesday", "livingplace": "Colombier"}}, "location": "Couvet"}, "BCN Tour #2 La Chaux-de-Fonds": {"latitude": 47.0624261, "longitude": 6.9175754, "race": "BCN Tour #2 La Chaux-de-Fonds", "date": {"mer. 01.05.2013": {"year": 2013, "day": 1, "month": 5, "categories": {"KG1": {"distance": 1, "rank": 60, "pace": 299000000000, "time": 389.2}}, "weekday": "wednesday", "livingplace": "Colombier"}}, "location": "Ch\u00e9zard-St-Martin"}, "BCN Tour Colombier": {"latitude": 47.1034892, "longitude": 6.832783800000001, "race": "BCN Tour Colombier", "date": {"mer. 16.05.2012": {"year": 2012, "day": 16, "month": 5, "categories": {"KG1": {"distance": 2, "rank": 102, "pace": 389000000000, "time": 583.5}}, "weekday": "wednesday", "livingplace": "Colombier"}}, "location": "La Chaux-de-Fonds"}, "BCN Tour #3 Dombresson": {"latitude": 46.999113, "longitude": 6.733554799999999, "race": "BCN Tour #3 Dombresson", "date": {"mer. 08.05.2013": {"year": 2013, "day": 8, "month": 5, "categories": {"KG1": {"distance": 1, "rank": 66, "pace": 313000000000, "time": 408.0}}, "weekday": "wednesday", "livingplace": "Colombier"}}, "location": "Les Ponts-de-Martel"}}, "birth": 2004}