{"name": "Haldimann Alain", "sex": "M", "races": {"Corrida Bulloise, Bulle": {"latitude": 46.6154512, "longitude": 7.057726799999999, "race": "Corrida Bulloise, Bulle", "date": {"sam. 21.11.2015": {"year": 2015, "day": 21, "month": 11, "categories": {"8-M40": {"distance": 8, "rank": 29, "pace": 238000000000, "time": 1947.8}}, "weekday": "saturday", "livingplace": "La Chaux du Milieu"}}, "location": "Bulle"}, "BCN Tour Le Locle": {"latitude": 46.999113, "longitude": 6.733554799999999, "race": "BCN Tour Le Locle", "date": {"mer. 05.05.2010": {"year": 2010, "day": 5, "month": 5, "categories": {"HS2": {"distance": 11, "rank": 35, "pace": 257000000000, "time": 2806.1}}, "weekday": "wednesday", "livingplace": "La Chaux du Milieu"}}, "location": "Les Ponts-de-Martel"}, "BCN Tour #1 Corcelles": {"latitude": 46.9668714, "longitude": 6.8589727, "race": "BCN Tour #1 Corcelles", "date": {"mer. 24.04.2013": {"year": 2013, "day": 24, "month": 4, "categories": {"HS2": {"distance": 10, "rank": 23, "pace": 244000000000, "time": 2394.4}}, "weekday": "wednesday", "livingplace": "La Chaux du Milieu"}}, "location": "Colombier NE"}, "BCN Tour #4 Fleurier": {"latitude": 47.1034892, "longitude": 6.832783800000001, "race": "BCN Tour #4 Fleurier", "date": {"mer. 15.05.2013": {"year": 2013, "day": 15, "month": 5, "categories": {"HS2": {"distance": 9, "rank": 21, "pace": 239000000000, "time": 2072.5}}, "weekday": "wednesday", "livingplace": "La Chaux du Milieu"}}, "location": "La Chaux-de-Fonds"}, "BCN Tour #2 La Chaux-de-Fonds": {"latitude": 47.0624261, "longitude": 6.9175754, "race": "BCN Tour #2 La Chaux-de-Fonds", "date": {"mer. 01.05.2013": {"year": 2013, "day": 1, "month": 5, "categories": {"HS2": {"distance": 11, "rank": 29, "pace": 240000000000, "time": 2569.2}}, "weekday": "wednesday", "livingplace": "La Chaux du Milieu"}}, "location": "Ch\u00e9zard-St-Martin"}, "BCN Tour La Chaux-de-Fonds": {"latitude": 47.1034892, "longitude": 6.832783800000001, "race": "BCN Tour La Chaux-de-Fonds", "date": {"mer. 11.05.2011": {"year": 2011, "day": 11, "month": 5, "categories": {"HS2": {"distance": 11, "rank": 26, "pace": 282000000000, "time": 3021.6}}, "weekday": "wednesday", "livingplace": "La Chaux du Milieu"}}, "location": "La Chaux-de-Fonds"}, "BCN Tour #6 Neuch\u00e2tel": {"latitude": 46.9899874, "longitude": 6.9292732, "race": "BCN Tour #6 Neuch\u00e2tel", "date": {"mer. 29.05.2013": {"year": 2013, "day": 29, "month": 5, "categories": {"HS2": {"distance": 11, "rank": 20, "pace": 244000000000, "time": 2693.4}}, "weekday": "wednesday", "livingplace": "La Chaux du Milieu"}}, "location": "Neuch\u00e2tel"}, "BCN Tour La Br\u00e9vine": {"latitude": 46.999113, "longitude": 6.733554799999999, "race": "BCN Tour La Br\u00e9vine", "date": {"mer. 04.05.2011": {"year": 2011, "day": 4, "month": 5, "categories": {"HS2": {"distance": 10, "rank": 31, "pace": 256000000000, "time": 2560.8}}, "weekday": "wednesday", "livingplace": "La Chaux du Milieu"}}, "location": "Les Ponts-de-Martel"}, "BCN Tour Ponts-de-Martel": {"latitude": 47.0624261, "longitude": 6.9175754, "race": "BCN Tour Ponts-de-Martel", "date": {"mer. 28.04.2010": {"year": 2010, "day": 28, "month": 4, "categories": {"HS2": {"distance": 11, "rank": 31, "pace": 259000000000, "time": 2904.9}}, "weekday": "wednesday", "livingplace": "La Chaux du Milieu"}}, "location": "Ch\u00e9zard-St-Martin"}, "BCN Tour Les Ponts de Martel": {"latitude": 46.9262933, "longitude": 6.6324944, "race": "BCN Tour Les Ponts de Martel", "date": {"mer. 18.05.2011": {"year": 2011, "day": 18, "month": 5, "categories": {"HS2": {"distance": 13, "rank": 22, "pace": 252000000000, "time": 3226.1}}, "weekday": "wednesday", "livingplace": "La Chaux du Milieu"}}, "location": "Couvet"}, "BCN Tour #5 Colombier": {"latitude": 46.9262933, "longitude": 6.6324944, "race": "BCN Tour #5 Colombier", "date": {"mer. 22.05.2013": {"year": 2013, "day": 22, "month": 5, "categories": {"HS2": {"distance": 11, "rank": 23, "pace": 223000000000, "time": 2346.9}}, "weekday": "wednesday", "livingplace": "La Chaux du Milieu"}}, "location": "Couvet"}, "BCN Tour #3 Dombresson": {"latitude": 46.999113, "longitude": 6.733554799999999, "race": "BCN Tour #3 Dombresson", "date": {"mer. 08.05.2013": {"year": 2013, "day": 8, "month": 5, "categories": {"HS2": {"distance": 10, "rank": 24, "pace": 238000000000, "time": 2357.8}}, "weekday": "wednesday", "livingplace": "La Chaux du Milieu"}}, "location": "Les Ponts-de-Martel"}}, "birth": 1969}