{"name": "Hamel David", "sex": "M", "races": {"BCN Tour #3 Dombresson": {"latitude": 46.999113, "longitude": 6.733554799999999, "race": "BCN Tour #3 Dombresson", "date": {"mer. 08.05.2013": {"year": 2013, "day": 8, "month": 5, "categories": {"HS1": {"distance": 10, "rank": 102, "pace": 274000000000, "time": 2715.1}}, "weekday": "wednesday", "livingplace": "Motiers"}}, "location": "Les Ponts-de-Martel"}, "BCN Tour M\u00f4tier": {"latitude": 46.9262933, "longitude": 6.6324944, "race": "BCN Tour M\u00f4tier", "date": {"mer. 19.05.2010": {"year": 2010, "day": 19, "month": 5, "categories": {"HS1": {"distance": 10, "rank": 116, "pace": 287000000000, "time": 2845.2}}, "weekday": "wednesday", "livingplace": "Motiers"}}, "location": "Couvet"}, "BCN Tour #6 Neuch\u00e2tel": {"latitude": 46.9899874, "longitude": 6.9292732, "race": "BCN Tour #6 Neuch\u00e2tel", "date": {"mer. 29.05.2013": {"year": 2013, "day": 29, "month": 5, "categories": {"HS1": {"distance": 11, "rank": 72, "pace": 276000000000, "time": 3044.8}}, "weekday": "wednesday", "livingplace": "Motiers"}}, "location": "Neuch\u00e2tel"}, "D\u00e9fi Val-de-Travers, Couvet": {"latitude": 46.9262933, "longitude": 6.6324944, "race": "D\u00e9fi Val-de-Travers, Couvet", "date": {"sam. 21.06.2008": {"year": 2008, "day": 21, "month": 6, "categories": {"EHS1": {"distance": 12, "rank": 7, "pace": 339000000000, "time": 4144.9}}, "weekday": "saturday", "livingplace": "Motiers"}, "sam. 20.06.2009": {"year": 2009, "day": 20, "month": 6, "categories": {"EHS1": {"distance": 12, "rank": 12, "pace": 341000000000, "time": 4165.1}}, "weekday": "saturday", "livingplace": "Motiers"}, "sam. 19.06.2010": {"year": 2010, "day": 19, "month": 6, "categories": {"21-HSen1": {"distance": 20, "rank": 23, "pace": 358000000000, "time": 7064.9}}, "weekday": "saturday", "livingplace": "Motiers"}}, "location": "Couvet"}, "BCN Tour Couvet": {"latitude": 47.0624261, "longitude": 6.9175754, "race": "BCN Tour Couvet", "date": {"mer. 02.05.2012": {"year": 2012, "day": 2, "month": 5, "categories": {"HS1": {"distance": 11, "rank": 126, "pace": 306000000000, "time": 3412.2}}, "weekday": "wednesday", "livingplace": "Motiers"}}, "location": "Ch\u00e9zard-St-Martin"}, "Kerzerslauf": {"latitude": 46.97488999999999, "longitude": 7.1954365, "race": "Kerzerslauf", "date": {"sam. 16.03.2013": {"year": 2013, "day": 16, "month": 3, "categories": {"15-M35": {"distance": 15, "rank": 199, "pace": 287000000000, "time": 4309.0}}, "weekday": "saturday", "livingplace": "Motiers"}}, "location": "Kerzers"}, "BCN Tour #4 Fleurier": {"latitude": 47.1034892, "longitude": 6.832783800000001, "race": "BCN Tour #4 Fleurier", "date": {"mer. 15.05.2013": {"year": 2013, "day": 15, "month": 5, "categories": {"HS1": {"distance": 9, "rank": 83, "pace": 273000000000, "time": 2369.3}}, "weekday": "wednesday", "livingplace": "Motiers"}}, "location": "La Chaux-de-Fonds"}}, "birth": 1975}