{"name": "Hartmann S\u00e9bastien", "sex": "M", "races": {"Tour du Chablais #1 Roche": {"latitude": 46.2957462, "longitude": 6.9916269, "race": "Tour du Chablais #1 Roche", "date": {"mer. 07.04.2010": {"year": 2010, "day": 7, "month": 4, "categories": {"M-M20": {"distance": 9, "rank": 47, "pace": 238000000000, "time": 2133.1}}, "weekday": "wednesday", "livingplace": "Vevey"}}, "location": "Ollon VD"}, "Tour du Chablais #2 Rennaz": {"latitude": 46.3835529, "longitude": 6.854975199999999, "race": "Tour du Chablais #2 Rennaz", "date": {"mer. 04.05.2011": {"year": 2011, "day": 4, "month": 5, "categories": {"M-M20": {"distance": 9, "rank": 55, "pace": 243000000000, "time": 2274.3}}, "weekday": "wednesday", "livingplace": "Chexbres"}}, "location": "Bouveret"}, "Glacier 3000 Run, Gstaad": {"latitude": 46.4717588, "longitude": 7.2865728, "race": "Glacier 3000 Run, Gstaad", "date": {"sam. 10.08.2013": {"year": 2013, "day": 10, "month": 8, "categories": {"M20": {"distance": 26, "rank": 7, "pace": 489000000000, "time": 12738.2}}, "weekday": "saturday", "livingplace": "Montreux"}}, "location": "Gstaad"}, "Course de l'Escalade, Gen\u00e8ve": {"latitude": 46.2043907, "longitude": 6.1431577, "race": "Course de l'Escalade, Gen\u00e8ve", "date": {"sam. 01.12.2012": {"year": 2012, "day": 1, "month": 12, "categories": {"Duc-Hom1": {"distance": 18, "rank": 47, "pace": 258000000000, "time": 4530.2}}, "weekday": "saturday", "livingplace": "Montreux"}}, "location": "Gen\u00e8ve"}, "Tour du Chablais #3 Le Bouveret": {"latitude": 46.1782231, "longitude": 7.0223787, "race": "Tour du Chablais #3 Le Bouveret", "date": {"mer. 11.05.2011": {"year": 2011, "day": 11, "month": 5, "categories": {"M-M20": {"distance": 10, "rank": 57, "pace": 243000000000, "time": 2433.2}}, "weekday": "wednesday", "livingplace": "Chexbres"}}, "location": "Evionnaz"}, "Sierre-Zinal, Sierre": {"latitude": 46.29413110000001, "longitude": 7.533536199999999, "race": "Sierre-Zinal, Sierre", "date": {"dim. 10.08.2014": {"year": 2014, "day": 10, "month": 8, "categories": {"ElitesHo": {"distance": 31, "rank": 286, "pace": 479000000000, "time": 14856.1}}, "weekday": "sunday", "livingplace": "Vevey"}}, "location": "Sierre"}, "20km de Lausanne": {"latitude": 46.5196535, "longitude": 6.6322734, "race": "20km de Lausanne", "date": {"sam. 30.04.2011": {"year": 2011, "day": 30, "month": 4, "categories": {"20-H20": {"distance": 20, "rank": 94, "pace": 263000000000, "time": 5279.1}}, "weekday": "saturday", "livingplace": "Chexbres"}, "sam. 24.04.2010": {"year": 2010, "day": 24, "month": 4, "categories": {"10-H20": {"distance": 10, "rank": 626, "pace": 400000000000, "time": 4001.1}}, "weekday": "saturday", "livingplace": "Vevey"}, "sam. 27.04.2013": {"year": 2013, "day": 27, "month": 4, "categories": {"10-H20": {"distance": 10, "rank": 53, "pace": 245000000000, "time": 2451.4}, "20-H20": {"distance": 20, "rank": 179, "pace": 272000000000, "time": 5454.1}}, "weekday": "saturday", "livingplace": "PowerBar 1"}, "sam. 26.04.2014": {"year": 2014, "day": 26, "month": 4, "categories": {"10-H20": {"distance": 10, "rank": 45, "pace": 246000000000, "time": 2466.0}}, "weekday": "saturday", "livingplace": "Triviera"}}, "location": "Lausanne"}, "Tour du Chablais #1 Lavey": {"latitude": 46.2957462, "longitude": 6.9916269, "race": "Tour du Chablais #1 Lavey", "date": {"mer. 27.04.2011": {"year": 2011, "day": 27, "month": 4, "categories": {"M-M20": {"distance": 9, "rank": 68, "pace": 251000000000, "time": 2264.3}}, "weekday": "wednesday", "livingplace": "Chexbres"}}, "location": "Ollon VD"}, "Lausanne Marathon": {"latitude": 46.5196535, "longitude": 6.6322734, "race": "Lausanne Marathon", "date": {"dim. 31.10.2010": {"year": 2010, "day": 31, "month": 10, "categories": {"21-H1": {"distance": 21, "rank": 95, "pace": 266000000000, "time": 5629.5}}, "weekday": "sunday", "livingplace": "Vevey"}}, "location": "Lausanne"}, "Montreux - Les Rochers de Naye": {"latitude": 46.4312213, "longitude": 6.9106799, "race": "Montreux - Les Rochers de Naye", "date": {"dim. 10.07.2011": {"year": 2011, "day": 10, "month": 7, "categories": {"M-HElite": {"distance": 19, "rank": 91, "pace": 433000000000, "time": 8153.2}}, "weekday": "sunday", "livingplace": "Chexbres"}, "dim. 06.07.2014": {"year": 2014, "day": 6, "month": 7, "categories": {"M-HElite": {"distance": 19, "rank": 67, "pace": 412000000000, "time": 7755.2}}, "weekday": "sunday", "livingplace": "Vevey"}, "dim. 05.07.2015": {"year": 2015, "day": 5, "month": 7, "categories": {"M-HElite": {"distance": 19, "rank": 58, "pace": 424000000000, "time": 7975.4}}, "weekday": "sunday", "livingplace": "Chexbres"}}, "location": "Montreux"}, "Tour du Chablais #6 Aigle": {"latitude": 46.3190253, "longitude": 6.970566, "race": "Tour du Chablais #6 Aigle", "date": {"mer. 01.06.2011": {"year": 2011, "day": 1, "month": 6, "categories": {"M-M20": {"distance": 10, "rank": 77, "pace": 245000000000, "time": 2508.3}}, "weekday": "wednesday", "livingplace": "Chexbres"}}, "location": "Aigle"}, "Tour du Chablais #3 Bex": {"latitude": 46.1782231, "longitude": 7.0223787, "race": "Tour du Chablais #3 Bex", "date": {"mer. 21.04.2010": {"year": 2010, "day": 21, "month": 4, "categories": {"M-M20": {"distance": 10, "rank": 49, "pace": 249000000000, "time": 2497.4}}, "weekday": "wednesday", "livingplace": "Vevey"}}, "location": "Evionnaz"}}, "birth": 1986}