{"name": "Haug Franz-Josef", "sex": "M", "races": {"BCN Tour La Chaux-de-Fonds": {"latitude": 47.1034892, "longitude": 6.832783800000001, "race": "BCN Tour La Chaux-de-Fonds", "date": {"mer. 11.05.2011": {"year": 2011, "day": 11, "month": 5, "categories": {"HS2": {"distance": 11, "rank": 296, "pace": 423000000000, "time": 4535.6}}, "weekday": "wednesday", "livingplace": "St Blaise"}}, "location": "La Chaux-de-Fonds"}, "20km de Lausanne": {"latitude": 46.5196535, "longitude": 6.6322734, "race": "20km de Lausanne", "date": {"sam. 25.04.2015": {"year": 2015, "day": 25, "month": 4, "categories": {"10-H45": {"distance": 10, "rank": 260, "pace": 322000000000, "time": 3228.2}}, "weekday": "saturday", "livingplace": "St Blaise"}}, "location": "Lausanne"}, "BCN Tour M\u00f4tier": {"latitude": 46.9262933, "longitude": 6.6324944, "race": "BCN Tour M\u00f4tier", "date": {"mer. 19.05.2010": {"year": 2010, "day": 19, "month": 5, "categories": {"HS2": {"distance": 10, "rank": 231, "pace": 332000000000, "time": 3293.3}}, "weekday": "wednesday", "livingplace": "St Blaise"}}, "location": "Couvet"}, "BCN Tour #6 Neuch\u00e2tel": {"latitude": 46.9899874, "longitude": 6.9292732, "race": "BCN Tour #6 Neuch\u00e2tel", "date": {"mer. 29.05.2013": {"year": 2013, "day": 29, "month": 5, "categories": {"HS2": {"distance": 11, "rank": 265, "pace": 358000000000, "time": 3940.5}}, "weekday": "wednesday", "livingplace": "St Blaise"}}, "location": "Neuch\u00e2tel"}, "BCN Tour Neuch\u00e2tel": {"latitude": 46.9899874, "longitude": 6.9292732, "race": "BCN Tour Neuch\u00e2tel", "date": {"mer. 26.05.2010": {"year": 2010, "day": 26, "month": 5, "categories": {"HS2": {"distance": 10, "rank": 244, "pace": 418000000000, "time": 4060.6}}, "weekday": "wednesday", "livingplace": "St Blaise"}, "mer. 25.05.2011": {"year": 2011, "day": 25, "month": 5, "categories": {"HS2": {"distance": 11, "rank": 251, "pace": 354000000000, "time": 4036.8}}, "weekday": "wednesday", "livingplace": "St Blaise"}}, "location": "Neuch\u00e2tel"}, "BCN Tour Les Ponts de Martel": {"latitude": 46.9262933, "longitude": 6.6324944, "race": "BCN Tour Les Ponts de Martel", "date": {"mer. 18.05.2011": {"year": 2011, "day": 18, "month": 5, "categories": {"HS2": {"distance": 13, "rank": 254, "pace": 355000000000, "time": 4544.6}}, "weekday": "wednesday", "livingplace": "St Blaise"}}, "location": "Couvet"}, "BCN Tour Auvernier": {"latitude": 46.9668714, "longitude": 6.8589727, "race": "BCN Tour Auvernier", "date": {"mer. 20.04.2011": {"year": 2011, "day": 20, "month": 4, "categories": {"HS2": {"distance": 11, "rank": 277, "pace": 371000000000, "time": 4015.7}}, "weekday": "wednesday", "livingplace": "St Blaise"}}, "location": "Colombier NE"}, "BCN Tour Le Locle": {"latitude": 46.999113, "longitude": 6.733554799999999, "race": "BCN Tour Le Locle", "date": {"mer. 05.05.2010": {"year": 2010, "day": 5, "month": 5, "categories": {"HS2": {"distance": 11, "rank": 214, "pace": 345000000000, "time": 3760.6}}, "weekday": "wednesday", "livingplace": "St Blaise"}}, "location": "Les Ponts-de-Martel"}, "BCN Tour La Chaux-de-fonds": {"latitude": 47.1034892, "longitude": 6.832783800000001, "race": "BCN Tour La Chaux-de-fonds", "date": {"mer. 12.05.2010": {"year": 2010, "day": 12, "month": 5, "categories": {"HS2": {"distance": 11, "rank": 140, "pace": 376000000000, "time": 4027.4}}, "weekday": "wednesday", "livingplace": "St Blaise"}}, "location": "La Chaux-de-Fonds"}, "BCN Tour Colombier": {"latitude": 46.9668714, "longitude": 6.8589727, "race": "BCN Tour Colombier", "date": {"mer. 23.04.2008": {"year": 2008, "day": 23, "month": 4, "categories": {"HS1": {"distance": 10, "rank": 72, "pace": 284000000000, "time": 2898.6}}, "weekday": "wednesday", "livingplace": "Courant Solaire"}, "mer. 21.04.2010": {"year": 2010, "day": 21, "month": 4, "categories": {"HS2": {"distance": 10, "rank": 228, "pace": 368000000000, "time": 3688.1}}, "weekday": "wednesday", "livingplace": "St Blaise"}}, "location": "Colombier NE"}, "BCN Tour #4 Fleurier": {"latitude": 47.1034892, "longitude": 6.832783800000001, "race": "BCN Tour #4 Fleurier", "date": {"mer. 15.05.2013": {"year": 2013, "day": 15, "month": 5, "categories": {"HS2": {"distance": 9, "rank": 222, "pace": 335000000000, "time": 2903.6}}, "weekday": "wednesday", "livingplace": "St Blaise"}}, "location": "La Chaux-de-Fonds"}}, "birth": 1969}