{"name": "Haymoz Yvan", "sex": "M", "races": {"10km, Payerne": {"latitude": 46.8220266, "longitude": 6.9405663, "race": "10km, Payerne", "date": {"sam. 10.03.2012": {"year": 2012, "day": 10, "month": 3, "categories": {"M30": {"distance": 10, "rank": 41, "pace": 248000000000, "time": 2482.5}}, "weekday": "saturday", "livingplace": "Riaz"}}, "location": "Payerne"}, "Morat-Fribourg": {"latitude": 46.92922110000001, "longitude": 7.120184, "race": "Morat-Fribourg", "date": {"sam. 05.10.2013": {"year": 2013, "day": 5, "month": 10, "categories": {"17-M20": {"distance": 17, "rank": 170, "pace": 245000000000, "time": 4292.1}}, "weekday": "saturday", "livingplace": "Riaz"}, "sam. 03.10.2015": {"year": 2015, "day": 3, "month": 10, "categories": {"17-M40": {"distance": 17, "rank": 54, "pace": 253000000000, "time": 4360.2}}, "weekday": "saturday", "livingplace": "Riaz"}}, "location": "Murten"}, "Maratona Ticino, Tenero": {"latitude": NaN, "longitude": NaN, "race": "Maratona Ticino, Tenero", "date": {"dim. 10.11.2013": {"year": 2013, "day": 10, "month": 11, "categories": {"M-M20": {"distance": 42, "rank": 11, "pace": 255000000000, "time": 10767.8}}, "weekday": "sunday", "livingplace": "Riaz"}}, "location": "Tenero"}, "Groupe E Tour Fribourg #5 Fribourg": {"latitude": 46.8128615, "longitude": 7.131657799999999, "race": "Groupe E Tour Fribourg #5 Fribourg", "date": {"mer. 18.09.2013": {"year": 2013, "day": 18, "month": 9, "categories": {"HS1": {"distance": 10, "rank": 18, "pace": 243000000000, "time": 2433.7}}, "weekday": "wednesday", "livingplace": "Riaz"}}, "location": "Givisiez"}, "Lausanne Marathon": {"latitude": 46.5196535, "longitude": 6.6322734, "race": "Lausanne Marathon", "date": {"dim. 30.10.2011": {"year": 2011, "day": 30, "month": 10, "categories": {"21-H2": {"distance": 21, "rank": 111, "pace": 260000000000, "time": 5491.8}}, "weekday": "sunday", "livingplace": "Riaz"}}, "location": "Lausanne"}, "Groupe E Tour Fribourg #4 Montagny": {"latitude": 46.6585092, "longitude": 6.877722, "race": "Groupe E Tour Fribourg #4 Montagny", "date": {"mer. 11.09.2013": {"year": 2013, "day": 11, "month": 9, "categories": {"HS1": {"distance": 10, "rank": 21, "pace": 245000000000, "time": 2401.3}}, "weekday": "wednesday", "livingplace": "Riaz"}}, "location": "Siviriez"}}, "birth": 1975}