{"name": "Hefti Andreas", "sex": "M", "races": {"Frauenfelder": {"latitude": NaN, "longitude": NaN, "race": "Frauenfelder", "date": {"dim. 18.11.2007": {"year": 2007, "day": 18, "month": 11, "categories": {"M20": {"distance": 42, "rank": 36, "pace": 483000000000, "time": 20421.2}}, "weekday": "sunday", "livingplace": "Munsingen"}}, "location": "Frauenfeld"}, "Pfingstlauf Wohlen AG": {"latitude": 47.3493653, "longitude": 8.2768762, "race": "Pfingstlauf Wohlen AG", "date": {"sam. 30.05.2009": {"year": 2009, "day": 30, "month": 5, "categories": {"WL-M20": {"distance": 10, "rank": 8, "pace": 370000000000, "time": 3706.4}}, "weekday": "saturday", "livingplace": "Schwyz"}, "sam. 22.05.2010": {"year": 2010, "day": 22, "month": 5, "categories": {"WL-M20": {"distance": 10, "rank": 12, "pace": 379000000000, "time": 3799.8}}, "weekday": "saturday", "livingplace": "Niederwil"}}, "location": "Wohlen AG"}, "Lenzburger Lauf": {"latitude": 47.3904443, "longitude": 8.172154500000001, "race": "Lenzburger Lauf", "date": {"sam. 23.05.2009": {"year": 2009, "day": 23, "month": 5, "categories": {"WM20": {"distance": 14, "rank": 6, "pace": 469000000000, "time": 6755.6}}, "weekday": "saturday", "livingplace": "Munsingen"}}, "location": "Lenzburg"}, "Dietiker Neujahrslauf, Dietikon": {"latitude": 47.4053885, "longitude": 8.39977, "race": "Dietiker Neujahrslauf, Dietikon", "date": {"sam. 13.01.2007": {"year": 2007, "day": 13, "month": 1, "categories": {"A": {"distance": 12, "rank": 40, "pace": 347000000000, "time": 4201.1}}, "weekday": "saturday", "livingplace": "Munsingen"}}, "location": "Dietikon"}, "St  Galler Altstadtlauf": {"latitude": 47.4244818, "longitude": 9.3767173, "race": "St  Galler Altstadtlauf", "date": {"sam. 23.09.2006": {"year": 2006, "day": 23, "month": 9, "categories": {"VolkM": {"distance": 10, "rank": 41, "pace": 269000000000, "time": 2591.5}}, "weekday": "saturday", "livingplace": "Munsingen"}}, "location": "St. Gallen"}, "Kerzerslauf": {"latitude": 46.97488999999999, "longitude": 7.1954365, "race": "Kerzerslauf", "date": {"sam. 15.03.2008": {"year": 2008, "day": 15, "month": 3, "categories": {"15/M20": {"distance": 15, "rank": 580, "pace": 376000000000, "time": 5641.1}}, "weekday": "saturday", "livingplace": "Munsingen"}}, "location": "Kerzers"}, "Bieler Lauftage, Biel Bienne": {"latitude": 47.1367785, "longitude": 7.2467909, "race": "Bieler Lauftage, Biel Bienne", "date": {"ven. 13.06.2008": {"year": 2008, "day": 13, "month": 6, "categories": {"100/MP": {"distance": 100, "rank": 50, "pace": 739000000000, "time": 73977.1}}, "weekday": "friday", "livingplace": "Munsingen"}, "ven. 12.06.2009": {"year": 2009, "day": 12, "month": 6, "categories": {"100/M20": {"distance": 100, "rank": 61, "pace": 724000000000, "time": 72443.7}}, "weekday": "friday", "livingplace": "Munsingen"}}, "location": "Biel/Bienne"}, "Z\u00fcrcher Silvesterlauf, Z\u00fcrich": {"latitude": 47.3768866, "longitude": 8.541694, "race": "Z\u00fcrcher Silvesterlauf, Z\u00fcrich", "date": {"dim. 10.12.2006": {"year": 2006, "day": 10, "month": 12, "categories": {"MenHK-8": {"distance": 9, "rank": 641, "pace": 324000000000, "time": 2788.1}}, "weekday": "sunday", "livingplace": "Munsingen"}, "dim. 16.12.2007": {"year": 2007, "day": 16, "month": 12, "categories": {"MenHK-8": {"distance": 9, "rank": 589, "pace": 325000000000, "time": 2799.1}}, "weekday": "sunday", "livingplace": "Munsingen"}}, "location": "Z\u00fcrich"}}, "birth": 1982}