{"name": "Hehlen Karina", "sex": "F", "races": {"Tour du Chablais #5 Bex": {"latitude": 46.3603257, "longitude": 6.931504599999999, "race": "Tour du Chablais #5 Bex", "date": {"mer. 09.05.2012": {"year": 2012, "day": 9, "month": 5, "categories": {"F-F20": {"distance": 9, "rank": 92, "pace": 353000000000, "time": 3134.8}}, "weekday": "wednesday", "livingplace": "Bex"}}, "location": "Roche VD"}, "Tour du Chablais #6 Monthey": {"latitude": 46.3190253, "longitude": 6.970566, "race": "Tour du Chablais #6 Monthey", "date": {"mer. 08.05.2013": {"year": 2013, "day": 8, "month": 5, "categories": {"F-F20": {"distance": 9, "rank": 127, "pace": 359000000000, "time": 3357.1}}, "weekday": "wednesday", "livingplace": "Bex"}}, "location": "Aigle"}, "Tour du Chablais #1 Montreux": {"latitude": 46.2957462, "longitude": 6.9916269, "race": "Tour du Chablais #1 Montreux", "date": {"mer. 11.04.2012": {"year": 2012, "day": 11, "month": 4, "categories": {"F-F20": {"distance": 8, "rank": 134, "pace": 389000000000, "time": 2958.0}}, "weekday": "wednesday", "livingplace": "Bex"}}, "location": "Ollon VD"}, "20km de Lausanne": {"latitude": 46.5196535, "longitude": 6.6322734, "race": "20km de Lausanne", "date": {"sam. 25.04.2009": {"year": 2009, "day": 25, "month": 4, "categories": {"10-F30": {"distance": 10, "rank": 419, "pace": 381000000000, "time": 3815.6}}, "weekday": "saturday", "livingplace": "Bex"}, "sam. 28.04.2012": {"year": 2012, "day": 28, "month": 4, "categories": {"10-F30": {"distance": 10, "rank": 532, "pace": 388000000000, "time": 3882.3}}, "weekday": "saturday", "livingplace": "Bex"}}, "location": "Lausanne"}, "Tour du Chablais #4 St  Maurice": {"latitude": NaN, "longitude": NaN, "race": "Tour du Chablais #4 St  Maurice", "date": {"mer. 24.04.2013": {"year": 2013, "day": 24, "month": 4, "categories": {"F-F20": {"distance": 10, "rank": 112, "pace": 381000000000, "time": 3819.9}}, "weekday": "wednesday", "livingplace": "Bex"}}, "location": "Les Mosses"}, "Tour du Chablais #2 Bex": {"latitude": 46.3835529, "longitude": 6.854975199999999, "race": "Tour du Chablais #2 Bex", "date": {"mer. 18.04.2012": {"year": 2012, "day": 18, "month": 4, "categories": {"F-F20": {"distance": 8, "rank": 129, "pace": 379000000000, "time": 3033.9}}, "weekday": "wednesday", "livingplace": "Bex"}}, "location": "Bouveret"}}, "birth": 1977}