{"name": "Heid Barbara", "sex": "F", "races": {"Gippinger Stauseelauf": {"latitude": 47.5810513, "longitude": 8.2152586, "race": "Gippinger Stauseelauf", "date": {"ven. 31.12.2004": {"year": 2004, "day": 31, "month": 12, "categories": {"F20": {"distance": 8, "rank": 10, "pace": 265000000000, "time": 1990.7}}, "weekday": "friday", "livingplace": "Biberist"}}, "location": "Leuggern"}, "Int Greifenseelauf, Uster": {"latitude": 47.3482747, "longitude": 8.717873899999999, "race": "Int Greifenseelauf, Uster", "date": {"sam. 20.09.2008": {"year": 2008, "day": 20, "month": 9, "categories": {"H-W20": {"distance": 21, "rank": 35, "pace": 289000000000, "time": 6116.6}}, "weekday": "saturday", "livingplace": "Biberist"}}, "location": "Uster"}, "Derendinger Abendlauf, Derendingen": {"latitude": 47.1952433, "longitude": 7.585593099999999, "race": "Derendinger Abendlauf, Derendingen", "date": {"ven. 28.06.2013": {"year": 2013, "day": 28, "month": 6, "categories": {"F20": {"distance": 10, "rank": 2, "pace": 275000000000, "time": 2809.3}}, "weekday": "friday", "livingplace": "Leuzigen"}, "ven. 27.06.2008": {"year": 2008, "day": 27, "month": 6, "categories": {"F20": {"distance": 11, "rank": 10, "pace": 281000000000, "time": 3008.1}}, "weekday": "friday", "livingplace": "Biberist"}}, "location": "Derendingen"}, "Gurtenclassic, Wabern": {"latitude": 46.92901639999999, "longitude": 7.448973199999999, "race": "Gurtenclassic, Wabern", "date": {"dim. 04.11.2012": {"year": 2012, "day": 4, "month": 11, "categories": {"15-W20": {"distance": 15, "rank": 13, "pace": 328000000000, "time": 4922.1}}, "weekday": "sunday", "livingplace": "Leuzigen"}}, "location": "Wabern"}, "Z\u00fcrich Marathon, Teamrun und Cityrun": {"latitude": 47.3768866, "longitude": 8.541694, "race": "Z\u00fcrich Marathon, Teamrun und Cityrun", "date": {"dim. 20.04.2008": {"year": 2008, "day": 20, "month": 4, "categories": {"W20": {"distance": 42, "rank": 49, "pace": 331000000000, "time": 13986.3}}, "weekday": "sunday", "livingplace": "Biberist"}}, "location": "Z\u00fcrich"}}, "birth": 1984}