{"name": "Heidel Thomas", "sex": "M", "races": {"Montreux - Les Rochers de Naye": {"latitude": 46.4312213, "longitude": 6.9106799, "race": "Montreux - Les Rochers de Naye", "date": {"dim. 10.07.2011": {"year": 2011, "day": 10, "month": 7, "categories": {"M-HV\u00e9t2": {"distance": 19, "rank": 52, "pace": 517000000000, "time": 9732.4}}, "weekday": "sunday", "livingplace": "Vevey"}}, "location": "Montreux"}, "Course de l'Escalade, Gen\u00e8ve": {"latitude": 46.2043907, "longitude": 6.1431577, "race": "Course de l'Escalade, Gen\u00e8ve", "date": {"sam. 04.12.2010": {"year": 2010, "day": 4, "month": 12, "categories": {"H-H4": {"distance": 7, "rank": 435, "pace": 286000000000, "time": 2078.9}}, "weekday": "saturday", "livingplace": "Vevey"}}, "location": "Gen\u00e8ve"}, "Lausanne Marathon": {"latitude": 46.5196535, "longitude": 6.6322734, "race": "Lausanne Marathon", "date": {"dim. 31.10.2010": {"year": 2010, "day": 31, "month": 10, "categories": {"42-H4": {"distance": 42, "rank": 108, "pace": 339000000000, "time": 14334.2}}, "weekday": "sunday", "livingplace": "Vevey"}}, "location": "Lausanne"}, "Morat-Fribourg": {"latitude": 46.92922110000001, "longitude": 7.120184, "race": "Morat-Fribourg", "date": {"sam. 02.10.2010": {"year": 2010, "day": 2, "month": 10, "categories": {"17-M50": {"distance": 17, "rank": 253, "pace": 321000000000, "time": 5521.7}}, "weekday": "saturday", "livingplace": "Vevey"}, "sam. 06.10.2012": {"year": 2012, "day": 6, "month": 10, "categories": {"17-M55": {"distance": 17, "rank": 142, "pace": 324000000000, "time": 5664.2}}, "weekday": "saturday", "livingplace": "Vevey"}}, "location": "Murten"}, "20km de Lausanne": {"latitude": 46.5196535, "longitude": 6.6322734, "race": "20km de Lausanne", "date": {"sam. 30.04.2011": {"year": 2011, "day": 30, "month": 4, "categories": {"20-H50": {"distance": 20, "rank": 170, "pace": 323000000000, "time": 6470.4}}, "weekday": "saturday", "livingplace": "Vevey"}, "sam. 25.04.2009": {"year": 2009, "day": 25, "month": 4, "categories": {"20-H50": {"distance": 20, "rank": 165, "pace": 339000000000, "time": 6799.0}}, "weekday": "saturday", "livingplace": "Vevey"}, "sam. 28.04.2012": {"year": 2012, "day": 28, "month": 4, "categories": {"20-H55": {"distance": 20, "rank": 70, "pace": 341000000000, "time": 6835.1}}, "weekday": "saturday", "livingplace": "Vevey"}, "sam. 22.04.2006": {"year": 2006, "day": 22, "month": 4, "categories": {"20/H45": {"distance": 20, "rank": 240, "pace": 372000000000, "time": 7451.1}}, "weekday": "saturday", "livingplace": "Vevey"}}, "location": "Lausanne"}, "Kerzerslauf": {"latitude": 46.97488999999999, "longitude": 7.1954365, "race": "Kerzerslauf", "date": {"sam. 17.03.2012": {"year": 2012, "day": 17, "month": 3, "categories": {"15-M55": {"distance": 15, "rank": 149, "pace": 309000000000, "time": 4638.6}}, "weekday": "saturday", "livingplace": "Vevey"}}, "location": "Kerzers"}}, "birth": 1957}