{"name": "Helfer Marilyn", "sex": "F", "races": {"20km de Lausanne": {"latitude": 46.5196535, "longitude": 6.6322734, "race": "20km de Lausanne", "date": {"sam. 30.04.2011": {"year": 2011, "day": 30, "month": 4, "categories": {"10-F20": {"distance": 10, "rank": 121, "pace": 317000000000, "time": 3170.3}}, "weekday": "saturday", "livingplace": "Fribourg"}}, "location": "Lausanne"}, "Morat-Fribourg": {"latitude": 46.92922110000001, "longitude": 7.120184, "race": "Morat-Fribourg", "date": {"sam. 06.10.2012": {"year": 2012, "day": 6, "month": 10, "categories": {"17-W20": {"distance": 17, "rank": 162, "pace": 323000000000, "time": 5648.1}}, "weekday": "saturday", "livingplace": "Fribourg"}, "sam. 04.10.2008": {"year": 2008, "day": 4, "month": 10, "categories": {"J-CF": {"distance": 9, "rank": 16, "pace": 311000000000, "time": 2675.7}}, "weekday": "saturday", "livingplace": "Arconciel"}, "sam. 06.10.2007": {"year": 2007, "day": 6, "month": 10, "categories": {"C/W20": {"distance": 17, "rank": 227, "pace": 344000000000, "time": 5914.0}}, "weekday": "saturday", "livingplace": "Arconciel"}}, "location": "Murten"}, "Kerzerslauf": {"latitude": 46.97488999999999, "longitude": 7.1954365, "race": "Kerzerslauf", "date": {"sam. 17.03.2001": {"year": 2001, "day": 17, "month": 3, "categories": {"F19": {"distance": 15, "rank": 16, "pace": 375000000000, "time": 5637.6}}, "weekday": "saturday", "livingplace": "Marly"}}, "location": "Kerzers"}, "Corrida Bulloise, Bulle": {"latitude": 46.6154512, "longitude": 7.057726799999999, "race": "Corrida Bulloise, Bulle", "date": {"sam. 15.11.2008": {"year": 2008, "day": 15, "month": 11, "categories": {"F20": {"distance": 6, "rank": 87, "pace": 299000000000, "time": 1795.8}}, "weekday": "saturday", "livingplace": "Fribourg"}}, "location": "Bulle"}, "Schweizer Frauenlauf Bern": {"latitude": 46.9479739, "longitude": 7.4474468, "race": "Schweizer Frauenlauf Bern", "date": {"dim. 19.06.2011": {"year": 2011, "day": 19, "month": 6, "categories": {"10-W20": {"distance": 10, "rank": 172, "pace": 305000000000, "time": 3058.1}}, "weekday": "sunday", "livingplace": "Fribourg"}}, "location": "Bern"}}, "birth": 1983}