{"name": "Hemes Fran\u00e7ois", "sex": "M", "races": {"Lausanne Marathon": {"latitude": 46.5196535, "longitude": 6.6322734, "race": "Lausanne Marathon", "date": {"dim. 26.10.2014": {"year": 2014, "day": 26, "month": 10, "categories": {"42-H20": {"distance": 42, "rank": 104, "pace": 371000000000, "time": 15671.2}}, "weekday": "sunday", "livingplace": "Penthalaz"}}, "location": "Lausanne"}, "Tour du Pays de Vaud #1, Penthaz": {"latitude": 46.5993131, "longitude": 6.539251200000001, "race": "Tour du Pays de Vaud #1, Penthaz", "date": {"mer. 13.08.2014": {"year": 2014, "day": 13, "month": 8, "categories": {"H-Hom": {"distance": 9, "rank": 30, "pace": 262000000000, "time": 2237.6}}, "weekday": "wednesday", "livingplace": "Penthalaz"}}, "location": "Penthaz"}, "Morat-Fribourg": {"latitude": 46.92922110000001, "longitude": 7.120184, "race": "Morat-Fribourg", "date": {"sam. 05.10.2013": {"year": 2013, "day": 5, "month": 10, "categories": {"17-M20": {"distance": 17, "rank": 2153, "pace": 365000000000, "time": 6369.4}}, "weekday": "saturday", "livingplace": "Penthalaz"}}, "location": "Murten"}, "Montreux - Les Rochers de Naye": {"latitude": 46.4312213, "longitude": 6.9106799, "race": "Montreux - Les Rochers de Naye", "date": {"dim. 06.07.2014": {"year": 2014, "day": 6, "month": 7, "categories": {"M-HElite": {"distance": 19, "rank": 226, "pace": 550000000000, "time": 10344.8}}, "weekday": "sunday", "livingplace": "Penthalaz"}}, "location": "Montreux"}, "20km de Lausanne": {"latitude": 46.5196535, "longitude": 6.6322734, "race": "20km de Lausanne", "date": {"sam. 26.04.2014": {"year": 2014, "day": 26, "month": 4, "categories": {"20-H20": {"distance": 20, "rank": 405, "pace": 309000000000, "time": 6199.4}}, "weekday": "saturday", "livingplace": "Penthalaz"}}, "location": "Lausanne"}, "Tour du Pays de Vaud #4 - La Sarraz": {"latitude": 46.7088129, "longitude": 6.5707689, "race": "Tour du Pays de Vaud #4 - La Sarraz", "date": {"mer. 29.08.2012": {"year": 2012, "day": 29, "month": 8, "categories": {"H-Hom": {"distance": 9, "rank": 75, "pace": 299000000000, "time": 2547.6}}, "weekday": "wednesday", "livingplace": "Renens"}, "mer. 04.09.2013": {"year": 2013, "day": 4, "month": 9, "categories": {"H-Hom": {"distance": 9, "rank": 88, "pace": 329000000000, "time": 2802.9}}, "weekday": "wednesday", "livingplace": "Renens"}}, "location": "Chavornay"}, "Tour du Pays de Vaud #3, Chavornay": {"latitude": 46.7784736, "longitude": 6.641183, "race": "Tour du Pays de Vaud #3, Chavornay", "date": {"mer. 27.08.2014": {"year": 2014, "day": 27, "month": 8, "categories": {"H-Hom": {"distance": 9, "rank": 26, "pace": 272000000000, "time": 2344.1}}, "weekday": "wednesday", "livingplace": "Penthalaz"}}, "location": "Yverdon-les-Bains"}}, "birth": 1986}