{"name": "Hemmesdorfer Matthias", "sex": "M", "races": {"R\u00fctilauf, R\u00fcti ZH": {"latitude": 47.2566995, "longitude": 8.854421, "race": "R\u00fctilauf, R\u00fcti ZH", "date": {"sam. 04.09.2010": {"year": 2010, "day": 4, "month": 9, "categories": {"C": {"distance": 11, "rank": 44, "pace": 269000000000, "time": 3043.7}}, "weekday": "saturday", "livingplace": "Zurich"}}, "location": "R\u00fcti ZH"}, "Lucerne Marathon, Luzern": {"latitude": 47.05016819999999, "longitude": 8.3093072, "race": "Lucerne Marathon, Luzern", "date": {"dim. 31.10.2010": {"year": 2010, "day": 31, "month": 10, "categories": {"H-M40": {"distance": 21, "rank": 241, "pace": 270000000000, "time": 5698.6}}, "weekday": "sunday", "livingplace": "Zurich"}}, "location": "Luzern"}, "20km de Lausanne": {"latitude": 46.5196535, "longitude": 6.6322734, "race": "20km de Lausanne", "date": {"sam. 24.04.2010": {"year": 2010, "day": 24, "month": 4, "categories": {"20-H40": {"distance": 20, "rank": 73, "pace": 266000000000, "time": 5338.9}}, "weekday": "saturday", "livingplace": "Zurich"}}, "location": "Lausanne"}, "Z\u00fcrich Marathon, Teamrun und Cityrun": {"latitude": 47.3768866, "longitude": 8.541694, "race": "Z\u00fcrich Marathon, Teamrun und Cityrun", "date": {"dim. 01.04.2007": {"year": 2007, "day": 1, "month": 4, "categories": {"M30": {"distance": 42, "rank": 620, "pace": 307000000000, "time": 12976.0}}, "weekday": "sunday", "livingplace": "Zurich"}}, "location": "Z\u00fcrich"}, "Hallwilerseelauf, Beinwil am See": {"latitude": NaN, "longitude": NaN, "race": "Hallwilerseelauf, Beinwil am See", "date": {"sam. 13.10.2012": {"year": 2012, "day": 13, "month": 10, "categories": {"21-M40": {"distance": 21, "rank": 177, "pace": 265000000000, "time": 5609.4}}, "weekday": "saturday", "livingplace": "Zurich"}}, "location": "Beinwil am See"}, "Int Greifenseelauf, Uster": {"latitude": 47.3482747, "longitude": 8.717873899999999, "race": "Int Greifenseelauf, Uster", "date": {"sam. 20.09.2008": {"year": 2008, "day": 20, "month": 9, "categories": {"H-M40": {"distance": 21, "rank": 330, "pace": 281000000000, "time": 5944.0}}, "weekday": "saturday", "livingplace": "Zurich"}}, "location": "Uster"}}, "birth": 1968}