{"name": "Hennet Manuel", "sex": "M", "races": {"Glacier 3000 Run, Gstaad": {"latitude": 46.4717588, "longitude": 7.2865728, "race": "Glacier 3000 Run, Gstaad", "date": {"sam. 06.08.2011": {"year": 2011, "day": 6, "month": 8, "categories": {"M40": {"distance": 26, "rank": 25, "pace": 459000000000, "time": 11949.2}}, "weekday": "saturday", "livingplace": "Bevilard"}}, "location": "Gstaad"}, "Gempenlauf, Dornach": {"latitude": 47.4790491, "longitude": 7.6170412, "race": "Gempenlauf, Dornach", "date": {"mer. 04.06.2008": {"year": 2008, "day": 4, "month": 6, "categories": {"M35": {"distance": 8, "rank": 6, "pace": 259000000000, "time": 2025.8}}, "weekday": "wednesday", "livingplace": "Gsmb"}}, "location": "Dornach"}, "Kerzerslauf": {"latitude": 46.97488999999999, "longitude": 7.1954365, "race": "Kerzerslauf", "date": {"sam. 18.03.2000": {"year": 2000, "day": 18, "month": 3, "categories": {"M20": {"distance": 15, "rank": 64, "pace": 213000000000, "time": 3199.9}}, "weekday": "saturday", "livingplace": "Moutier"}, "sam. 17.03.2001": {"year": 2001, "day": 17, "month": 3, "categories": {"M20": {"distance": 15, "rank": 63, "pace": 222000000000, "time": 3333.0}}, "weekday": "saturday", "livingplace": "Moutier"}}, "location": "Kerzers"}, "Basler Stadtlauf": {"latitude": 47.5595986, "longitude": 7.5885761, "race": "Basler Stadtlauf", "date": {"sam. 24.11.2007": {"year": 2007, "day": 24, "month": 11, "categories": {"M": {"distance": 6, "rank": 23, "pace": 217000000000, "time": 1198.9}}, "weekday": "saturday", "livingplace": "Malleray Bevilard"}, "sam. 25.11.2006": {"year": 2006, "day": 25, "month": 11, "categories": {"M": {"distance": 6, "rank": 17, "pace": 218000000000, "time": 1200.3}}, "weekday": "saturday", "livingplace": "Perrefitte"}}, "location": "Basel"}, "ASICS Bremgarter Reusslauf": {"latitude": 47.34917739999999, "longitude": 8.3397905, "race": "ASICS Bremgarter Reusslauf", "date": {"sam. 17.02.2007": {"year": 2007, "day": 17, "month": 2, "categories": {"M30": {"distance": 11, "rank": 42, "pace": 214000000000, "time": 2249.2}}, "weekday": "saturday", "livingplace": "Perrefitte"}}, "location": "Bremgarten AG"}}, "birth": 1969}