{"name": "Henry Laurent", "sex": "M", "races": {"Tour du Pays de Vaud #4, La Sarraz": {"latitude": 46.7088129, "longitude": 6.5707689, "race": "Tour du Pays de Vaud #4, La Sarraz", "date": {"mer. 03.09.2014": {"year": 2014, "day": 3, "month": 9, "categories": {"H-Hom": {"distance": 9, "rank": 29, "pace": 258000000000, "time": 2196.2}}, "weekday": "wednesday", "livingplace": "La Sarraz"}}, "location": "Chavornay"}, "Morat-Fribourg": {"latitude": 46.92922110000001, "longitude": 7.120184, "race": "Morat-Fribourg", "date": {"sam. 04.10.2014": {"year": 2014, "day": 4, "month": 10, "categories": {"17-M20": {"distance": 17, "rank": 549, "pace": 279000000000, "time": 4800.1}}, "weekday": "saturday", "livingplace": "La Sarraz"}}, "location": "Murten"}, "20km de Lausanne": {"latitude": 46.5196535, "longitude": 6.6322734, "race": "20km de Lausanne", "date": {"sam. 25.04.2015": {"year": 2015, "day": 25, "month": 4, "categories": {"20-H30": {"distance": 20, "rank": 161, "pace": 259000000000, "time": 5180.1}}, "weekday": "saturday", "livingplace": "Lausanne"}}, "location": "Lausanne"}, "Tour du Pays de Vaud #3, Chavornay": {"latitude": 46.7784736, "longitude": 6.641183, "race": "Tour du Pays de Vaud #3, Chavornay", "date": {"mer. 27.08.2014": {"year": 2014, "day": 27, "month": 8, "categories": {"H-Hom": {"distance": 9, "rank": 25, "pace": 272000000000, "time": 2341.9}}, "weekday": "wednesday", "livingplace": "La Sarraz"}}, "location": "Yverdon-les-Bains"}, "Les Traine-Savates, Cheseaux-sur-Lausanne": {"latitude": 46.585452, "longitude": 6.6047712, "race": "Les Traine-Savates, Cheseaux-sur-Lausanne", "date": {"sam. 18.04.2015": {"year": 2015, "day": 18, "month": 4, "categories": {"10-M20": {"distance": 10, "rank": 98, "pace": 259000000000, "time": 2673.3}}, "weekday": "saturday", "livingplace": "Lausanne"}}, "location": "Cheseaux-sur-Lausanne"}}, "birth": 1985}