{"name": "Henry Marine", "sex": "F", "races": {"Tour du Pays de Vaud printanier #2 Yverdon-les-Bains": {"latitude": 46.6698891, "longitude": 6.7975224, "race": "Tour du Pays de Vaud printanier #2 Yverdon-les-Bains", "date": {"mer. 11.06.2014": {"year": 2014, "day": 11, "month": 6, "categories": {"D-Dam": {"distance": 9, "rank": 32, "pace": 399000000000, "time": 3636.1}}, "weekday": "wednesday", "livingplace": "Etoy"}}, "location": "Moudon"}, "Tour du Pays de Vaud #1, Penthaz": {"latitude": 46.5993131, "longitude": 6.539251200000001, "race": "Tour du Pays de Vaud #1, Penthaz", "date": {"mer. 13.08.2014": {"year": 2014, "day": 13, "month": 8, "categories": {"D-Dam": {"distance": 9, "rank": 36, "pace": 403000000000, "time": 3444.6}}, "weekday": "wednesday", "livingplace": "Etoy"}}, "location": "Penthaz"}, "Tour du Pays de Vaud printanier #3 - Yens": {"latitude": 46.7829756, "longitude": 6.5728678, "race": "Tour du Pays de Vaud printanier #3 - Yens", "date": {"mer. 18.06.2014": {"year": 2014, "day": 18, "month": 6, "categories": {"D-Dam": {"distance": 9, "rank": 31, "pace": 425000000000, "time": 3869.4}}, "weekday": "wednesday", "livingplace": "Etoy"}}, "location": "Champvent"}, "Tour du Pays de Vaud #2, Mezi\u00e8res": {"latitude": 46.5955273, "longitude": 6.7702883, "race": "Tour du Pays de Vaud #2, Mezi\u00e8res", "date": {"mer. 20.08.2014": {"year": 2014, "day": 20, "month": 8, "categories": {"D-Dam": {"distance": 8, "rank": 52, "pace": 454000000000, "time": 3684.1}}, "weekday": "wednesday", "livingplace": "Etoy"}}, "location": "M\u00e9zi\u00e8res VD"}, "Tour du Pays de Vaud printanier #1 Moudon": {"latitude": 46.3832683, "longitude": 6.2347852, "race": "Tour du Pays de Vaud printanier #1 Moudon", "date": {"mer. 04.06.2014": {"year": 2014, "day": 4, "month": 6, "categories": {"D-Dam": {"distance": 8, "rank": 42, "pace": 428000000000, "time": 3602.5}}, "weekday": "wednesday", "livingplace": "Etoy"}}, "location": "Nyon"}, "20km de Lausanne": {"latitude": 46.5196535, "longitude": 6.6322734, "race": "20km de Lausanne", "date": {"sam. 26.04.2014": {"year": 2014, "day": 26, "month": 4, "categories": {"10-F20": {"distance": 10, "rank": 457, "pace": 348000000000, "time": 3486.7}}, "weekday": "saturday", "livingplace": "Etoy"}}, "location": "Lausanne"}, "Tour du Pays de Vaud #3, Chavornay": {"latitude": 46.7784736, "longitude": 6.641183, "race": "Tour du Pays de Vaud #3, Chavornay", "date": {"mer. 27.08.2014": {"year": 2014, "day": 27, "month": 8, "categories": {"D-Dam": {"distance": 9, "rank": 44, "pace": 425000000000, "time": 3658.4}}, "weekday": "wednesday", "livingplace": "Etoy"}}, "location": "Yverdon-les-Bains"}}, "birth": 1992}