{"name": "Hensch Philipp", "sex": "M", "races": {"Badener Limmat-Lauf, Baden": {"latitude": 48.5699281, "longitude": 8.5303972, "race": "Badener Limmat-Lauf, Baden", "date": {"sam. 29.03.2014": {"year": 2014, "day": 29, "month": 3, "categories": {"M20": {"distance": 13, "rank": 19, "pace": 264000000000, "time": 3479.0}}, "weekday": "saturday", "livingplace": "Pfaffikon"}, "sam. 16.03.2013": {"year": 2013, "day": 16, "month": 3, "categories": {"MJog": {"distance": 4, "rank": 5, "pace": 237000000000, "time": 953.9}}, "weekday": "saturday", "livingplace": "Pfaffikon"}}, "location": "Baden"}, "Schlosslauf Rapperswil-Jona": {"latitude": 47.2266239, "longitude": 8.818437399999999, "race": "Schlosslauf Rapperswil-Jona", "date": {"dim. 06.10.2013": {"year": 2013, "day": 6, "month": 10, "categories": {"10-M1": {"distance": 10, "rank": 14, "pace": 247000000000, "time": 2471.3}}, "weekday": "sunday", "livingplace": "Pfaffikon"}}, "location": "Rapperswil SG"}, "Rheinfall-Lauf, Neuhausen": {"latitude": 47.6837423, "longitude": 8.6126098, "race": "Rheinfall-Lauf, Neuhausen", "date": {"dim. 18.08.2013": {"year": 2013, "day": 18, "month": 8, "categories": {"R-M20": {"distance": 7, "rank": 2, "pace": 223000000000, "time": 1561.7}}, "weekday": "sunday", "livingplace": "Pfaffikon"}}, "location": "Neuhausen am Rheinfall"}, "Z\u00fcrcher Silvesterlauf, Z\u00fcrich": {"latitude": 47.3768866, "longitude": 8.541694, "race": "Z\u00fcrcher Silvesterlauf, Z\u00fcrich", "date": {"dim. 11.12.2011": {"year": 2011, "day": 11, "month": 12, "categories": {"8-MenHK": {"distance": 9, "rank": 197, "pace": 259000000000, "time": 2232.5}}, "weekday": "sunday", "livingplace": "Pfaffikon"}}, "location": "Z\u00fcrich"}, "ASICS Bremgarter Reusslauf": {"latitude": 47.34917739999999, "longitude": 8.3397905, "race": "ASICS Bremgarter Reusslauf", "date": {"sam. 23.02.2013": {"year": 2013, "day": 23, "month": 2, "categories": {"6-KM": {"distance": 7, "rank": 24, "pace": 246000000000, "time": 1629.6}}, "weekday": "saturday", "livingplace": "Pfaffikon"}, "sam. 25.02.2012": {"year": 2012, "day": 25, "month": 2, "categories": {"M20": {"distance": 11, "rank": 67, "pace": 244000000000, "time": 2690.5}}, "weekday": "saturday", "livingplace": "Pfaffikon"}, "sam. 22.02.2014": {"year": 2014, "day": 22, "month": 2, "categories": {"11-M20": {"distance": 11, "rank": 81, "pace": 247000000000, "time": 2720.1}}, "weekday": "saturday", "livingplace": "Pfaffikon"}}, "location": "Bremgarten AG"}}, "birth": 1985}