{"name": "Hentzler Joel", "sex": "M", "races": {"BCN Tour La Chaux-de-Fonds": {"latitude": 47.1034892, "longitude": 6.832783800000001, "race": "BCN Tour La Chaux-de-Fonds", "date": {"mer. 11.05.2011": {"year": 2011, "day": 11, "month": 5, "categories": {"HE": {"distance": 11, "rank": 167, "pace": 378000000000, "time": 4047.1}}, "weekday": "wednesday", "livingplace": "Valeyres sous Montagny"}}, "location": "La Chaux-de-Fonds"}, "BCN Tour Auvernier": {"latitude": 46.9668714, "longitude": 6.8589727, "race": "BCN Tour Auvernier", "date": {"mer. 20.04.2011": {"year": 2011, "day": 20, "month": 4, "categories": {"HE": {"distance": 11, "rank": 186, "pace": 382000000000, "time": 4131.6}}, "weekday": "wednesday", "livingplace": "Valeyres sous Montagny"}}, "location": "Colombier NE"}, "BCN Tour La Br\u00e9vine": {"latitude": 46.999113, "longitude": 6.733554799999999, "race": "BCN Tour La Br\u00e9vine", "date": {"mer. 04.05.2011": {"year": 2011, "day": 4, "month": 5, "categories": {"HE": {"distance": 10, "rank": 188, "pace": 345000000000, "time": 3457.4}}, "weekday": "wednesday", "livingplace": "Valeyres sous Montagny"}}, "location": "Les Ponts-de-Martel"}, "BCN Tour Fontaine Cernier": {"latitude": 47.0624261, "longitude": 6.9175754, "race": "BCN Tour Fontaine Cernier", "date": {"mer. 27.04.2011": {"year": 2011, "day": 27, "month": 4, "categories": {"HE": {"distance": 10, "rank": 177, "pace": 312000000000, "time": 3217.4}}, "weekday": "wednesday", "livingplace": "Valeyres sous Montagny"}}, "location": "Ch\u00e9zard-St-Martin"}, "BCN Tour Neuch\u00e2tel": {"latitude": 46.9899874, "longitude": 6.9292732, "race": "BCN Tour Neuch\u00e2tel", "date": {"mer. 25.05.2011": {"year": 2011, "day": 25, "month": 5, "categories": {"HE": {"distance": 11, "rank": 176, "pace": 330000000000, "time": 3764.5}}, "weekday": "wednesday", "livingplace": "Valeyres sous Montagny"}}, "location": "Neuch\u00e2tel"}}, "birth": 1989}