{"name": "Herinckx Tanguy", "sex": "M", "races": {"Morat-Fribourg": {"latitude": 46.92922110000001, "longitude": 7.120184, "race": "Morat-Fribourg", "date": {"sam. 05.10.2013": {"year": 2013, "day": 5, "month": 10, "categories": {"17-M50": {"distance": 17, "rank": 290, "pace": 317000000000, "time": 5542.6}}, "weekday": "saturday", "livingplace": "La Chaux de Fonds"}}, "location": "Murten"}, "D\u00e9fi Val-de-Travers, Couvet": {"latitude": 46.9262933, "longitude": 6.6324944, "race": "D\u00e9fi Val-de-Travers, Couvet", "date": {"sam. 21.06.2008": {"year": 2008, "day": 21, "month": 6, "categories": {"SHS2": {"distance": 20, "rank": 35, "pace": 380000000000, "time": 7492.9}}, "weekday": "saturday", "livingplace": "La Chaux de Fonds"}}, "location": "Couvet"}, "BCN Tour Fontaine Cernier": {"latitude": 47.0624261, "longitude": 6.9175754, "race": "BCN Tour Fontaine Cernier", "date": {"mer. 27.04.2011": {"year": 2011, "day": 27, "month": 4, "categories": {"HS2": {"distance": 10, "rank": 247, "pace": 324000000000, "time": 3337.9}}, "weekday": "wednesday", "livingplace": "La Chaux de Fonds"}}, "location": "Ch\u00e9zard-St-Martin"}, "BCN Tour Le Landeron": {"latitude": 46.9668714, "longitude": 6.8589727, "race": "BCN Tour Le Landeron", "date": {"mer. 22.04.2009": {"year": 2009, "day": 22, "month": 4, "categories": {"HS2": {"distance": 11, "rank": 174, "pace": 326000000000, "time": 3623.1}}, "weekday": "wednesday", "livingplace": "Top Cycle"}}, "location": "Colombier NE"}, "La Trotteuse-Tissot, La Chaux-de-Fonds": {"latitude": 47.1034892, "longitude": 6.832783800000001, "race": "La Trotteuse-Tissot, La Chaux-de-Fonds", "date": {"sam. 18.12.2010": {"year": 2010, "day": 18, "month": 12, "categories": {"GC-H40": {"distance": 8, "rank": 117, "pace": 372000000000, "time": 2982.2}}, "weekday": "saturday", "livingplace": "Ch"}, "sam. 17.12.2011": {"year": 2011, "day": 17, "month": 12, "categories": {"GC-H40": {"distance": 8, "rank": 123, "pace": 377000000000, "time": 3017.9}}, "weekday": "saturday", "livingplace": "Ch"}}, "location": "La Chaux-de-Fonds"}, "20km de Lausanne": {"latitude": 46.5196535, "longitude": 6.6322734, "race": "20km de Lausanne", "date": {"sam. 30.04.2011": {"year": 2011, "day": 30, "month": 4, "categories": {"20-H45": {"distance": 20, "rank": 327, "pace": 327000000000, "time": 6551.7}}, "weekday": "saturday", "livingplace": "La Chaux de Fonds"}, "sam. 27.04.2013": {"year": 2013, "day": 27, "month": 4, "categories": {"20-H50": {"distance": 20, "rank": 211, "pace": 335000000000, "time": 6712.2}}, "weekday": "saturday", "livingplace": "La Chaux de Fonds"}, "sam. 28.04.2012": {"year": 2012, "day": 28, "month": 4, "categories": {"20-H50": {"distance": 20, "rank": 156, "pace": 342000000000, "time": 6855.4}}, "weekday": "saturday", "livingplace": "La Chaux de Fonds"}, "sam. 26.04.2014": {"year": 2014, "day": 26, "month": 4, "categories": {"20-H50": {"distance": 20, "rank": 154, "pace": 317000000000, "time": 6348.3}}, "weekday": "saturday", "livingplace": "Espace Physio"}}, "location": "Lausanne"}, "BCN Tour La Chaux-de-Fonds": {"latitude": 47.1034892, "longitude": 6.832783800000001, "race": "BCN Tour La Chaux-de-Fonds", "date": {"mer. 11.05.2011": {"year": 2011, "day": 11, "month": 5, "categories": {"HS2": {"distance": 11, "rank": 236, "pace": 386000000000, "time": 4130.6}}, "weekday": "wednesday", "livingplace": "La Chaux de Fonds"}}, "location": "La Chaux-de-Fonds"}, "BCN Tour La Br\u00e9vine": {"latitude": 46.999113, "longitude": 6.733554799999999, "race": "BCN Tour La Br\u00e9vine", "date": {"mer. 04.05.2011": {"year": 2011, "day": 4, "month": 5, "categories": {"HS2": {"distance": 10, "rank": 234, "pace": 338000000000, "time": 3383.2}}, "weekday": "wednesday", "livingplace": "La Chaux de Fonds"}}, "location": "Les Ponts-de-Martel"}, "BCN Tour Neuch\u00e2tel": {"latitude": 46.9899874, "longitude": 6.9292732, "race": "BCN Tour Neuch\u00e2tel", "date": {"mer. 25.05.2011": {"year": 2011, "day": 25, "month": 5, "categories": {"HS2": {"distance": 11, "rank": 203, "pace": 336000000000, "time": 3835.8}}, "weekday": "wednesday", "livingplace": "La Chaux de Fonds"}}, "location": "Neuch\u00e2tel"}, "BCN Tour Les Ponts de Martel": {"latitude": 46.9262933, "longitude": 6.6324944, "race": "BCN Tour Les Ponts de Martel", "date": {"mer. 18.05.2011": {"year": 2011, "day": 18, "month": 5, "categories": {"HS2": {"distance": 13, "rank": 215, "pace": 336000000000, "time": 4302.9}}, "weekday": "wednesday", "livingplace": "La Chaux de Fonds"}}, "location": "Couvet"}, "BCN Tour Boudry": {"latitude": 46.9668714, "longitude": 6.8589727, "race": "BCN Tour Boudry", "date": {"mer. 26.04.2006": {"year": 2006, "day": 26, "month": 4, "categories": {"HS2": {"distance": 10, "rank": 176, "pace": 328000000000, "time": 3345.8}}, "weekday": "wednesday", "livingplace": "La Chaux de Fonds"}}, "location": "Colombier NE"}, "BCN Tour Colombier": {"latitude": 46.9668714, "longitude": 6.8589727, "race": "BCN Tour Colombier", "date": {"mer. 23.04.2008": {"year": 2008, "day": 23, "month": 4, "categories": {"HS2": {"distance": 10, "rank": 147, "pace": 329000000000, "time": 3357.3}}, "weekday": "wednesday", "livingplace": "Top Cycle"}}, "location": "Colombier NE"}}, "birth": 1962}