{"name": "Herinckx Arnaud", "sex": "M", "races": {"BCN Tour La Br\u00e9vine": {"latitude": 46.999113, "longitude": 6.733554799999999, "race": "BCN Tour La Br\u00e9vine", "date": {"mer. 04.05.2011": {"year": 2011, "day": 4, "month": 5, "categories": {"HJ": {"distance": 10, "rank": 35, "pace": 297000000000, "time": 2977.9}}, "weekday": "wednesday", "livingplace": "La Chaux de Fonds"}}, "location": "Les Ponts-de-Martel"}, "BCN Tour La Chaux-de-Fonds": {"latitude": 47.1034892, "longitude": 6.832783800000001, "race": "BCN Tour La Chaux-de-Fonds", "date": {"mer. 11.05.2011": {"year": 2011, "day": 11, "month": 5, "categories": {"HJ": {"distance": 11, "rank": 17, "pace": 310000000000, "time": 3325.8}}, "weekday": "wednesday", "livingplace": "La Chaux de Fonds"}}, "location": "La Chaux-de-Fonds"}, "D\u00e9fi Val-de-Travers, Couvet": {"latitude": 46.9262933, "longitude": 6.6324944, "race": "D\u00e9fi Val-de-Travers, Couvet", "date": {"sam. 21.06.2008": {"year": 2008, "day": 21, "month": 6, "categories": {"EHJ": {"distance": 12, "rank": 3, "pace": 338000000000, "time": 4130.8}}, "weekday": "saturday", "livingplace": "La Chaux de Fonds"}}, "location": "Couvet"}, "BCN Tour Fontaine Cernier": {"latitude": 47.0624261, "longitude": 6.9175754, "race": "BCN Tour Fontaine Cernier", "date": {"mer. 27.04.2011": {"year": 2011, "day": 27, "month": 4, "categories": {"HJ": {"distance": 10, "rank": 20, "pace": 261000000000, "time": 2692.7}}, "weekday": "wednesday", "livingplace": "La Chaux de Fonds"}}, "location": "Ch\u00e9zard-St-Martin"}, "BCN Tour Neuch\u00e2tel": {"latitude": 46.9899874, "longitude": 6.9292732, "race": "BCN Tour Neuch\u00e2tel", "date": {"mer. 25.05.2011": {"year": 2011, "day": 25, "month": 5, "categories": {"HJ": {"distance": 11, "rank": 18, "pace": 274000000000, "time": 3125.0}}, "weekday": "wednesday", "livingplace": "La Chaux de Fonds"}}, "location": "Neuch\u00e2tel"}, "BCN Tour Les Ponts de Martel": {"latitude": 46.9262933, "longitude": 6.6324944, "race": "BCN Tour Les Ponts de Martel", "date": {"mer. 18.05.2011": {"year": 2011, "day": 18, "month": 5, "categories": {"HJ": {"distance": 13, "rank": 17, "pace": 273000000000, "time": 3498.4}}, "weekday": "wednesday", "livingplace": "La Chaux de Fonds"}}, "location": "Couvet"}, "BCN Tour #5 Colombier": {"latitude": 46.9262933, "longitude": 6.6324944, "race": "BCN Tour #5 Colombier", "date": {"mer. 22.05.2013": {"year": 2013, "day": 22, "month": 5, "categories": {"HJ": {"distance": 11, "rank": 22, "pace": 245000000000, "time": 2580.8}}, "weekday": "wednesday", "livingplace": "La Chaux de Fonds"}}, "location": "Couvet"}, "20km de Lausanne": {"latitude": 46.5196535, "longitude": 6.6322734, "race": "20km de Lausanne", "date": {"sam. 30.04.2011": {"year": 2011, "day": 30, "month": 4, "categories": {"20-H20": {"distance": 20, "rank": 179, "pace": 283000000000, "time": 5660.7}}, "weekday": "saturday", "livingplace": "La Chaux de Fonds"}, "sam. 25.04.2015": {"year": 2015, "day": 25, "month": 4, "categories": {"20-H20": {"distance": 20, "rank": 78, "pace": 249000000000, "time": 4991.3}}, "weekday": "saturday", "livingplace": "Espace Physio"}, "sam. 27.04.2013": {"year": 2013, "day": 27, "month": 4, "categories": {"20-Hesp": {"distance": 20, "rank": 8, "pace": 258000000000, "time": 5161.8}}, "weekday": "saturday", "livingplace": "La Chaux de Fonds"}, "sam. 28.04.2012": {"year": 2012, "day": 28, "month": 4, "categories": {"20-Hesp": {"distance": 20, "rank": 18, "pace": 316000000000, "time": 6328.0}}, "weekday": "saturday", "livingplace": "La Chaux de Fonds"}, "sam. 26.04.2014": {"year": 2014, "day": 26, "month": 4, "categories": {"20-H20": {"distance": 20, "rank": 80, "pace": 260000000000, "time": 5211.3}}, "weekday": "saturday", "livingplace": "Espace Physio"}}, "location": "Lausanne"}, "BCN Tour #3 Dombresson": {"latitude": 46.999113, "longitude": 6.733554799999999, "race": "BCN Tour #3 Dombresson", "date": {"mer. 08.05.2013": {"year": 2013, "day": 8, "month": 5, "categories": {"HJ": {"distance": 10, "rank": 18, "pace": 259000000000, "time": 2565.4}}, "weekday": "wednesday", "livingplace": "La Chaux de Fonds"}}, "location": "Les Ponts-de-Martel"}, "BCN Tour Colombier": {"latitude": 46.9668714, "longitude": 6.8589727, "race": "BCN Tour Colombier", "date": {"mer. 23.04.2008": {"year": 2008, "day": 23, "month": 4, "categories": {"KG4": {"distance": 4, "rank": 13, "pace": 268000000000, "time": 1072.5}}, "weekday": "wednesday", "livingplace": "La Chaux de Fonds"}}, "location": "Colombier NE"}, "BCN Tour #4 Fleurier": {"latitude": 47.1034892, "longitude": 6.832783800000001, "race": "BCN Tour #4 Fleurier", "date": {"mer. 15.05.2013": {"year": 2013, "day": 15, "month": 5, "categories": {"HJ": {"distance": 9, "rank": 68, "pace": 348000000000, "time": 3016.1}}, "weekday": "wednesday", "livingplace": "La Chaux de Fonds"}}, "location": "La Chaux-de-Fonds"}}, "birth": 1994}