{"name": "Hermann Christine", "sex": "F", "races": {"Tour du Pays de Vaud etape 5 - La Sarraz": {"latitude": 46.5993131, "longitude": 6.539251200000001, "race": "Tour du Pays de Vaud etape 5 - La Sarraz", "date": {"mer. 10.09.2008": {"year": 2008, "day": 10, "month": 9, "categories": {"DamSen2": {"distance": 9, "rank": 53, "pace": 403000000000, "time": 3465.8}}, "weekday": "wednesday", "livingplace": "Yens"}}, "location": "Penthaz"}, "Morat-Fribourg": {"latitude": 46.92922110000001, "longitude": 7.120184, "race": "Morat-Fribourg", "date": {"sam. 04.10.2008": {"year": 2008, "day": 4, "month": 10, "categories": {"C-W40": {"distance": 17, "rank": 277, "pace": 436000000000, "time": 7488.0}}, "weekday": "saturday", "livingplace": "Yens"}}, "location": "Murten"}, "Tour du Pays de Vaud etape 2 - Genolier": {"latitude": 46.5955273, "longitude": 6.7702883, "race": "Tour du Pays de Vaud etape 2 - Genolier", "date": {"mer. 20.08.2008": {"year": 2008, "day": 20, "month": 8, "categories": {"DamSen2": {"distance": 8, "rank": 63, "pace": 406000000000, "time": 3373.0}}, "weekday": "wednesday", "livingplace": "Yens"}}, "location": "M\u00e9zi\u00e8res VD"}, "Tour du Pays de Vaud etape 3 - Aubonne": {"latitude": 46.7829756, "longitude": 6.5728678, "race": "Tour du Pays de Vaud etape 3 - Aubonne", "date": {"mer. 27.08.2008": {"year": 2008, "day": 27, "month": 8, "categories": {"DamSen2": {"distance": 8, "rank": 60, "pace": 465000000000, "time": 3633.5}}, "weekday": "wednesday", "livingplace": "Yens"}}, "location": "Champvent"}, "Tour du Pays de Vaud etape 1 - Le Mont sur Lausanne": {"latitude": 46.7784736, "longitude": 6.641183, "race": "Tour du Pays de Vaud etape 1 - Le Mont sur Lausanne", "date": {"mer. 13.08.2008": {"year": 2008, "day": 13, "month": 8, "categories": {"DamSen2": {"distance": 8, "rank": 52, "pace": 391000000000, "time": 3290.9}}, "weekday": "wednesday", "livingplace": "Yens"}}, "location": "Yverdon-les-Bains"}, "20km de Lausanne": {"latitude": 46.5196535, "longitude": 6.6322734, "race": "20km de Lausanne", "date": {"sam. 30.04.2011": {"year": 2011, "day": 30, "month": 4, "categories": {"10-F40": {"distance": 10, "rank": 171, "pace": 359000000000, "time": 3593.2}}, "weekday": "saturday", "livingplace": "Yens"}, "sam. 25.04.2009": {"year": 2009, "day": 25, "month": 4, "categories": {"10-F40": {"distance": 10, "rank": 146, "pace": 357000000000, "time": 3573.8}}, "weekday": "saturday", "livingplace": "Radio Suisse Romande La P"}}, "location": "Lausanne"}, "Les Traine-Savates, Cheseaux-sur-Lausanne": {"latitude": 46.585452, "longitude": 6.6047712, "race": "Les Traine-Savates, Cheseaux-sur-Lausanne", "date": {"sam. 04.04.2009": {"year": 2009, "day": 4, "month": 4, "categories": {"Dam V1": {"distance": 10, "rank": 98, "pace": 462000000000, "time": 4809.2}}, "weekday": "saturday", "livingplace": "Yens"}}, "location": "Cheseaux-sur-Lausanne"}}, "birth": 1968}