{"name": "Hermann Sebastien", "sex": "M", "races": {"Tour du Pays de Vaud etape 5 - La Sarraz": {"latitude": 46.5993131, "longitude": 6.539251200000001, "race": "Tour du Pays de Vaud etape 5 - La Sarraz", "date": {"mer. 10.09.2008": {"year": 2008, "day": 10, "month": 9, "categories": {"Hom": {"distance": 9, "rank": 41, "pace": 303000000000, "time": 2610.7}}, "weekday": "wednesday", "livingplace": "Etagnieres"}}, "location": "Penthaz"}, "Course de l'Escalade, Gen\u00e8ve": {"latitude": 46.2043907, "longitude": 6.1431577, "race": "Course de l'Escalade, Gen\u00e8ve", "date": {"sam. 06.12.2003": {"year": 2003, "day": 6, "month": 12, "categories": {"HJun": {"distance": 7, "rank": 99, "pace": 281000000000, "time": 2037.5}}, "weekday": "saturday", "livingplace": "Etagnieres"}, "sam. 06.12.2008": {"year": 2008, "day": 6, "month": 12, "categories": {"Hommes1": {"distance": 7, "rank": 197, "pace": 255000000000, "time": 1852.6}}, "weekday": "saturday", "livingplace": "Etagnieres"}}, "location": "Gen\u00e8ve"}, "Tour du Pays de Vaud etape 2 - Genolier": {"latitude": 46.5955273, "longitude": 6.7702883, "race": "Tour du Pays de Vaud etape 2 - Genolier", "date": {"mer. 20.08.2008": {"year": 2008, "day": 20, "month": 8, "categories": {"Hom": {"distance": 8, "rank": 35, "pace": 283000000000, "time": 2353.6}}, "weekday": "wednesday", "livingplace": "Etagnieres"}}, "location": "M\u00e9zi\u00e8res VD"}, "Tour du Pays de Vaud etape 3 - Aubonne": {"latitude": 46.7829756, "longitude": 6.5728678, "race": "Tour du Pays de Vaud etape 3 - Aubonne", "date": {"mer. 27.08.2008": {"year": 2008, "day": 27, "month": 8, "categories": {"Hom": {"distance": 8, "rank": 43, "pace": 316000000000, "time": 2467.7}}, "weekday": "wednesday", "livingplace": "Etagnieres"}}, "location": "Champvent"}, "Tour du Pays de Vaud etape 1 - Le Mont sur Lausanne": {"latitude": 46.7784736, "longitude": 6.641183, "race": "Tour du Pays de Vaud etape 1 - Le Mont sur Lausanne", "date": {"mer. 13.08.2008": {"year": 2008, "day": 13, "month": 8, "categories": {"Hom": {"distance": 8, "rank": 28, "pace": 282000000000, "time": 2371.3}}, "weekday": "wednesday", "livingplace": "Etagnieres"}}, "location": "Yverdon-les-Bains"}, "Morat-Fribourg": {"latitude": 46.92922110000001, "longitude": 7.120184, "race": "Morat-Fribourg", "date": {"dim. 07.10.2001": {"year": 2001, "day": 7, "month": 10, "categories": {"CMB": {"distance": 9, "rank": 34, "pace": 308000000000, "time": 2655.7}}, "weekday": "sunday", "livingplace": "Etagnieres"}}, "location": "Murten"}}, "birth": 1986}