{"name": "Hertig C\u00e9dric", "sex": "M", "races": {"Groupe E Tour Fribourg #4, Siviriez": {"latitude": 46.6585092, "longitude": 6.877722, "race": "Groupe E Tour Fribourg #4, Siviriez", "date": {"mer. 10.09.2014": {"year": 2014, "day": 10, "month": 9, "categories": {"H-Sen2": {"distance": 11, "rank": 43, "pace": 349000000000, "time": 3779.8}}, "weekday": "wednesday", "livingplace": "Esmonts"}}, "location": "Siviriez"}, "Lausanne Marathon": {"latitude": 46.5196535, "longitude": 6.6322734, "race": "Lausanne Marathon", "date": {"dim. 26.10.2014": {"year": 2014, "day": 26, "month": 10, "categories": {"21-H40": {"distance": 21, "rank": 458, "pace": 316000000000, "time": 6678.4}}, "weekday": "sunday", "livingplace": "Esmonts"}, "dim. 27.10.2013": {"year": 2013, "day": 27, "month": 10, "categories": {"21-H3": {"distance": 21, "rank": 543, "pace": 324000000000, "time": 6851.7}}, "weekday": "sunday", "livingplace": "Esmonts"}}, "location": "Lausanne"}, "Glacier 3000 Run, Gstaad": {"latitude": 46.4717588, "longitude": 7.2865728, "race": "Glacier 3000 Run, Gstaad", "date": {"sam. 08.08.2015": {"year": 2015, "day": 8, "month": 8, "categories": {"M40": {"distance": 26, "rank": 166, "pace": 683000000000, "time": 17777.1}}, "weekday": "saturday", "livingplace": "Esmonts"}}, "location": "Gstaad"}, "Morat-Fribourg": {"latitude": 46.92922110000001, "longitude": 7.120184, "race": "Morat-Fribourg", "date": {"sam. 05.10.2013": {"year": 2013, "day": 5, "month": 10, "categories": {"17-M40": {"distance": 17, "rank": 556, "pace": 321000000000, "time": 5614.2}}, "weekday": "saturday", "livingplace": "Esmonts"}, "sam. 04.10.2014": {"year": 2014, "day": 4, "month": 10, "categories": {"17-M40": {"distance": 17, "rank": 469, "pace": 324000000000, "time": 5579.2}}, "weekday": "saturday", "livingplace": "Esmonts"}}, "location": "Murten"}, "Tour du Pays de Vaud #2, Mezi\u00e8res": {"latitude": 46.5955273, "longitude": 6.7702883, "race": "Tour du Pays de Vaud #2, Mezi\u00e8res", "date": {"mer. 20.08.2014": {"year": 2014, "day": 20, "month": 8, "categories": {"H-Sen2": {"distance": 8, "rank": 59, "pace": 312000000000, "time": 2528.6}}, "weekday": "wednesday", "livingplace": "Esmonts"}}, "location": "M\u00e9zi\u00e8res VD"}, "Groupe E Tour Fribourg #2, Charmey": {"latitude": 46.6175845, "longitude": 7.1654493, "race": "Groupe E Tour Fribourg #2, Charmey", "date": {"mer. 27.08.2014": {"year": 2014, "day": 27, "month": 8, "categories": {"H-Sen2": {"distance": 10, "rank": 48, "pace": 333000000000, "time": 3220.2}}, "weekday": "wednesday", "livingplace": "Esmonts"}}, "location": "Charmey (Gruy\u00e8re)"}, "Tour du Pays de Vaud printanier #1 Moudon": {"latitude": 46.3832683, "longitude": 6.2347852, "race": "Tour du Pays de Vaud printanier #1 Moudon", "date": {"mer. 29.05.2013": {"year": 2013, "day": 29, "month": 5, "categories": {"H-Sen2": {"distance": 8, "rank": 72, "pace": 369000000000, "time": 3159.0}}, "weekday": "wednesday", "livingplace": "Esmonts"}}, "location": "Nyon"}, "Groupe E Tour Fribourg #3 Charmey": {"latitude": 46.97488999999999, "longitude": 7.1954365, "race": "Groupe E Tour Fribourg #3 Charmey", "date": {"mer. 04.09.2013": {"year": 2013, "day": 4, "month": 9, "categories": {"HS2": {"distance": 11, "rank": 62, "pace": 360000000000, "time": 3921.6}}, "weekday": "wednesday", "livingplace": "Esmonts"}}, "location": "Kerzers"}, "20km de Lausanne": {"latitude": 46.5196535, "longitude": 6.6322734, "race": "20km de Lausanne", "date": {"sam. 25.04.2015": {"year": 2015, "day": 25, "month": 4, "categories": {"20-H40": {"distance": 20, "rank": 363, "pace": 320000000000, "time": 6410.3}}, "weekday": "saturday", "livingplace": "Esmonts"}, "sam. 26.04.2014": {"year": 2014, "day": 26, "month": 4, "categories": {"10-H40": {"distance": 10, "rank": 303, "pace": 327000000000, "time": 3275.5}}, "weekday": "saturday", "livingplace": "Esmonts"}}, "location": "Lausanne"}}, "birth": 1971}