{"name": "Hertner Remo", "sex": "M", "races": {"Langenthaler Stadtlauf": {"latitude": 47.2120786, "longitude": 7.790562299999999, "race": "Langenthaler Stadtlauf", "date": {"sam. 23.11.2013": {"year": 2013, "day": 23, "month": 11, "categories": {"JogM": {"distance": 5, "rank": 66, "pace": 268000000000, "time": 1342.8}}, "weekday": "saturday", "livingplace": "Bern"}}, "location": "Langenthal"}, "Thuner Stadtlauf, Thun": {"latitude": 46.7579868, "longitude": 7.6279881, "race": "Thuner Stadtlauf, Thun", "date": {"dim. 25.08.2013": {"year": 2013, "day": 25, "month": 8, "categories": {"5-VolksM": {"distance": 5, "rank": 42, "pace": 244000000000, "time": 1222.0}}, "weekday": "sunday", "livingplace": "Bern"}}, "location": "Thun"}, "ASICS Bremgarter Reusslauf": {"latitude": 47.34917739999999, "longitude": 8.3397905, "race": "ASICS Bremgarter Reusslauf", "date": {"sam. 22.02.2014": {"year": 2014, "day": 22, "month": 2, "categories": {"11-M30": {"distance": 11, "rank": 349, "pace": 308000000000, "time": 3396.8}}, "weekday": "saturday", "livingplace": "Bern"}}, "location": "Bremgarten AG"}, "Rheinfall-Lauf, Neuhausen": {"latitude": 47.6837423, "longitude": 8.6126098, "race": "Rheinfall-Lauf, Neuhausen", "date": {"dim. 18.08.2013": {"year": 2013, "day": 18, "month": 8, "categories": {"R-M30": {"distance": 7, "rank": 14, "pace": 279000000000, "time": 1959.0}}, "weekday": "sunday", "livingplace": "Bern"}}, "location": "Neuhausen am Rheinfall"}, "Lausanne Marathon": {"latitude": 46.5196535, "longitude": 6.6322734, "race": "Lausanne Marathon", "date": {"dim. 27.10.2013": {"year": 2013, "day": 27, "month": 10, "categories": {"10-H2": {"distance": 10, "rank": 389, "pace": 315000000000, "time": 3155.7}}, "weekday": "sunday", "livingplace": "Bern"}}, "location": "Lausanne"}, "20km de Lausanne": {"latitude": 46.5196535, "longitude": 6.6322734, "race": "20km de Lausanne", "date": {"sam. 26.04.2014": {"year": 2014, "day": 26, "month": 4, "categories": {"10-H30": {"distance": 10, "rank": 619, "pace": 318000000000, "time": 3188.8}}, "weekday": "saturday", "livingplace": "Bern"}}, "location": "Lausanne"}, "Augusta Raurica Lauf, Augst BL": {"latitude": NaN, "longitude": NaN, "race": "Augusta Raurica Lauf, Augst BL", "date": {"dim. 10.11.2013": {"year": 2013, "day": 10, "month": 11, "categories": {"12-M30": {"distance": 12, "rank": 31, "pace": 319000000000, "time": 3839.0}}, "weekday": "sunday", "livingplace": "Bern"}}, "location": "Augst BL"}}, "birth": 1981}