{"name": "Heuberger Beat", "sex": "M", "races": {"Badener Limmat-Lauf, Baden": {"latitude": 48.5699281, "longitude": 8.5303972, "race": "Badener Limmat-Lauf, Baden", "date": {"sam. 29.03.2014": {"year": 2014, "day": 29, "month": 3, "categories": {"M30": {"distance": 13, "rank": 76, "pace": 277000000000, "time": 3657.8}}, "weekday": "saturday", "livingplace": "Bern"}}, "location": "Baden"}, "Z\u00fcrich Marathon, Teamrun und Cityrun": {"latitude": 47.3768866, "longitude": 8.541694, "race": "Z\u00fcrich Marathon, Teamrun und Cityrun", "date": {"dim. 19.04.2015": {"year": 2015, "day": 19, "month": 4, "categories": {"42-M30": {"distance": 42, "rank": 287, "pace": 303000000000, "time": 12816.5}}, "weekday": "sunday", "livingplace": "Bern"}}, "location": "Z\u00fcrich"}, "Gurtenclassic, Wabern": {"latitude": 46.92901639999999, "longitude": 7.448973199999999, "race": "Gurtenclassic, Wabern", "date": {"dim. 03.11.2013": {"year": 2013, "day": 3, "month": 11, "categories": {"M20": {"distance": 15, "rank": 39, "pace": 315000000000, "time": 4736.4}}, "weekday": "sunday", "livingplace": "Bern"}}, "location": "Wabern"}, "ASICS Bremgarter Reusslauf": {"latitude": 47.34917739999999, "longitude": 8.3397905, "race": "ASICS Bremgarter Reusslauf", "date": {"sam. 22.02.2014": {"year": 2014, "day": 22, "month": 2, "categories": {"11-M30": {"distance": 11, "rank": 229, "pace": 269000000000, "time": 2960.1}}, "weekday": "saturday", "livingplace": "Bern"}}, "location": "Bremgarten AG"}, "Kerzerslauf": {"latitude": 46.97488999999999, "longitude": 7.1954365, "race": "Kerzerslauf", "date": {"sam. 21.03.2015": {"year": 2015, "day": 21, "month": 3, "categories": {"15-M20": {"distance": 15, "rank": 282, "pace": 278000000000, "time": 4175.2}}, "weekday": "saturday", "livingplace": "Bern"}, "sam. 15.03.2014": {"year": 2014, "day": 15, "month": 3, "categories": {"15-M20": {"distance": 15, "rank": 348, "pace": 286000000000, "time": 4290.0}}, "weekday": "saturday", "livingplace": "Bern"}}, "location": "Kerzers"}}, "birth": 1984}