{"name": "Heule Claudia", "sex": "F", "races": {"Lucerne Marathon, Luzern": {"latitude": 47.05016819999999, "longitude": 8.3093072, "race": "Lucerne Marathon, Luzern", "date": {"dim. 25.10.2009": {"year": 2009, "day": 25, "month": 10, "categories": {"H-F20": {"distance": 21, "rank": 251, "pace": 350000000000, "time": 7385.9}}, "weekday": "sunday", "livingplace": "Rorschacherberg"}}, "location": "Luzern"}, "Aegeriseelauf, Ober\u00e4geri": {"latitude": NaN, "longitude": NaN, "race": "Aegeriseelauf, Ober\u00e4geri", "date": {"ven. 19.07.2013": {"year": 2013, "day": 19, "month": 7, "categories": {"Dam1": {"distance": 14, "rank": 16, "pace": 261000000000, "time": 3693.4}}, "weekday": "friday", "livingplace": "Rorschacherberg"}}, "location": "Ober\u00e4geri"}, "SwissCityMarathon - Lucerne, Luzern": {"latitude": 47.05016819999999, "longitude": 8.3093072, "race": "SwissCityMarathon - Lucerne, Luzern", "date": {"dim. 26.10.2014": {"year": 2014, "day": 26, "month": 10, "categories": {"H-F30": {"distance": 21, "rank": 45, "pace": 284000000000, "time": 6011.7}}, "weekday": "sunday", "livingplace": "Rorschacherberg"}}, "location": "Luzern"}, "St  Galler Altstadtlauf": {"latitude": 47.4244818, "longitude": 9.3767173, "race": "St  Galler Altstadtlauf", "date": {"sam. 27.09.2008": {"year": 2008, "day": 27, "month": 9, "categories": {"Volk F": {"distance": 9, "rank": 18, "pace": 372000000000, "time": 3282.5}}, "weekday": "saturday", "livingplace": "Rorschacherberg"}}, "location": "St. Gallen"}, "Schweizer Frauenlauf Bern": {"latitude": 46.9479739, "longitude": 7.4474468, "race": "Schweizer Frauenlauf Bern", "date": {"dim. 10.06.2012": {"year": 2012, "day": 10, "month": 6, "categories": {"10-W30": {"distance": 10, "rank": 55, "pace": 286000000000, "time": 2864.4}}, "weekday": "sunday", "livingplace": "Rorschacherberg"}}, "location": "Bern"}, "Int Greifenseelauf, Uster": {"latitude": 47.3482747, "longitude": 8.717873899999999, "race": "Int Greifenseelauf, Uster", "date": {"sam. 19.09.2009": {"year": 2009, "day": 19, "month": 9, "categories": {"H-W20": {"distance": 21, "rank": 228, "pace": 342000000000, "time": 7224.9}}, "weekday": "saturday", "livingplace": "Rorschacherberg"}}, "location": "Uster"}, "Winterthur Marathon": {"latitude": 39.8088766, "longitude": -75.6037351, "race": "Winterthur Marathon", "date": {"dim. 26.05.2013": {"year": 2013, "day": 26, "month": 5, "categories": {"H-F30": {"distance": 21, "rank": 8, "pace": 271000000000, "time": 5701.1}}, "weekday": "sunday", "livingplace": "Rorschacherberg"}}, "location": "Winterthur"}, "Z\u00fcrich Marathon, Teamrun und Cityrun": {"latitude": 47.3768866, "longitude": 8.541694, "race": "Z\u00fcrich Marathon, Teamrun und Cityrun", "date": {"dim. 26.04.2009": {"year": 2009, "day": 26, "month": 4, "categories": {"W20": {"distance": 42, "rank": 80, "pace": 369000000000, "time": 15588.0}}, "weekday": "sunday", "livingplace": "Rorschacherberg"}, "dim. 07.04.2013": {"year": 2013, "day": 7, "month": 4, "categories": {"42-W30": {"distance": 42, "rank": 17, "pace": 292000000000, "time": 12360.0}}, "weekday": "sunday", "livingplace": "Rorschacherberg"}}, "location": "Z\u00fcrich"}}, "birth": 1982}