{"name": "Hirsiger Rene", "sex": "M", "races": {"Lucerne Marathon, Luzern": {"latitude": 47.05016819999999, "longitude": 8.3093072, "race": "Lucerne Marathon, Luzern", "date": {"dim. 31.10.2010": {"year": 2010, "day": 31, "month": 10, "categories": {"M-M30": {"distance": 42, "rank": 124, "pace": 290000000000, "time": 12268.4}}, "weekday": "sunday", "livingplace": "Zurich"}}, "location": "Luzern"}, "IWB Basel Marathon": {"latitude": 47.5595986, "longitude": 7.5885761, "race": "IWB Basel Marathon", "date": {"dim. 22.09.2013": {"year": 2013, "day": 22, "month": 9, "categories": {"H-21-M30": {"distance": 21, "rank": 101, "pace": 293000000000, "time": 6185.2}}, "weekday": "sunday", "livingplace": "Zurich"}}, "location": "Basel"}, "Int Greifenseelauf, Uster": {"latitude": 47.3482747, "longitude": 8.717873899999999, "race": "Int Greifenseelauf, Uster", "date": {"sam. 19.09.2009": {"year": 2009, "day": 19, "month": 9, "categories": {"H-M20": {"distance": 21, "rank": 400, "pace": 318000000000, "time": 6721.2}}, "weekday": "saturday", "livingplace": "Zurich"}}, "location": "Uster"}, "Winterthur Marathon": {"latitude": 39.8088766, "longitude": -75.6037351, "race": "Winterthur Marathon", "date": {"dim. 18.05.2008": {"year": 2008, "day": 18, "month": 5, "categories": {"HMAktiv": {"distance": 21, "rank": 126, "pace": 318000000000, "time": 6712.8}}, "weekday": "sunday", "livingplace": "Zurich"}}, "location": "Winterthur"}, "Bieler Lauftage, Biel Bienne": {"latitude": 47.1367785, "longitude": 7.2467909, "race": "Bieler Lauftage, Biel Bienne", "date": {"ven. 13.06.2008": {"year": 2008, "day": 13, "month": 6, "categories": {"H/M20": {"distance": 21, "rank": 9, "pace": 299000000000, "time": 6326.2}}, "weekday": "friday", "livingplace": "Zurich"}}, "location": "Biel/Bienne"}, "Z\u00fcrich Marathon, Teamrun und Cityrun": {"latitude": 47.3768866, "longitude": 8.541694, "race": "Z\u00fcrich Marathon, Teamrun und Cityrun", "date": {"dim. 11.04.2010": {"year": 2010, "day": 11, "month": 4, "categories": {"M30": {"distance": 42, "rank": 347, "pace": 311000000000, "time": 13155.6}}, "weekday": "sunday", "livingplace": "Zurich"}, "dim. 22.04.2012": {"year": 2012, "day": 22, "month": 4, "categories": {"10-M30": {"distance": 10, "rank": 18, "pace": 230000000000, "time": 2307.2}}, "weekday": "sunday", "livingplace": "Zurich"}}, "location": "Z\u00fcrich"}}, "birth": 1980}