{"name": "Hirt Christian", "sex": "M", "races": {"Morat-Fribourg": {"latitude": 46.92922110000001, "longitude": 7.120184, "race": "Morat-Fribourg", "date": {"sam. 03.10.2015": {"year": 2015, "day": 3, "month": 10, "categories": {"17-M20": {"distance": 17, "rank": 196, "pace": 255000000000, "time": 4388.1}}, "weekday": "saturday", "livingplace": "Cornaux"}, "sam. 04.10.2014": {"year": 2014, "day": 4, "month": 10, "categories": {"17-M20": {"distance": 17, "rank": 222, "pace": 257000000000, "time": 4414.0}}, "weekday": "saturday", "livingplace": "Cornaux"}}, "location": "Murten"}, "Groupe E Tour Fribourg #2, Charmey": {"latitude": 46.6175845, "longitude": 7.1654493, "race": "Groupe E Tour Fribourg #2, Charmey", "date": {"mer. 27.08.2014": {"year": 2014, "day": 27, "month": 8, "categories": {"H-Sen1": {"distance": 10, "rank": 38, "pace": 302000000000, "time": 2921.8}}, "weekday": "wednesday", "livingplace": "Cornaux"}}, "location": "Charmey (Gruy\u00e8re)"}, "Corrida Bulloise, Bulle": {"latitude": 46.6154512, "longitude": 7.057726799999999, "race": "Corrida Bulloise, Bulle", "date": {"sam. 21.11.2015": {"year": 2015, "day": 21, "month": 11, "categories": {"8-M20": {"distance": 8, "rank": 54, "pace": 241000000000, "time": 1964.6}}, "weekday": "saturday", "livingplace": "Cornaux"}}, "location": "Bulle"}, "BCN Tour Le Landeron": {"latitude": 46.9668714, "longitude": 6.8589727, "race": "BCN Tour Le Landeron", "date": {"mer. 22.04.2009": {"year": 2009, "day": 22, "month": 4, "categories": {"HS1": {"distance": 11, "rank": 181, "pace": 340000000000, "time": 3779.7}}, "weekday": "wednesday", "livingplace": "Cornaux"}}, "location": "Colombier NE"}, "Groupe E Tour Fribourg #3, Kerzers": {"latitude": 46.97488999999999, "longitude": 7.1954365, "race": "Groupe E Tour Fribourg #3, Kerzers", "date": {"mer. 03.09.2014": {"year": 2014, "day": 3, "month": 9, "categories": {"H-Sen1": {"distance": 10, "rank": 49, "pace": 288000000000, "time": 2935.5}}, "weekday": "wednesday", "livingplace": "Cornaux"}}, "location": "Kerzers"}, "Groupe E Tour Fribourg #1, Cousset": {"latitude": 46.81832, "longitude": 6.977279999999999, "race": "Groupe E Tour Fribourg #1, Cousset", "date": {"mer. 20.08.2014": {"year": 2014, "day": 20, "month": 8, "categories": {"H-Sen1": {"distance": 9, "rank": 29, "pace": 262000000000, "time": 2469.3}}, "weekday": "wednesday", "livingplace": "Cornaux"}}, "location": "Cousset"}, "Kerzerslauf": {"latitude": 46.97488999999999, "longitude": 7.1954365, "race": "Kerzerslauf", "date": {"sam. 21.03.2015": {"year": 2015, "day": 21, "month": 3, "categories": {"15-M35": {"distance": 15, "rank": 68, "pace": 246000000000, "time": 3703.1}}, "weekday": "saturday", "livingplace": "Cornaux"}}, "location": "Kerzers"}, "Groupe E Tour Fribourg #4, Siviriez": {"latitude": 46.6585092, "longitude": 6.877722, "race": "Groupe E Tour Fribourg #4, Siviriez", "date": {"mer. 10.09.2014": {"year": 2014, "day": 10, "month": 9, "categories": {"H-Sen1": {"distance": 11, "rank": 32, "pace": 309000000000, "time": 3345.6}}, "weekday": "wednesday", "livingplace": "Cornaux"}}, "location": "Siviriez"}, "La Trotteuse-Tissot, La Chaux-de-Fonds": {"latitude": 47.1034892, "longitude": 6.832783800000001, "race": "La Trotteuse-Tissot, La Chaux-de-Fonds", "date": {"sam. 13.12.2014": {"year": 2014, "day": 13, "month": 12, "categories": {"GC-H30": {"distance": 8, "rank": 56, "pace": 255000000000, "time": 2041.3}}, "weekday": "saturday", "livingplace": "Cornaux"}}, "location": "La Chaux-de-Fonds"}, "Lausanne Marathon": {"latitude": 46.5196535, "longitude": 6.6322734, "race": "Lausanne Marathon", "date": {"sam. 24.10.2015": {"year": 2015, "day": 24, "month": 10, "categories": {"42-H30": {"distance": 42, "rank": 25, "pace": 259000000000, "time": 10936.1}}, "weekday": "saturday", "livingplace": "Cornaux"}}, "location": "Lausanne"}, "Groupe E Tour Fribourg #5, Givisiez": {"latitude": 46.8128615, "longitude": 7.131657799999999, "race": "Groupe E Tour Fribourg #5, Givisiez", "date": {"mer. 17.09.2014": {"year": 2014, "day": 17, "month": 9, "categories": {"H-Sen1": {"distance": 10, "rank": 24, "pace": 265000000000, "time": 2721.6}}, "weekday": "wednesday", "livingplace": "Cornaux"}}, "location": "Givisiez"}, "BCN Tour Cornaux": {"latitude": 46.9668714, "longitude": 6.8589727, "race": "BCN Tour Cornaux", "date": {"mer. 25.04.2012": {"year": 2012, "day": 25, "month": 4, "categories": {"HS1": {"distance": 11, "rank": 258, "pace": 447000000000, "time": 4922.8}}, "weekday": "wednesday", "livingplace": "Cornaux"}}, "location": "Colombier NE"}}, "birth": 1978}