{"name": "Hoarau C\u00e9dric", "sex": "M", "races": {"Tour du Chablais #6 Monthey": {"latitude": 46.3190253, "longitude": 6.970566, "race": "Tour du Chablais #6 Monthey", "date": {"mer. 08.05.2013": {"year": 2013, "day": 8, "month": 5, "categories": {"M-M20": {"distance": 9, "rank": 79, "pace": 254000000000, "time": 2376.5}}, "weekday": "wednesday", "livingplace": "Crissier"}}, "location": "Aigle"}, "Course de l'Escalade, Gen\u00e8ve": {"latitude": 46.2043907, "longitude": 6.1431577, "race": "Course de l'Escalade, Gen\u00e8ve", "date": {"sam. 01.12.2012": {"year": 2012, "day": 1, "month": 12, "categories": {"Duc-Hom2": {"distance": 18, "rank": 159, "pace": 269000000000, "time": 4711.9}}, "weekday": "saturday", "livingplace": "Crissier"}}, "location": "Gen\u00e8ve"}, "Tour du pays de Vaud #1 - Mezi\u00e8res": {"latitude": 46.7784736, "longitude": 6.641183, "race": "Tour du pays de Vaud #1 - Mezi\u00e8res", "date": {"mer. 10.08.2011": {"year": 2011, "day": 10, "month": 8, "categories": {"H-Sen1": {"distance": 9, "rank": 59, "pace": 273000000000, "time": 2321.3}}, "weekday": "wednesday", "livingplace": "Crissier"}}, "location": "Yverdon-les-Bains"}, "Tour du Pays de Vaud #3 - Mezi\u00e8res": {"latitude": 46.7784736, "longitude": 6.641183, "race": "Tour du Pays de Vaud #3 - Mezi\u00e8res", "date": {"mer. 22.08.2012": {"year": 2012, "day": 22, "month": 8, "categories": {"H-Sen1": {"distance": 8, "rank": 50, "pace": 291000000000, "time": 2451.8}}, "weekday": "wednesday", "livingplace": "Crissier"}}, "location": "Yverdon-les-Bains"}, "20km de Lausanne": {"latitude": 46.5196535, "longitude": 6.6322734, "race": "20km de Lausanne", "date": {"sam. 30.04.2011": {"year": 2011, "day": 30, "month": 4, "categories": {"10-H30": {"distance": 10, "rank": 332, "pace": 296000000000, "time": 2966.9}}, "weekday": "saturday", "livingplace": "Crissier"}, "sam. 28.04.2012": {"year": 2012, "day": 28, "month": 4, "categories": {"10-H30": {"distance": 10, "rank": 243, "pace": 287000000000, "time": 2871.1}}, "weekday": "saturday", "livingplace": "Crissier"}, "sam. 26.04.2014": {"year": 2014, "day": 26, "month": 4, "categories": {"20-H30": {"distance": 20, "rank": 165, "pace": 265000000000, "time": 5309.8}}, "weekday": "saturday", "livingplace": "Crissier"}}, "location": "Lausanne"}, "Tour du Pays de Vaud #4, La Sarraz": {"latitude": 46.7088129, "longitude": 6.5707689, "race": "Tour du Pays de Vaud #4, La Sarraz", "date": {"mer. 03.09.2014": {"year": 2014, "day": 3, "month": 9, "categories": {"H-Sen1": {"distance": 9, "rank": 34, "pace": 250000000000, "time": 2128.8}}, "weekday": "wednesday", "livingplace": "Crissier"}}, "location": "Chavornay"}, "Tour du Pays de Vaud #3, Chavornay": {"latitude": 46.7784736, "longitude": 6.641183, "race": "Tour du Pays de Vaud #3, Chavornay", "date": {"mer. 27.08.2014": {"year": 2014, "day": 27, "month": 8, "categories": {"H-Sen1": {"distance": 9, "rank": 27, "pace": 261000000000, "time": 2252.2}}, "weekday": "wednesday", "livingplace": "Crissier"}}, "location": "Yverdon-les-Bains"}, "Tour du Pays de Vaud #2 - Genolier": {"latitude": 46.5955273, "longitude": 6.7702883, "race": "Tour du Pays de Vaud #2 - Genolier", "date": {"mer. 15.08.2012": {"year": 2012, "day": 15, "month": 8, "categories": {"H-Sen1": {"distance": 9, "rank": 53, "pace": 267000000000, "time": 2274.9}}, "weekday": "wednesday", "livingplace": "Crissier"}, "mer. 17.08.2011": {"year": 2011, "day": 17, "month": 8, "categories": {"H-Sen1": {"distance": 9, "rank": 65, "pace": 279000000000, "time": 2379.0}}, "weekday": "wednesday", "livingplace": "Crissier"}}, "location": "M\u00e9zi\u00e8res VD"}, "Tour du Pays de Vaud #1, Penthaz": {"latitude": 46.5993131, "longitude": 6.539251200000001, "race": "Tour du Pays de Vaud #1, Penthaz", "date": {"mer. 13.08.2014": {"year": 2014, "day": 13, "month": 8, "categories": {"H-Sen1": {"distance": 9, "rank": 27, "pace": 244000000000, "time": 2081.9}}, "weekday": "wednesday", "livingplace": "Crissier"}}, "location": "Penthaz"}, "Tour du Pays de Vaud printanier #3 - Yens": {"latitude": 46.7829756, "longitude": 6.5728678, "race": "Tour du Pays de Vaud printanier #3 - Yens", "date": {"mer. 18.06.2014": {"year": 2014, "day": 18, "month": 6, "categories": {"H-Sen1": {"distance": 9, "rank": 23, "pace": 249000000000, "time": 2273.2}}, "weekday": "wednesday", "livingplace": "Crissier"}}, "location": "Champvent"}, "Tour du Pays de Vaud #2, Mezi\u00e8res": {"latitude": 46.5955273, "longitude": 6.7702883, "race": "Tour du Pays de Vaud #2, Mezi\u00e8res", "date": {"mer. 20.08.2014": {"year": 2014, "day": 20, "month": 8, "categories": {"H-Sen1": {"distance": 8, "rank": 34, "pace": 274000000000, "time": 2222.3}}, "weekday": "wednesday", "livingplace": "Crissier"}}, "location": "M\u00e9zi\u00e8res VD"}, "Tour du Pays de Vaud printanier #1 Moudon": {"latitude": 46.3832683, "longitude": 6.2347852, "race": "Tour du Pays de Vaud printanier #1 Moudon", "date": {"mer. 04.06.2014": {"year": 2014, "day": 4, "month": 6, "categories": {"H-Sen1": {"distance": 8, "rank": 38, "pace": 266000000000, "time": 2242.7}}, "weekday": "wednesday", "livingplace": "Crissier"}}, "location": "Nyon"}, "Lausanne Marathon": {"latitude": 46.5196535, "longitude": 6.6322734, "race": "Lausanne Marathon", "date": {"dim. 28.10.2012": {"year": 2012, "day": 28, "month": 10, "categories": {"21-H2": {"distance": 21, "rank": 188, "pace": 274000000000, "time": 5793.8}}, "weekday": "sunday", "livingplace": "Crissier"}}, "location": "Lausanne"}, "Tour du Pays de Vaud #4 - La Sarraz": {"latitude": 46.7088129, "longitude": 6.5707689, "race": "Tour du Pays de Vaud #4 - La Sarraz", "date": {"mer. 29.08.2012": {"year": 2012, "day": 29, "month": 8, "categories": {"H-Sen1": {"distance": 9, "rank": 47, "pace": 263000000000, "time": 2241.3}}, "weekday": "wednesday", "livingplace": "Crissier"}}, "location": "Chavornay"}, "Tour du Pays de Vaud printanier #2 Yverdon-les-Bains": {"latitude": 46.6698891, "longitude": 6.7975224, "race": "Tour du Pays de Vaud printanier #2 Yverdon-les-Bains", "date": {"mer. 11.06.2014": {"year": 2014, "day": 11, "month": 6, "categories": {"H-Sen1": {"distance": 9, "rank": 20, "pace": 273000000000, "time": 2485.9}}, "weekday": "wednesday", "livingplace": "Crissier"}, "mer. 05.06.2013": {"year": 2013, "day": 5, "month": 6, "categories": {"H-Sen1": {"distance": 9, "rank": 29, "pace": 271000000000, "time": 2471.0}}, "weekday": "wednesday", "livingplace": "Crissier"}}, "location": "Moudon"}, "Tour du pays de Vaud #1 - Penthaz": {"latitude": 46.5993131, "longitude": 6.539251200000001, "race": "Tour du pays de Vaud #1 - Penthaz", "date": {"mer. 08.08.2012": {"year": 2012, "day": 8, "month": 8, "categories": {"H-Sen1": {"distance": 9, "rank": 55, "pace": 276000000000, "time": 2359.6}}, "weekday": "wednesday", "livingplace": "Crissier"}}, "location": "Penthaz"}}, "birth": 1978}