{"name": "Hochart Bertrand", "sex": "M", "races": {"BCN Tour Le Landeron": {"latitude": 46.9668714, "longitude": 6.8589727, "race": "BCN Tour Le Landeron", "date": {"mer. 22.04.2009": {"year": 2009, "day": 22, "month": 4, "categories": {"HS2": {"distance": 11, "rank": 191, "pace": 333000000000, "time": 3697.1}}, "weekday": "wednesday", "livingplace": "Vaucher Manufacture Fleur"}}, "location": "Colombier NE"}, "La Trotteuse-Tissot, La Chaux-de-Fonds": {"latitude": 47.1034892, "longitude": 6.832783800000001, "race": "La Trotteuse-Tissot, La Chaux-de-Fonds", "date": {"sam. 14.12.2013": {"year": 2013, "day": 14, "month": 12, "categories": {"GC-H40": {"distance": 8, "rank": 48, "pace": 271000000000, "time": 2175.9}}, "weekday": "saturday", "livingplace": "Nivarox Far Sa"}, "sam. 13.12.2014": {"year": 2014, "day": 13, "month": 12, "categories": {"GC-H40": {"distance": 8, "rank": 50, "pace": 262000000000, "time": 2097.0}}, "weekday": "saturday", "livingplace": "Nivarox Far SA 1"}, "sam. 12.12.2015": {"year": 2015, "day": 12, "month": 12, "categories": {"GC-H50": {"distance": 8, "rank": 81, "pace": 302000000000, "time": 2423.0}}, "weekday": "saturday", "livingplace": "Nivarox Far SA 1"}}, "location": "La Chaux-de-Fonds"}, "BCN Tour Les Ponts-de-Martel": {"latitude": 46.999113, "longitude": 6.733554799999999, "race": "BCN Tour Les Ponts-de-Martel", "date": {"mer. 09.05.2012": {"year": 2012, "day": 9, "month": 5, "categories": {"HS2": {"distance": 10, "rank": 156, "pace": 313000000000, "time": 3230.6}}, "weekday": "wednesday", "livingplace": "Villers le Lac"}}, "location": "Les Ponts-de-Martel"}, "BCN Tour Ponts-de-Martel": {"latitude": 47.0624261, "longitude": 6.9175754, "race": "BCN Tour Ponts-de-Martel", "date": {"mer. 28.04.2010": {"year": 2010, "day": 28, "month": 4, "categories": {"HS2": {"distance": 11, "rank": 145, "pace": 312000000000, "time": 3494.7}}, "weekday": "wednesday", "livingplace": "Villers le Lac"}}, "location": "Ch\u00e9zard-St-Martin"}, "BCN Tour La Chaux-de-Fonds": {"latitude": 46.9262933, "longitude": 6.6324944, "race": "BCN Tour La Chaux-de-Fonds", "date": {"mer. 23.05.2012": {"year": 2012, "day": 23, "month": 5, "categories": {"HS2": {"distance": 11, "rank": 158, "pace": 311000000000, "time": 3368.3}}, "weekday": "wednesday", "livingplace": "Villers le Lac"}}, "location": "Couvet"}, "BCN Tour Le Locle": {"latitude": 46.999113, "longitude": 6.733554799999999, "race": "BCN Tour Le Locle", "date": {"mer. 05.05.2010": {"year": 2010, "day": 5, "month": 5, "categories": {"HS2": {"distance": 11, "rank": 134, "pace": 305000000000, "time": 3328.9}}, "weekday": "wednesday", "livingplace": "Villers le Lac"}}, "location": "Les Ponts-de-Martel"}, "BCN Tour Neuch\u00e2tel": {"latitude": 46.9899874, "longitude": 6.9292732, "race": "BCN Tour Neuch\u00e2tel", "date": {"mer. 25.05.2011": {"year": 2011, "day": 25, "month": 5, "categories": {"HS2": {"distance": 11, "rank": 147, "pace": 318000000000, "time": 3630.0}}, "weekday": "wednesday", "livingplace": "Villers le Lac"}}, "location": "Neuch\u00e2tel"}, "BCN Tour Colombier": {"latitude": 46.9668714, "longitude": 6.8589727, "race": "BCN Tour Colombier", "date": {"mer. 16.05.2012": {"year": 2012, "day": 16, "month": 5, "categories": {"HS2": {"distance": 11, "rank": 159, "pace": 302000000000, "time": 3262.0}}, "weekday": "wednesday", "livingplace": "Villers le Lac"}, "mer. 23.04.2008": {"year": 2008, "day": 23, "month": 4, "categories": {"HS2": {"distance": 10, "rank": 138, "pace": 324000000000, "time": 3308.7}}, "weekday": "wednesday", "livingplace": "Villers le Lac"}, "mer. 21.04.2010": {"year": 2010, "day": 21, "month": 4, "categories": {"HS2": {"distance": 10, "rank": 146, "pace": 332000000000, "time": 3329.8}}, "weekday": "wednesday", "livingplace": "Villers le Lac"}}, "location": "Colombier NE"}, "BCN Tour Cornaux": {"latitude": 46.9668714, "longitude": 6.8589727, "race": "BCN Tour Cornaux", "date": {"mer. 25.04.2012": {"year": 2012, "day": 25, "month": 4, "categories": {"HS2": {"distance": 11, "rank": 150, "pace": 341000000000, "time": 3752.7}}, "weekday": "wednesday", "livingplace": "Villers le Lac"}}, "location": "Colombier NE"}}, "birth": 1965}