{"name": "Hofmann Charlie", "sex": "M", "races": {"La Trotteuse-Tissot, La Chaux-de-Fonds": {"latitude": 47.1034892, "longitude": 6.832783800000001, "race": "La Trotteuse-Tissot, La Chaux-de-Fonds", "date": {"sam. 14.12.2013": {"year": 2013, "day": 14, "month": 12, "categories": {"GC-H20": {"distance": 8, "rank": 37, "pace": 253000000000, "time": 2026.3}}, "weekday": "saturday", "livingplace": "Midday CEP Express"}}, "location": "La Chaux-de-Fonds"}, "Groupe E Tour Fribourg #2 Kerzers": {"latitude": 46.6175845, "longitude": 7.1654493, "race": "Groupe E Tour Fribourg #2 Kerzers", "date": {"mer. 28.08.2013": {"year": 2013, "day": 28, "month": 8, "categories": {"HE": {"distance": 12, "rank": 6, "pace": 240000000000, "time": 2845.0}}, "weekday": "wednesday", "livingplace": "Granois Saviese"}}, "location": "Charmey (Gruy\u00e8re)"}, "BCN Tour #1 Corcelles": {"latitude": 46.9668714, "longitude": 6.8589727, "race": "BCN Tour #1 Corcelles", "date": {"mer. 24.04.2013": {"year": 2013, "day": 24, "month": 4, "categories": {"HE": {"distance": 10, "rank": 19, "pace": 242000000000, "time": 2377.9}}, "weekday": "wednesday", "livingplace": "Rochefort"}}, "location": "Colombier NE"}, "BCN Tour Auvernier": {"latitude": 46.9668714, "longitude": 6.8589727, "race": "BCN Tour Auvernier", "date": {"mer. 20.04.2011": {"year": 2011, "day": 20, "month": 4, "categories": {"HJ": {"distance": 11, "rank": 35, "pace": 315000000000, "time": 3410.9}}, "weekday": "wednesday", "livingplace": "Rochefort"}}, "location": "Colombier NE"}, "BCN Tour #4 Fleurier": {"latitude": 47.1034892, "longitude": 6.832783800000001, "race": "BCN Tour #4 Fleurier", "date": {"mer. 15.05.2013": {"year": 2013, "day": 15, "month": 5, "categories": {"HE": {"distance": 9, "rank": 17, "pace": 237000000000, "time": 2055.4}}, "weekday": "wednesday", "livingplace": "Rochefort"}}, "location": "La Chaux-de-Fonds"}, "BCN Tour #2 La Chaux-de-Fonds": {"latitude": 47.0624261, "longitude": 6.9175754, "race": "BCN Tour #2 La Chaux-de-Fonds", "date": {"mer. 01.05.2013": {"year": 2013, "day": 1, "month": 5, "categories": {"HE": {"distance": 11, "rank": 65, "pace": 259000000000, "time": 2777.7}}, "weekday": "wednesday", "livingplace": "Rochefort"}}, "location": "Ch\u00e9zard-St-Martin"}, "Groupe E Tour Fribourg #4, Siviriez": {"latitude": 46.6585092, "longitude": 6.877722, "race": "Groupe E Tour Fribourg #4, Siviriez", "date": {"mer. 10.09.2014": {"year": 2014, "day": 10, "month": 9, "categories": {"H-Elite": {"distance": 11, "rank": 10, "pace": 259000000000, "time": 2800.4}}, "weekday": "wednesday", "livingplace": "Neuchatel"}}, "location": "Siviriez"}, "Groupe E Tour Fribourg #3 Charmey": {"latitude": 46.97488999999999, "longitude": 7.1954365, "race": "Groupe E Tour Fribourg #3 Charmey", "date": {"mer. 04.09.2013": {"year": 2013, "day": 4, "month": 9, "categories": {"HE": {"distance": 11, "rank": 7, "pace": 250000000000, "time": 2724.0}}, "weekday": "wednesday", "livingplace": "Granois Saviese"}}, "location": "Kerzers"}, "Groupe E Tour Fribourg #1 Siviriez": {"latitude": 46.81832, "longitude": 6.977279999999999, "race": "Groupe E Tour Fribourg #1 Siviriez", "date": {"mer. 21.08.2013": {"year": 2013, "day": 21, "month": 8, "categories": {"HE": {"distance": 10, "rank": 7, "pace": 254000000000, "time": 2492.5}}, "weekday": "wednesday", "livingplace": "Granois Saviese"}}, "location": "Cousset"}, "BCN Tour La Chaux-de-Fonds": {"latitude": 47.1034892, "longitude": 6.832783800000001, "race": "BCN Tour La Chaux-de-Fonds", "date": {"mer. 23.05.2012": {"year": 2012, "day": 23, "month": 5, "categories": {"HJ": {"distance": 11, "rank": 8, "pace": 248000000000, "time": 2687.7}}, "weekday": "wednesday", "livingplace": "Rochefort"}, "mer. 11.05.2011": {"year": 2011, "day": 11, "month": 5, "categories": {"HJ": {"distance": 11, "rank": 31, "pace": 330000000000, "time": 3538.1}}, "weekday": "wednesday", "livingplace": "Rochefort"}}, "location": "La Chaux-de-Fonds"}, "BCN Tour Les Ponts-de-Martel": {"latitude": 46.999113, "longitude": 6.733554799999999, "race": "BCN Tour Les Ponts-de-Martel", "date": {"mer. 09.05.2012": {"year": 2012, "day": 9, "month": 5, "categories": {"HJ": {"distance": 10, "rank": 9, "pace": 257000000000, "time": 2652.8}}, "weekday": "wednesday", "livingplace": "Rochefort"}}, "location": "Les Ponts-de-Martel"}, "BCN Tour Neuch\u00e2tel": {"latitude": 46.9899874, "longitude": 6.9292732, "race": "BCN Tour Neuch\u00e2tel", "date": {"mer. 30.05.2012": {"year": 2012, "day": 30, "month": 5, "categories": {"HJ": {"distance": 11, "rank": 10, "pace": 272000000000, "time": 3049.8}}, "weekday": "wednesday", "livingplace": "Rochefort"}, "mer. 25.05.2011": {"year": 2011, "day": 25, "month": 5, "categories": {"HJ": {"distance": 11, "rank": 33, "pace": 297000000000, "time": 3394.0}}, "weekday": "wednesday", "livingplace": "Rochefort"}}, "location": "Neuch\u00e2tel"}, "Lausanne Marathon": {"latitude": 46.5196535, "longitude": 6.6322734, "race": "Lausanne Marathon", "date": {"sam. 24.10.2015": {"year": 2015, "day": 24, "month": 10, "categories": {"10-H20": {"distance": 10, "rank": 37, "pace": 215000000000, "time": 2156.3}}, "weekday": "saturday", "livingplace": "Neuchatel"}}, "location": "Lausanne"}, "BCN Tour #5 Colombier": {"latitude": 46.9262933, "longitude": 6.6324944, "race": "BCN Tour #5 Colombier", "date": {"mer. 22.05.2013": {"year": 2013, "day": 22, "month": 5, "categories": {"HE": {"distance": 11, "rank": 30, "pace": 232000000000, "time": 2437.2}}, "weekday": "wednesday", "livingplace": "Rochefort"}}, "location": "Couvet"}, "Groupe E Tour Fribourg #5, Givisiez": {"latitude": 46.8128615, "longitude": 7.131657799999999, "race": "Groupe E Tour Fribourg #5, Givisiez", "date": {"mer. 17.09.2014": {"year": 2014, "day": 17, "month": 9, "categories": {"H-Elite": {"distance": 10, "rank": 11, "pace": 240000000000, "time": 2466.8}}, "weekday": "wednesday", "livingplace": "Neuchatel"}}, "location": "Givisiez"}, "BCN Tour Cornaux": {"latitude": 46.9668714, "longitude": 6.8589727, "race": "BCN Tour Cornaux", "date": {"mer. 25.04.2012": {"year": 2012, "day": 25, "month": 4, "categories": {"HJ": {"distance": 11, "rank": 12, "pace": 294000000000, "time": 3241.9}}, "weekday": "wednesday", "livingplace": "Rochefort"}}, "location": "Colombier NE"}, "BCN Tour #3 Dombresson": {"latitude": 46.999113, "longitude": 6.733554799999999, "race": "BCN Tour #3 Dombresson", "date": {"mer. 08.05.2013": {"year": 2013, "day": 8, "month": 5, "categories": {"HE": {"distance": 10, "rank": 23, "pace": 237000000000, "time": 2352.3}}, "weekday": "wednesday", "livingplace": "Rochefort"}}, "location": "Les Ponts-de-Martel"}, "Course de l'Escalade, Gen\u00e8ve": {"latitude": 46.2043907, "longitude": 6.1431577, "race": "Course de l'Escalade, Gen\u00e8ve", "date": {"sam. 07.12.2013": {"year": 2013, "day": 7, "month": 12, "categories": {"Esc-Hom1": {"distance": 7, "rank": 18, "pace": 222000000000, "time": 1611.6}}, "weekday": "saturday", "livingplace": "Granois Saviese"}, "sam. 05.12.2015": {"year": 2015, "day": 5, "month": 12, "categories": {"Mix3-H": {"distance": 7, "rank": 1, "pace": 218000000000, "time": 1600.3}}, "weekday": "saturday", "livingplace": "Neuchatel"}, "sam. 01.12.2012": {"year": 2012, "day": 1, "month": 12, "categories": {"Esc-JunM": {"distance": 7, "rank": 41, "pace": 258000000000, "time": 1877.7}}, "weekday": "saturday", "livingplace": "Rochefort"}}, "location": "Gen\u00e8ve"}, "BCN Tour Fontaine Cernier": {"latitude": 47.0624261, "longitude": 6.9175754, "race": "BCN Tour Fontaine Cernier", "date": {"mer. 27.04.2011": {"year": 2011, "day": 27, "month": 4, "categories": {"HJ": {"distance": 10, "rank": 23, "pace": 265000000000, "time": 2732.4}}, "weekday": "wednesday", "livingplace": "Rochefort"}}, "location": "Ch\u00e9zard-St-Martin"}, "Groupe E Tour Fribourg #2, Charmey": {"latitude": 46.6175845, "longitude": 7.1654493, "race": "Groupe E Tour Fribourg #2, Charmey", "date": {"mer. 27.08.2014": {"year": 2014, "day": 27, "month": 8, "categories": {"H-Elite": {"distance": 10, "rank": 7, "pace": 246000000000, "time": 2380.4}}, "weekday": "wednesday", "livingplace": "Neuchatel"}}, "location": "Charmey (Gruy\u00e8re)"}, "Groupe E Tour Fribourg #3 Estavayer-le-Lac": {"latitude": 46.97488999999999, "longitude": 7.1954365, "race": "Groupe E Tour Fribourg #3 Estavayer-le-Lac", "date": {"mer. 12.09.2012": {"year": 2012, "day": 12, "month": 9, "categories": {"HJ": {"distance": 10, "rank": 2, "pace": 230000000000, "time": 2277.1}}, "weekday": "wednesday", "livingplace": "Rochefort"}}, "location": "Kerzers"}, "Groupe E Tour Fribourg #4 Montagny": {"latitude": 46.6585092, "longitude": 6.877722, "race": "Groupe E Tour Fribourg #4 Montagny", "date": {"mer. 11.09.2013": {"year": 2013, "day": 11, "month": 9, "categories": {"HE": {"distance": 10, "rank": 6, "pace": 231000000000, "time": 2263.8}}, "weekday": "wednesday", "livingplace": "Granois Saviese"}}, "location": "Siviriez"}, "BCN Tour Couvet": {"latitude": 47.0624261, "longitude": 6.9175754, "race": "BCN Tour Couvet", "date": {"mer. 02.05.2012": {"year": 2012, "day": 2, "month": 5, "categories": {"HJ": {"distance": 11, "rank": 10, "pace": 261000000000, "time": 2913.1}}, "weekday": "wednesday", "livingplace": "Rochefort"}}, "location": "Ch\u00e9zard-St-Martin"}, "Groupe E Tour Fribourg #3, Kerzers": {"latitude": 46.97488999999999, "longitude": 7.1954365, "race": "Groupe E Tour Fribourg #3, Kerzers", "date": {"mer. 03.09.2014": {"year": 2014, "day": 3, "month": 9, "categories": {"H-Ellite": {"distance": 10, "rank": 7, "pace": 223000000000, "time": 2274.0}}, "weekday": "wednesday", "livingplace": "Neuchatel"}}, "location": "Kerzers"}, "Groupe E Tour Fribourg #1, Cousset": {"latitude": 46.81832, "longitude": 6.977279999999999, "race": "Groupe E Tour Fribourg #1, Cousset", "date": {"mer. 20.08.2014": {"year": 2014, "day": 20, "month": 8, "categories": {"H-Elite": {"distance": 9, "rank": 8, "pace": 219000000000, "time": 2067.9}}, "weekday": "wednesday", "livingplace": "Neuchatel"}}, "location": "Cousset"}, "BCN Tour #6 Neuch\u00e2tel": {"latitude": 46.9899874, "longitude": 6.9292732, "race": "BCN Tour #6 Neuch\u00e2tel", "date": {"mer. 29.05.2013": {"year": 2013, "day": 29, "month": 5, "categories": {"HE": {"distance": 11, "rank": 16, "pace": 245000000000, "time": 2701.4}}, "weekday": "wednesday", "livingplace": "Rochefort"}}, "location": "Neuch\u00e2tel"}, "BCN Tour La Br\u00e9vine": {"latitude": 46.999113, "longitude": 6.733554799999999, "race": "BCN Tour La Br\u00e9vine", "date": {"mer. 04.05.2011": {"year": 2011, "day": 4, "month": 5, "categories": {"HJ": {"distance": 10, "rank": 33, "pace": 297000000000, "time": 2972.1}}, "weekday": "wednesday", "livingplace": "Rochefort"}}, "location": "Les Ponts-de-Martel"}, "Groupe E Tour Fribourg #5 Fribourg": {"latitude": 46.8128615, "longitude": 7.131657799999999, "race": "Groupe E Tour Fribourg #5 Fribourg", "date": {"mer. 18.09.2013": {"year": 2013, "day": 18, "month": 9, "categories": {"HE": {"distance": 10, "rank": 7, "pace": 229000000000, "time": 2290.0}}, "weekday": "wednesday", "livingplace": "Granois Saviese"}}, "location": "Givisiez"}, "BCN Tour Les Ponts de Martel": {"latitude": 46.9262933, "longitude": 6.6324944, "race": "BCN Tour Les Ponts de Martel", "date": {"mer. 18.05.2011": {"year": 2011, "day": 18, "month": 5, "categories": {"HJ": {"distance": 13, "rank": 27, "pace": 292000000000, "time": 3740.4}}, "weekday": "wednesday", "livingplace": "Rochefort"}}, "location": "Couvet"}, "Course p\u00e9destre Thyon-Dixence, Thyon": {"latitude": NaN, "longitude": NaN, "race": "Course p\u00e9destre Thyon-Dixence, Thyon", "date": {"dim. 05.08.2012": {"year": 2012, "day": 5, "month": 8, "categories": {"JunHom": {"distance": 16, "rank": 11, "pace": 397000000000, "time": 6497.1}}, "weekday": "sunday", "livingplace": "Rochefort"}, "dim. 03.08.2014": {"year": 2014, "day": 3, "month": 8, "categories": {"HomElite": {"distance": 16, "rank": 38, "pace": 379000000000, "time": 6200.6}}, "weekday": "sunday", "livingplace": "Neuchatel"}}, "location": "Thyon-Les Collons"}, "Groupe E Tour Fribourg #2 Plafayon": {"latitude": 46.6175845, "longitude": 7.1654493, "race": "Groupe E Tour Fribourg #2 Plafayon", "date": {"mer. 05.09.2012": {"year": 2012, "day": 5, "month": 9, "categories": {"HJ": {"distance": 9, "rank": 2, "pace": 235000000000, "time": 2203.1}}, "weekday": "wednesday", "livingplace": "Rochefort"}}, "location": "Charmey (Gruy\u00e8re)"}, "BCN Tour Colombier": {"latitude": 47.1034892, "longitude": 6.832783800000001, "race": "BCN Tour Colombier", "date": {"mer. 16.05.2012": {"year": 2012, "day": 16, "month": 5, "categories": {"HJ": {"distance": 11, "rank": 15, "pace": 259000000000, "time": 2801.2}}, "weekday": "wednesday", "livingplace": "Rochefort"}}, "location": "La Chaux-de-Fonds"}}, "birth": 1993}