{"name": "Hofmann Pascal", "sex": "M", "races": {"Course de l'Escalade, Gen\u00e8ve": {"latitude": 46.2043907, "longitude": 6.1431577, "race": "Course de l'Escalade, Gen\u00e8ve", "date": {"sam. 06.12.2003": {"year": 2003, "day": 6, "month": 12, "categories": {"Hommes2": {"distance": 7, "rank": 1307, "pace": 305000000000, "time": 2215.5}}, "weekday": "saturday", "livingplace": "Areuse"}, "sam. 07.12.2002": {"year": 2002, "day": 7, "month": 12, "categories": {"Hommes2": {"distance": 7, "rank": 825, "pace": 301000000000, "time": 2189.0}}, "weekday": "saturday", "livingplace": "Areuse"}, "sam. 03.12.2005": {"year": 2005, "day": 3, "month": 12, "categories": {"Hommes2": {"distance": 7, "rank": 1532, "pace": 325000000000, "time": 2361.6}}, "weekday": "saturday", "livingplace": "Cortaillod"}}, "location": "Gen\u00e8ve"}, "La Trotteuse-Tissot, La Chaux-de-Fonds": {"latitude": 47.1034892, "longitude": 6.832783800000001, "race": "La Trotteuse-Tissot, La Chaux-de-Fonds", "date": {"sam. 12.12.2015": {"year": 2015, "day": 12, "month": 12, "categories": {"GC-H40": {"distance": 8, "rank": 240, "pace": 350000000000, "time": 2807.2}}, "weekday": "saturday", "livingplace": "Cortaillod"}, "sam. 13.12.2014": {"year": 2014, "day": 13, "month": 12, "categories": {"GC-H40": {"distance": 8, "rank": 196, "pace": 385000000000, "time": 3086.4}}, "weekday": "saturday", "livingplace": "Cortaillod"}}, "location": "La Chaux-de-Fonds"}, "BCN Tour Fontaine Cernier": {"latitude": 47.0624261, "longitude": 6.9175754, "race": "BCN Tour Fontaine Cernier", "date": {"mer. 27.04.2011": {"year": 2011, "day": 27, "month": 4, "categories": {"HS2": {"distance": 10, "rank": 281, "pace": 337000000000, "time": 3475.2}}, "weekday": "wednesday", "livingplace": "Cortaillod"}}, "location": "Ch\u00e9zard-St-Martin"}, "BCN Tour Neuch\u00e2tel": {"latitude": 46.9899874, "longitude": 6.9292732, "race": "BCN Tour Neuch\u00e2tel", "date": {"mer. 26.05.2010": {"year": 2010, "day": 26, "month": 5, "categories": {"HS2": {"distance": 10, "rank": 297, "pace": 472000000000, "time": 4586.5}}, "weekday": "wednesday", "livingplace": "Cortaillod"}, "mer. 25.05.2011": {"year": 2011, "day": 25, "month": 5, "categories": {"HS2": {"distance": 11, "rank": 306, "pace": 385000000000, "time": 4397.3}}, "weekday": "wednesday", "livingplace": "Cortaillod"}}, "location": "Neuch\u00e2tel"}, "BCN Tour #5 Colombier": {"latitude": 46.9262933, "longitude": 6.6324944, "race": "BCN Tour #5 Colombier", "date": {"mer. 22.05.2013": {"year": 2013, "day": 22, "month": 5, "categories": {"HS2": {"distance": 11, "rank": 321, "pace": 333000000000, "time": 3501.0}}, "weekday": "wednesday", "livingplace": "Cortaillod"}}, "location": "Couvet"}, "20km de Lausanne": {"latitude": 46.5196535, "longitude": 6.6322734, "race": "20km de Lausanne", "date": {"sam. 22.04.2006": {"year": 2006, "day": 22, "month": 4, "categories": {"10/H30": {"distance": 10, "rank": 342, "pace": 333000000000, "time": 3332.7}}, "weekday": "saturday", "livingplace": "Cortaillod"}}, "location": "Lausanne"}, "BCN Tour Le Landeron": {"latitude": 46.9668714, "longitude": 6.8589727, "race": "BCN Tour Le Landeron", "date": {"mer. 22.04.2009": {"year": 2009, "day": 22, "month": 4, "categories": {"HS1": {"distance": 11, "rank": 204, "pace": 370000000000, "time": 4114.7}}, "weekday": "wednesday", "livingplace": "Cortaillod"}}, "location": "Colombier NE"}, "BCN Tour Auvernier": {"latitude": 46.9668714, "longitude": 6.8589727, "race": "BCN Tour Auvernier", "date": {"mer. 20.04.2011": {"year": 2011, "day": 20, "month": 4, "categories": {"HS2": {"distance": 11, "rank": 305, "pace": 397000000000, "time": 4294.0}}, "weekday": "wednesday", "livingplace": "Cortaillod"}}, "location": "Colombier NE"}, "Kerzerslauf": {"latitude": 46.97488999999999, "longitude": 7.1954365, "race": "Kerzerslauf", "date": {"sam. 21.03.2015": {"year": 2015, "day": 21, "month": 3, "categories": {"5-M20": {"distance": 5, "rank": 141, "pace": 333000000000, "time": 1667.3}}, "weekday": "saturday", "livingplace": "Cortaillod"}}, "location": "Kerzers"}}, "birth": 1970}