{"name": "Hollinger Jason", "sex": "M", "races": {"Tour du pays de Vaud #1 \u2013 St  Prex": {"latitude": 46.7784736, "longitude": 6.641183, "race": "Tour du pays de Vaud #1 \u2013 St  Prex", "date": {"mer. 11.08.2010": {"year": 2010, "day": 11, "month": 8, "categories": {"HSen1": {"distance": 8, "rank": 79, "pace": 304000000000, "time": 2556.7}}, "weekday": "wednesday", "livingplace": "Luins"}}, "location": "Yverdon-les-Bains"}, "Tour du Pays de Vaud printanier #2 Yverdon-les-Bains": {"latitude": 46.6698891, "longitude": 6.7975224, "race": "Tour du Pays de Vaud printanier #2 Yverdon-les-Bains", "date": {"mer. 11.06.2014": {"year": 2014, "day": 11, "month": 6, "categories": {"H-Sen1": {"distance": 9, "rank": 87, "pace": 350000000000, "time": 3187.1}}, "weekday": "wednesday", "livingplace": "Rolle"}}, "location": "Moudon"}, "Morat-Fribourg": {"latitude": 46.92922110000001, "longitude": 7.120184, "race": "Morat-Fribourg", "date": {"sam. 02.10.2010": {"year": 2010, "day": 2, "month": 10, "categories": {"17-M20": {"distance": 17, "rank": 1335, "pace": 326000000000, "time": 5607.7}}, "weekday": "saturday", "livingplace": "Luins"}, "sam. 01.10.2011": {"year": 2011, "day": 1, "month": 10, "categories": {"17-M20": {"distance": 17, "rank": 1338, "pace": 325000000000, "time": 5585.9}}, "weekday": "saturday", "livingplace": "Essertines sur Rolle"}, "sam. 04.10.2008": {"year": 2008, "day": 4, "month": 10, "categories": {"C-M20": {"distance": 17, "rank": 1395, "pace": 326000000000, "time": 5608.9}}, "weekday": "saturday", "livingplace": "Luins"}, "sam. 06.10.2012": {"year": 2012, "day": 6, "month": 10, "categories": {"17-M20": {"distance": 17, "rank": 1643, "pace": 344000000000, "time": 6016.3}}, "weekday": "saturday", "livingplace": "Essertines sur Rolle"}, "sam. 04.10.2014": {"year": 2014, "day": 4, "month": 10, "categories": {"17-M20": {"distance": 17, "rank": 1799, "pace": 347000000000, "time": 5964.6}}, "weekday": "saturday", "livingplace": "Essertines sur Rolle"}}, "location": "Murten"}, "Tour du Pays de Vaud printanier #1 Chavornay": {"latitude": 46.3832683, "longitude": 6.2347852, "race": "Tour du Pays de Vaud printanier #1 Chavornay", "date": {"mer. 30.05.2012": {"year": 2012, "day": 30, "month": 5, "categories": {"H-Sen1": {"distance": 9, "rank": 61, "pace": 336000000000, "time": 3010.7}}, "weekday": "wednesday", "livingplace": "Rolle"}}, "location": "Nyon"}, "Tour du pays de Vaud #1 - Mezi\u00e8res": {"latitude": 46.7784736, "longitude": 6.641183, "race": "Tour du pays de Vaud #1 - Mezi\u00e8res", "date": {"mer. 10.08.2011": {"year": 2011, "day": 10, "month": 8, "categories": {"H-Sen1": {"distance": 9, "rank": 79, "pace": 289000000000, "time": 2463.6}}, "weekday": "wednesday", "livingplace": "Essertines sur Rolle"}}, "location": "Yverdon-les-Bains"}, "Tour du Pays de Vaud #5 - La Sarraz": {"latitude": 46.5993131, "longitude": 6.539251200000001, "race": "Tour du Pays de Vaud #5 - La Sarraz", "date": {"mer. 08.09.2010": {"year": 2010, "day": 8, "month": 9, "categories": {"HSen1": {"distance": 9, "rank": 118, "pace": 321000000000, "time": 2927.7}}, "weekday": "wednesday", "livingplace": "Luins"}}, "location": "Penthaz"}, "Tour du Pays de Vaud #2 - Genolier": {"latitude": 46.5955273, "longitude": 6.7702883, "race": "Tour du Pays de Vaud #2 - Genolier", "date": {"mer. 17.08.2011": {"year": 2011, "day": 17, "month": 8, "categories": {"H-Sen1": {"distance": 9, "rank": 68, "pace": 283000000000, "time": 2406.4}}, "weekday": "wednesday", "livingplace": "Essertines sur Rolle"}, "mer. 18.08.2010": {"year": 2010, "day": 18, "month": 8, "categories": {"HSen1": {"distance": 8, "rank": 91, "pace": 303000000000, "time": 2460.7}}, "weekday": "wednesday", "livingplace": "Luins"}}, "location": "M\u00e9zi\u00e8res VD"}, "Tour du pays de Vaud #5 - Penthaz": {"latitude": 46.5993131, "longitude": 6.539251200000001, "race": "Tour du pays de Vaud #5 - Penthaz", "date": {"mer. 07.09.2011": {"year": 2011, "day": 7, "month": 9, "categories": {"H-Sen1": {"distance": 8, "rank": 63, "pace": 303000000000, "time": 2536.5}}, "weekday": "wednesday", "livingplace": "Essertines sur Rolle"}}, "location": "Penthaz"}, "Tour du Pays de Vaud printanier #3 - Yens": {"latitude": 46.7829756, "longitude": 6.5728678, "race": "Tour du Pays de Vaud printanier #3 - Yens", "date": {"mer. 18.06.2014": {"year": 2014, "day": 18, "month": 6, "categories": {"H-Sen1": {"distance": 9, "rank": 70, "pace": 300000000000, "time": 2731.1}}, "weekday": "wednesday", "livingplace": "Rolle"}}, "location": "Champvent"}, "Tour du Pays de Vaud printanier #1 Moudon": {"latitude": 46.3832683, "longitude": 6.2347852, "race": "Tour du Pays de Vaud printanier #1 Moudon", "date": {"mer. 04.06.2014": {"year": 2014, "day": 4, "month": 6, "categories": {"H-Sen1": {"distance": 8, "rank": 85, "pace": 323000000000, "time": 2718.4}}, "weekday": "wednesday", "livingplace": "Rolle"}}, "location": "Nyon"}, "Lausanne Marathon": {"latitude": 46.5196535, "longitude": 6.6322734, "race": "Lausanne Marathon", "date": {"dim. 30.10.2011": {"year": 2011, "day": 30, "month": 10, "categories": {"10-H2": {"distance": 10, "rank": 179, "pace": 277000000000, "time": 2771.8}}, "weekday": "sunday", "livingplace": "Essertines sur Rolle"}}, "location": "Lausanne"}, "Tour du pays de Vaud #6 - St  Prex": {"latitude": 46.4829113, "longitude": 6.458343500000001, "race": "Tour du pays de Vaud #6 - St  Prex", "date": {"mer. 14.09.2011": {"year": 2011, "day": 14, "month": 9, "categories": {"H-Sen1": {"distance": 9, "rank": 95, "pace": 280000000000, "time": 2410.8}}, "weekday": "wednesday", "livingplace": "Essertines sur Rolle"}}, "location": "St-Prex"}, "Kerzerslauf": {"latitude": 46.97488999999999, "longitude": 7.1954365, "race": "Kerzerslauf", "date": {"sam. 15.03.2014": {"year": 2014, "day": 15, "month": 3, "categories": {"15-M35": {"distance": 15, "rank": 369, "pace": 331000000000, "time": 4979.9}}, "weekday": "saturday", "livingplace": "Essertines sur Rolle"}}, "location": "Kerzers"}}, "birth": 1976}