{"name": "Hollenstein Evelyne", "sex": "F", "races": {"Steinh\u00f6lzlilauf, Liebefeld": {"latitude": 46.933331, "longitude": 7.416668, "race": "Steinh\u00f6lzlilauf, Liebefeld", "date": {"dim. 06.12.2009": {"year": 2009, "day": 6, "month": 12, "categories": {"HauptF": {"distance": 11, "rank": 10, "pace": 312000000000, "time": 3276.0}}, "weekday": "sunday", "livingplace": "Bern"}}, "location": "Liebefeld"}, "10km Schweizer Meisterschaften Lyss": {"latitude": 47.0746504, "longitude": 7.3077022, "race": "10km Schweizer Meisterschaften Lyss", "date": {"sam. 02.04.2011": {"year": 2011, "day": 2, "month": 4, "categories": {"F-W20": {"distance": 6, "rank": 3, "pace": 285000000000, "time": 1628.8}}, "weekday": "saturday", "livingplace": "Bern"}}, "location": "Lyss"}, "Thuner Stadtlauf, Thun": {"latitude": 46.7579868, "longitude": 7.6279881, "race": "Thuner Stadtlauf, Thun", "date": {"dim. 22.08.2010": {"year": 2010, "day": 22, "month": 8, "categories": {"10-W20": {"distance": 10, "rank": 8, "pace": 298000000000, "time": 2984.1}}, "weekday": "sunday", "livingplace": "Bern"}}, "location": "Thun"}, "Kerzerslauf": {"latitude": 46.97488999999999, "longitude": 7.1954365, "race": "Kerzerslauf", "date": {"sam. 19.03.2011": {"year": 2011, "day": 19, "month": 3, "categories": {"5-F20": {"distance": 5, "rank": 21, "pace": 287000000000, "time": 1437.1}}, "weekday": "saturday", "livingplace": "Bern"}, "sam. 21.03.2009": {"year": 2009, "day": 21, "month": 3, "categories": {"15-F20": {"distance": 15, "rank": 252, "pace": 357000000000, "time": 5356.2}}, "weekday": "saturday", "livingplace": "Bern"}}, "location": "Kerzers"}, "Schweizer Frauenlauf Bern": {"latitude": 46.9479739, "longitude": 7.4474468, "race": "Schweizer Frauenlauf Bern", "date": {"dim. 13.06.2010": {"year": 2010, "day": 13, "month": 6, "categories": {"10-W20": {"distance": 10, "rank": 123, "pace": 305000000000, "time": 3050.7}}, "weekday": "sunday", "livingplace": "Bern"}, "dim. 14.06.2009": {"year": 2009, "day": 14, "month": 6, "categories": {"10-W20": {"distance": 10, "rank": 169, "pace": 317000000000, "time": 3173.7}}, "weekday": "sunday", "livingplace": "Kirchberg"}}, "location": "Bern"}}, "birth": 1983}