{"name": "Honzal Jann", "sex": "M", "races": {"T\u00fcrlerseelauf Affoltern am Albis": {"latitude": 47.2795081, "longitude": 8.4540083, "race": "T\u00fcrlerseelauf Affoltern am Albis", "date": {"sam. 30.08.2014": {"year": 2014, "day": 30, "month": 8, "categories": {"V": {"distance": 2, "rank": 12, "pace": 312000000000, "time": 563.3}}, "weekday": "saturday", "livingplace": "Zurich"}}, "location": "Affoltern am Albis"}, "M\u00e4nned\u00f6rfler Waldlauf": {"latitude": 47.2574625, "longitude": 8.6946733, "race": "M\u00e4nned\u00f6rfler Waldlauf", "date": {"sam. 29.03.2014": {"year": 2014, "day": 29, "month": 3, "categories": {"V": {"distance": 1, "rank": 37, "pace": 325000000000, "time": 390.1}}, "weekday": "saturday", "livingplace": "Zurich"}}, "location": "M\u00e4nnedorf"}, "Laufsporttag Winterthur": {"latitude": 39.8088766, "longitude": -75.6037351, "race": "Laufsporttag Winterthur", "date": {"sam. 01.03.2014": {"year": 2014, "day": 1, "month": 3, "categories": {"V": {"distance": 1, "rank": 25, "pace": 276000000000, "time": 331.2}}, "weekday": "saturday", "livingplace": "Zurich"}}, "location": "Winterthur"}, "Rheinfall-Lauf, Neuhausen": {"latitude": 47.6837423, "longitude": 8.6126098, "race": "Rheinfall-Lauf, Neuhausen", "date": {"dim. 24.08.2014": {"year": 2014, "day": 24, "month": 8, "categories": {"V": {"distance": 2, "rank": 9, "pace": 240000000000, "time": 552.5}}, "weekday": "sunday", "livingplace": "Zurich"}}, "location": "Neuhausen am Rheinfall"}, "Zumiker-Lauf": {"latitude": NaN, "longitude": NaN, "race": "Zumiker-Lauf", "date": {"sam. 10.05.2014": {"year": 2014, "day": 10, "month": 5, "categories": {"V": {"distance": 1, "rank": 20, "pace": 220000000000, "time": 264.8}}, "weekday": "saturday", "livingplace": "Zurich"}}, "location": "Zumikon"}, "Dietiker Neujahrslauf, Dietikon": {"latitude": 47.4053885, "longitude": 8.39977, "race": "Dietiker Neujahrslauf, Dietikon", "date": {"sam. 10.01.2015": {"year": 2015, "day": 10, "month": 1, "categories": {"U": {"distance": 2, "rank": 30, "pace": 303000000000, "time": 545.8}}, "weekday": "saturday", "livingplace": "Zurich"}, "sam. 11.01.2014": {"year": 2014, "day": 11, "month": 1, "categories": {"V": {"distance": 2, "rank": 7, "pace": 293000000000, "time": 527.5}}, "weekday": "saturday", "livingplace": "Zurich"}}, "location": "Dietikon"}, "Kerzerslauf": {"latitude": 46.97488999999999, "longitude": 7.1954365, "race": "Kerzerslauf", "date": {"sam. 15.03.2014": {"year": 2014, "day": 15, "month": 3, "categories": {"2-U10M": {"distance": 1, "rank": 48, "pace": 271000000000, "time": 379.9}}, "weekday": "saturday", "livingplace": "Zurich"}}, "location": "Kerzers"}, "Z\u00fcrcher Silvesterlauf, Z\u00fcrich": {"latitude": 47.3768866, "longitude": 8.541694, "race": "Z\u00fcrcher Silvesterlauf, Z\u00fcrich", "date": {"dim. 16.12.2012": {"year": 2012, "day": 16, "month": 12, "categories": {"Sch\u00fcB1-M": {"distance": 1, "rank": 461, "pace": 321000000000, "time": 450.0}}, "weekday": "sunday", "livingplace": "Zurich"}, "dim. 14.12.2014": {"year": 2014, "day": 14, "month": 12, "categories": {"U10M": {"distance": 1, "rank": 81, "pace": 282000000000, "time": 452.5}}, "weekday": "sunday", "livingplace": "Zurich"}, "dim. 11.12.2011": {"year": 2011, "day": 11, "month": 12, "categories": {"Sch\u00fcB1-M": {"distance": 1, "rank": 392, "pace": 328000000000, "time": 459.5}}, "weekday": "sunday", "livingplace": "Zurich"}}, "location": "Z\u00fcrich"}}, "birth": 2005}