{"name": "Horisberger Claire", "sex": "F", "races": {"Tour du Pays de Vaud etape 5 - La Sarraz": {"latitude": 46.5993131, "longitude": 6.539251200000001, "race": "Tour du Pays de Vaud etape 5 - La Sarraz", "date": {"mer. 10.09.2008": {"year": 2008, "day": 10, "month": 9, "categories": {"DamSen2": {"distance": 9, "rank": 24, "pace": 322000000000, "time": 2776.9}}, "weekday": "wednesday", "livingplace": "Chavannes le Veyron"}}, "location": "Penthaz"}, "Tour du Pays de Vaud #2 - Genolier": {"latitude": 46.5955273, "longitude": 6.7702883, "race": "Tour du Pays de Vaud #2 - Genolier", "date": {"mer. 17.08.2011": {"year": 2011, "day": 17, "month": 8, "categories": {"D-Sen2": {"distance": 9, "rank": 51, "pace": 367000000000, "time": 3120.7}}, "weekday": "wednesday", "livingplace": "Chavannes le Veyron"}}, "location": "M\u00e9zi\u00e8res VD"}, "Tour du Pays de Vaud #4 - La Sarraz": {"latitude": 46.7088129, "longitude": 6.5707689, "race": "Tour du Pays de Vaud #4 - La Sarraz", "date": {"mer. 04.09.2013": {"year": 2013, "day": 4, "month": 9, "categories": {"D-Sen2": {"distance": 9, "rank": 31, "pace": 350000000000, "time": 2978.1}}, "weekday": "wednesday", "livingplace": "Chavannes le Veyron"}}, "location": "Chavornay"}, "Tour du pays de Vaud #6 - St  Prex": {"latitude": 46.4829113, "longitude": 6.458343500000001, "race": "Tour du pays de Vaud #6 - St  Prex", "date": {"mer. 14.09.2011": {"year": 2011, "day": 14, "month": 9, "categories": {"D-Sen2": {"distance": 9, "rank": 50, "pace": 338000000000, "time": 2912.3}}, "weekday": "wednesday", "livingplace": "Chavannes le Veyron"}}, "location": "St-Prex"}, "Tour du Pays de Vaud etape 2 - Genolier": {"latitude": 46.5955273, "longitude": 6.7702883, "race": "Tour du Pays de Vaud etape 2 - Genolier", "date": {"mer. 20.08.2008": {"year": 2008, "day": 20, "month": 8, "categories": {"DamSen2": {"distance": 8, "rank": 25, "pace": 331000000000, "time": 2752.2}}, "weekday": "wednesday", "livingplace": "Chavannes le Veyron"}}, "location": "M\u00e9zi\u00e8res VD"}, "Tour du pays de Vaud #1 - Mezi\u00e8res": {"latitude": 46.7784736, "longitude": 6.641183, "race": "Tour du pays de Vaud #1 - Mezi\u00e8res", "date": {"mer. 10.08.2011": {"year": 2011, "day": 10, "month": 8, "categories": {"D-Sen2": {"distance": 9, "rank": 44, "pace": 339000000000, "time": 2884.4}}, "weekday": "wednesday", "livingplace": "Chavannes le Veyron"}}, "location": "Yverdon-les-Bains"}, "Tour du pays de Vaud #5 - Penthaz": {"latitude": 46.5993131, "longitude": 6.539251200000001, "race": "Tour du pays de Vaud #5 - Penthaz", "date": {"mer. 07.09.2011": {"year": 2011, "day": 7, "month": 9, "categories": {"D-Sen2": {"distance": 8, "rank": 37, "pace": 380000000000, "time": 3180.5}}, "weekday": "wednesday", "livingplace": "Chavannes le Veyron"}}, "location": "Penthaz"}, "Les Traine-Savates, Cheseaux-sur-Lausanne": {"latitude": 46.585452, "longitude": 6.6047712, "race": "Les Traine-Savates, Cheseaux-sur-Lausanne", "date": {"sam. 10.04.2010": {"year": 2010, "day": 10, "month": 4, "categories": {"Dam V1": {"distance": 10, "rank": 44, "pace": 317000000000, "time": 3301.0}}, "weekday": "saturday", "livingplace": "Chavannes le Veyron"}}, "location": "Cheseaux-sur-Lausanne"}, "Tour du Pays de Vaud #2 - Mezi\u00e8res": {"latitude": 46.5955273, "longitude": 6.7702883, "race": "Tour du Pays de Vaud #2 - Mezi\u00e8res", "date": {"mer. 21.08.2013": {"year": 2013, "day": 21, "month": 8, "categories": {"D-Sen2": {"distance": 8, "rank": 35, "pace": 369000000000, "time": 2992.1}}, "weekday": "wednesday", "livingplace": "Chavannes le Veyron"}}, "location": "M\u00e9zi\u00e8res VD"}}, "birth": 1966}