{"name": "Horlacher Andreas", "sex": "M", "races": {"Lucerne Marathon, Luzern": {"latitude": 47.05016819999999, "longitude": 8.3093072, "race": "Lucerne Marathon, Luzern", "date": {"dim. 25.10.2009": {"year": 2009, "day": 25, "month": 10, "categories": {"H-M40": {"distance": 21, "rank": 108, "pace": 253000000000, "time": 5350.7}}, "weekday": "sunday", "livingplace": "St. Gallen"}, "dim. 31.10.2010": {"year": 2010, "day": 31, "month": 10, "categories": {"H-M40": {"distance": 21, "rank": 260, "pace": 272000000000, "time": 5747.6}}, "weekday": "sunday", "livingplace": "St. Gallen"}}, "location": "Luzern"}, "SwissCityMarathon - Lucerne, Luzern": {"latitude": 47.05016819999999, "longitude": 8.3093072, "race": "SwissCityMarathon - Lucerne, Luzern", "date": {"dim. 26.10.2014": {"year": 2014, "day": 26, "month": 10, "categories": {"H-M40": {"distance": 21, "rank": 186, "pace": 266000000000, "time": 5621.7}}, "weekday": "sunday", "livingplace": "St. Gallen"}}, "location": "Luzern"}, "St  Galler Altstadtlauf": {"latitude": 47.4244818, "longitude": 9.3767173, "race": "St  Galler Altstadtlauf", "date": {"sam. 23.09.2006": {"year": 2006, "day": 23, "month": 9, "categories": {"Sen2M": {"distance": 6, "rank": 19, "pace": 259000000000, "time": 1477.5}}, "weekday": "saturday", "livingplace": "St. Gallen"}}, "location": "St. Gallen"}, "Int Greifenseelauf, Uster": {"latitude": 47.3482747, "longitude": 8.717873899999999, "race": "Int Greifenseelauf, Uster", "date": {"sam. 19.09.2009": {"year": 2009, "day": 19, "month": 9, "categories": {"H-M40": {"distance": 21, "rank": 231, "pace": 278000000000, "time": 5877.6}}, "weekday": "saturday", "livingplace": "St. Gallen"}, "sam. 20.09.2008": {"year": 2008, "day": 20, "month": 9, "categories": {"H-M40": {"distance": 21, "rank": 592, "pace": 304000000000, "time": 6430.2}}, "weekday": "saturday", "livingplace": "St. Gallen"}}, "location": "Uster"}, "Winterthur Marathon": {"latitude": 39.8088766, "longitude": -75.6037351, "race": "Winterthur Marathon", "date": {"dim. 20.05.2007": {"year": 2007, "day": 20, "month": 5, "categories": {"MM40": {"distance": 42, "rank": 14, "pace": 279000000000, "time": 11765.1}}, "weekday": "sunday", "livingplace": "St. Gallen"}}, "location": "Winterthur"}, "Z\u00fcrich Marathon, Teamrun und Cityrun": {"latitude": 47.3768866, "longitude": 8.541694, "race": "Z\u00fcrich Marathon, Teamrun und Cityrun", "date": {"dim. 26.04.2009": {"year": 2009, "day": 26, "month": 4, "categories": {"M40": {"distance": 42, "rank": 143, "pace": 274000000000, "time": 11590.2}}, "weekday": "sunday", "livingplace": "St. Gallen"}, "dim. 22.04.2012": {"year": 2012, "day": 22, "month": 4, "categories": {"42-M45": {"distance": 42, "rank": 251, "pace": 310000000000, "time": 13104.5}}, "weekday": "sunday", "livingplace": "St. Gallen"}}, "location": "Z\u00fcrich"}}, "birth": 1966}