{"name": "Hostettler Elodie", "sex": "F", "races": {"Course de l'Avent, Fribourg": {"latitude": 46.8064773, "longitude": 7.161971899999999, "race": "Course de l'Avent, Fribourg", "date": {"dim. 24.11.2013": {"year": 2013, "day": 24, "month": 11, "categories": {"E-F20": {"distance": 7, "rank": 10, "pace": 309000000000, "time": 2291.4}}, "weekday": "sunday", "livingplace": "Romont"}}, "location": "Fribourg"}, "Morat-Fribourg": {"latitude": 46.92922110000001, "longitude": 7.120184, "race": "Morat-Fribourg", "date": {"sam. 05.10.2013": {"year": 2013, "day": 5, "month": 10, "categories": {"17-W20": {"distance": 17, "rank": 341, "pace": 348000000000, "time": 6076.9}}, "weekday": "saturday", "livingplace": "Romont"}}, "location": "Murten"}, "Kerzerslauf": {"latitude": 46.97488999999999, "longitude": 7.1954365, "race": "Kerzerslauf", "date": {"sam. 15.03.2014": {"year": 2014, "day": 15, "month": 3, "categories": {"15-F20": {"distance": 15, "rank": 320, "pace": 351000000000, "time": 5267.1}}, "weekday": "saturday", "livingplace": "Romont"}}, "location": "Kerzers"}, "Corrida Bulloise, Bulle": {"latitude": 46.6154512, "longitude": 7.057726799999999, "race": "Corrida Bulloise, Bulle", "date": {"sam. 16.11.2013": {"year": 2013, "day": 16, "month": 11, "categories": {"F20": {"distance": 6, "rank": 129, "pace": 307000000000, "time": 1889.4}}, "weekday": "saturday", "livingplace": "Romont"}}, "location": "Bulle"}, "20km de Lausanne": {"latitude": 46.5196535, "longitude": 6.6322734, "race": "20km de Lausanne", "date": {"sam. 26.04.2014": {"year": 2014, "day": 26, "month": 4, "categories": {"20-F20": {"distance": 20, "rank": 126, "pace": 346000000000, "time": 6933.1}}, "weekday": "saturday", "livingplace": "Romont"}}, "location": "Lausanne"}}, "birth": 1986}