{"name": "Houdry Stephane", "sex": "M", "races": {"Course de l'Escalade, Gen\u00e8ve": {"latitude": 46.2043907, "longitude": 6.1431577, "race": "Course de l'Escalade, Gen\u00e8ve", "date": {"sam. 06.12.2014": {"year": 2014, "day": 6, "month": 12, "categories": {"Esc-Hom2": {"distance": 7, "rank": 1218, "pace": 305000000000, "time": 2234.8}}, "weekday": "saturday", "livingplace": "Thollon"}, "sam. 01.12.2012": {"year": 2012, "day": 1, "month": 12, "categories": {"Esc-Hom1": {"distance": 7, "rank": 592, "pace": 295000000000, "time": 2141.6}}, "weekday": "saturday", "livingplace": "Thollon"}}, "location": "Gen\u00e8ve"}, "Tour du Chablais #3 Le Bouveret": {"latitude": 46.1782231, "longitude": 7.0223787, "race": "Tour du Chablais #3 Le Bouveret", "date": {"mer. 11.05.2011": {"year": 2011, "day": 11, "month": 5, "categories": {"M-M20": {"distance": 10, "rank": 200, "pace": 303000000000, "time": 3032.4}}, "weekday": "wednesday", "livingplace": "Thollon"}}, "location": "Evionnaz"}, "Sierre-Zinal, Sierre": {"latitude": 46.29413110000001, "longitude": 7.533536199999999, "race": "Sierre-Zinal, Sierre", "date": {"dim. 11.08.2013": {"year": 2013, "day": 11, "month": 8, "categories": {"Elites": {"distance": 31, "rank": 466, "pace": 617000000000, "time": 19133.6}}, "weekday": "sunday", "livingplace": "Thollon"}}, "location": "Sierre"}, "Lausanne Marathon": {"latitude": 46.5196535, "longitude": 6.6322734, "race": "Lausanne Marathon", "date": {"dim. 28.10.2012": {"year": 2012, "day": 28, "month": 10, "categories": {"21-H1": {"distance": 21, "rank": 424, "pace": 336000000000, "time": 7098.5}}, "weekday": "sunday", "livingplace": "Thollon"}}, "location": "Lausanne"}, "Tour du Chablais #6 Aigle": {"latitude": 46.3190253, "longitude": 6.970566, "race": "Tour du Chablais #6 Aigle", "date": {"mer. 01.06.2011": {"year": 2011, "day": 1, "month": 6, "categories": {"M-M20": {"distance": 10, "rank": 185, "pace": 296000000000, "time": 3026.8}}, "weekday": "wednesday", "livingplace": "Thollon"}}, "location": "Aigle"}, "20km de Lausanne": {"latitude": 46.5196535, "longitude": 6.6322734, "race": "20km de Lausanne", "date": {"sam. 30.04.2011": {"year": 2011, "day": 30, "month": 4, "categories": {"10-H20": {"distance": 10, "rank": 414, "pace": 314000000000, "time": 3141.4}}, "weekday": "saturday", "livingplace": "Thollon"}, "sam. 27.04.2013": {"year": 2013, "day": 27, "month": 4, "categories": {"10-H20": {"distance": 10, "rank": 283, "pace": 283000000000, "time": 2831.5}}, "weekday": "saturday", "livingplace": "Thollon"}}, "location": "Lausanne"}, "Tour du Chablais #5 Morgins": {"latitude": 46.3603257, "longitude": 6.931504599999999, "race": "Tour du Chablais #5 Morgins", "date": {"mer. 01.05.2013": {"year": 2013, "day": 1, "month": 5, "categories": {"M-M20": {"distance": 8, "rank": 120, "pace": 294000000000, "time": 2238.0}}, "weekday": "wednesday", "livingplace": "Thollon"}}, "location": "Roche VD"}, "Tour du Chablais #3 Bouveret": {"latitude": 46.1782231, "longitude": 7.0223787, "race": "Tour du Chablais #3 Bouveret", "date": {"mer. 17.04.2013": {"year": 2013, "day": 17, "month": 4, "categories": {"M-M20": {"distance": 10, "rank": 146, "pace": 291000000000, "time": 2916.5}}, "weekday": "wednesday", "livingplace": "Thollon"}}, "location": "Evionnaz"}}, "birth": 1984}