{"name": "Houlmann Christian", "sex": "M", "races": {"Tour de Presinge": {"latitude": 46.21860299999999, "longitude": 6.2535283, "race": "Tour de Presinge", "date": {"dim. 20.03.2011": {"year": 2011, "day": 20, "month": 3, "categories": {"10-H2": {"distance": 10, "rank": 78, "pace": 293000000000, "time": 2934.6}}, "weekday": "sunday", "livingplace": "Cham"}}, "location": "Presinge"}, "A travers Carouge - Run to Run": {"latitude": 46.1829674, "longitude": 6.1378539, "race": "A travers Carouge - Run to Run", "date": {"sam. 24.09.2011": {"year": 2011, "day": 24, "month": 9, "categories": {"10-Hom2": {"distance": 10, "rank": 126, "pace": 304000000000, "time": 3040.1}}, "weekday": "saturday", "livingplace": "Cham"}}, "location": "Carouge GE"}, "20km de Lausanne": {"latitude": 46.5196535, "longitude": 6.6322734, "race": "20km de Lausanne", "date": {"sam. 26.04.2014": {"year": 2014, "day": 26, "month": 4, "categories": {"10-H45": {"distance": 10, "rank": 114, "pace": 289000000000, "time": 2899.9}}, "weekday": "saturday", "livingplace": "Cham"}}, "location": "Lausanne"}, "Thuner Stadtlauf, Thun": {"latitude": 46.7579868, "longitude": 7.6279881, "race": "Thuner Stadtlauf, Thun", "date": {"dim. 26.08.2012": {"year": 2012, "day": 26, "month": 8, "categories": {"10-M40": {"distance": 10, "rank": 94, "pace": 287000000000, "time": 2878.7}}, "weekday": "sunday", "livingplace": "Cham"}}, "location": "Thun"}, "Course de l'Escalade, Gen\u00e8ve": {"latitude": 46.2043907, "longitude": 6.1431577, "race": "Course de l'Escalade, Gen\u00e8ve", "date": {"sam. 07.12.2013": {"year": 2013, "day": 7, "month": 12, "categories": {"Esc-Hom3": {"distance": 7, "rank": 573, "pace": 281000000000, "time": 2038.3}}, "weekday": "saturday", "livingplace": "Cham"}, "sam. 05.12.2015": {"year": 2015, "day": 5, "month": 12, "categories": {"Esc-Hom3": {"distance": 7, "rank": 682, "pace": 274000000000, "time": 2006.8}}, "weekday": "saturday", "livingplace": "Cham"}, "sam. 06.12.2014": {"year": 2014, "day": 6, "month": 12, "categories": {"Esc-Hom3": {"distance": 7, "rank": 488, "pace": 276000000000, "time": 2025.7}}, "weekday": "saturday", "livingplace": "Cham"}}, "location": "Gen\u00e8ve"}, "10km, Payerne": {"latitude": 46.8220266, "longitude": 6.9405663, "race": "10km, Payerne", "date": {"sam. 10.03.2012": {"year": 2012, "day": 10, "month": 3, "categories": {"M40": {"distance": 10, "rank": 88, "pace": 289000000000, "time": 2890.6}}, "weekday": "saturday", "livingplace": "Cham"}}, "location": "Payerne"}, "SwissCityMarathon - Lucerne, Luzern": {"latitude": 47.05016819999999, "longitude": 8.3093072, "race": "SwissCityMarathon - Lucerne, Luzern", "date": {"dim. 26.10.2014": {"year": 2014, "day": 26, "month": 10, "categories": {"H-M40": {"distance": 21, "rank": 689, "pace": 309000000000, "time": 6537.2}}, "weekday": "sunday", "livingplace": "Cham"}}, "location": "Luzern"}, "10km Schweizer Meisterschaften Lyss": {"latitude": 47.0746504, "longitude": 7.3077022, "race": "10km Schweizer Meisterschaften Lyss", "date": {"sam. 31.03.2012": {"year": 2012, "day": 31, "month": 3, "categories": {"10-M40": {"distance": 10, "rank": 54, "pace": 326000000000, "time": 3264.4}}, "weekday": "saturday", "livingplace": "Cham"}}, "location": "Lyss"}, "SM CS 10km Strasse route + Volkslauf 10km, Uster": {"latitude": 47.3482747, "longitude": 8.717873899999999, "race": "SM CS 10km Strasse route + Volkslauf 10km, Uster", "date": {"sam. 23.03.2013": {"year": 2013, "day": 23, "month": 3, "categories": {"10-M40": {"distance": 10, "rank": 26, "pace": 271000000000, "time": 2713.0}}, "weekday": "saturday", "livingplace": "Cham"}}, "location": "Uster"}, "Z\u00fcrcher Silvesterlauf, Z\u00fcrich": {"latitude": 47.3768866, "longitude": 8.541694, "race": "Z\u00fcrcher Silvesterlauf, Z\u00fcrich", "date": {"dim. 14.12.2014": {"year": 2014, "day": 14, "month": 12, "categories": {"10-M40": {"distance": 10, "rank": 443, "pace": 279000000000, "time": 2799.1}}, "weekday": "sunday", "livingplace": "Cham"}}, "location": "Z\u00fcrich"}}, "birth": 1969}