{"name": "Houlmann Michel", "sex": "M", "races": {"SwissCityMarathon - Lucerne, Luzern": {"latitude": 47.05016819999999, "longitude": 8.3093072, "race": "SwissCityMarathon - Lucerne, Luzern", "date": {"dim. 26.10.2014": {"year": 2014, "day": 26, "month": 10, "categories": {"H-M70": {"distance": 21, "rank": 6, "pace": 321000000000, "time": 6789.6}}, "weekday": "sunday", "livingplace": "Meyrin"}}, "location": "Luzern"}, "Course de l'Escalade, Gen\u00e8ve": {"latitude": 46.2043907, "longitude": 6.1431577, "race": "Course de l'Escalade, Gen\u00e8ve", "date": {"sam. 01.12.2007": {"year": 2007, "day": 1, "month": 12, "categories": {"Hommes5": {"distance": 7, "rank": 6, "pace": 244000000000, "time": 1774.8}}, "weekday": "saturday", "livingplace": "Cern"}, "sam. 06.12.2014": {"year": 2014, "day": 6, "month": 12, "categories": {"Esc-Hom6": {"distance": 7, "rank": 36, "pace": 358000000000, "time": 2621.7}}, "weekday": "saturday", "livingplace": "Meyrin"}, "sam. 07.12.2013": {"year": 2013, "day": 7, "month": 12, "categories": {"Esc-Hom6": {"distance": 7, "rank": 4, "pace": 291000000000, "time": 2110.6}}, "weekday": "saturday", "livingplace": "Meyrin"}, "sam. 01.12.2012": {"year": 2012, "day": 1, "month": 12, "categories": {"Esc-Hom6": {"distance": 7, "rank": 7, "pace": 311000000000, "time": 2255.4}}, "weekday": "saturday", "livingplace": "Meyrin"}}, "location": "Gen\u00e8ve"}, "ASICS Bremgarter Reusslauf": {"latitude": 47.34917739999999, "longitude": 8.3397905, "race": "ASICS Bremgarter Reusslauf", "date": {"sam. 23.02.2013": {"year": 2013, "day": 23, "month": 2, "categories": {"11-M70": {"distance": 11, "rank": 11, "pace": 309000000000, "time": 3402.0}}, "weekday": "saturday", "livingplace": "Meyrin"}, "sam. 25.02.2012": {"year": 2012, "day": 25, "month": 2, "categories": {"M70": {"distance": 11, "rank": 1, "pace": 260000000000, "time": 2868.4}}, "weekday": "saturday", "livingplace": "Meyrin"}}, "location": "Bremgarten AG"}, "Tour du Pays de Vaud #3 - Mezi\u00e8res": {"latitude": 46.7784736, "longitude": 6.641183, "race": "Tour du Pays de Vaud #3 - Mezi\u00e8res", "date": {"mer. 22.08.2012": {"year": 2012, "day": 22, "month": 8, "categories": {"H-Sen5": {"distance": 8, "rank": 3, "pace": 375000000000, "time": 3153.2}}, "weekday": "wednesday", "livingplace": "Meyrin"}}, "location": "Yverdon-les-Bains"}, "Tour du pays de Vaud #1 - Penthaz": {"latitude": 46.5993131, "longitude": 6.539251200000001, "race": "Tour du pays de Vaud #1 - Penthaz", "date": {"mer. 08.08.2012": {"year": 2012, "day": 8, "month": 8, "categories": {"H-Sen5": {"distance": 9, "rank": 1, "pace": 274000000000, "time": 2342.3}}, "weekday": "wednesday", "livingplace": "Meyrin"}}, "location": "Penthaz"}, "Z\u00fcrcher Silvesterlauf, Z\u00fcrich": {"latitude": 47.3768866, "longitude": 8.541694, "race": "Z\u00fcrcher Silvesterlauf, Z\u00fcrich", "date": {"dim. 14.12.2014": {"year": 2014, "day": 14, "month": 12, "categories": {"10-M70": {"distance": 10, "rank": 3, "pace": 298000000000, "time": 2982.0}}, "weekday": "sunday", "livingplace": "Meyrin"}}, "location": "Z\u00fcrich"}, "Kerzerslauf": {"latitude": 46.97488999999999, "longitude": 7.1954365, "race": "Kerzerslauf", "date": {"sam. 15.03.2003": {"year": 2003, "day": 15, "month": 3, "categories": {"M60": {"distance": 15, "rank": 1, "pace": 233000000000, "time": 3504.9}}, "weekday": "saturday", "livingplace": "Meyrin"}, "sam. 15.03.2008": {"year": 2008, "day": 15, "month": 3, "categories": {"15/M65": {"distance": 15, "rank": 3, "pace": 257000000000, "time": 3855.8}}, "weekday": "saturday", "livingplace": "Meyrin"}, "sam. 17.03.2001": {"year": 2001, "day": 17, "month": 3, "categories": {"M55": {"distance": 15, "rank": 4, "pace": 233000000000, "time": 3500.6}}, "weekday": "saturday", "livingplace": "Meyrin"}}, "location": "Kerzers"}, "Tour du Pays de Vaud #2 - Genolier": {"latitude": 46.5955273, "longitude": 6.7702883, "race": "Tour du Pays de Vaud #2 - Genolier", "date": {"mer. 15.08.2012": {"year": 2012, "day": 15, "month": 8, "categories": {"H-Sen5": {"distance": 9, "rank": 2, "pace": 322000000000, "time": 2745.0}}, "weekday": "wednesday", "livingplace": "Meyrin"}}, "location": "M\u00e9zi\u00e8res VD"}, "Morat-Fribourg": {"latitude": 46.92922110000001, "longitude": 7.120184, "race": "Morat-Fribourg", "date": {"dim. 06.10.2002": {"year": 2002, "day": 6, "month": 10, "categories": {"M60": {"distance": 17, "rank": 1, "pace": 250000000000, "time": 4292.9}}, "weekday": "sunday", "livingplace": "Meyrin"}}, "location": "Murten"}, "10km Schweizer Meisterschaften Lyss": {"latitude": 47.0746504, "longitude": 7.3077022, "race": "10km Schweizer Meisterschaften Lyss", "date": {"sam. 31.03.2012": {"year": 2012, "day": 31, "month": 3, "categories": {"10-M70": {"distance": 10, "rank": 2, "pace": 268000000000, "time": 2688.9}}, "weekday": "saturday", "livingplace": "Meyrin"}}, "location": "Lyss"}, "Tour du Pays de Vaud #4 - La Sarraz": {"latitude": 46.7088129, "longitude": 6.5707689, "race": "Tour du Pays de Vaud #4 - La Sarraz", "date": {"mer. 29.08.2012": {"year": 2012, "day": 29, "month": 8, "categories": {"H-Sen5": {"distance": 9, "rank": 4, "pace": 340000000000, "time": 2891.3}}, "weekday": "wednesday", "livingplace": "Meyrin"}}, "location": "Chavornay"}, "20km de Lausanne": {"latitude": 46.5196535, "longitude": 6.6322734, "race": "20km de Lausanne", "date": {"sam. 27.04.2002": {"year": 2002, "day": 27, "month": 4, "categories": {"13": {"distance": 20, "rank": 1, "pace": 238000000000, "time": 4769.9}}, "weekday": "saturday", "livingplace": "Meyrin"}, "sam. 28.04.2007": {"year": 2007, "day": 28, "month": 4, "categories": {"10H65": {"distance": 10, "rank": 1, "pace": 249000000000, "time": 2492.1}}, "weekday": "saturday", "livingplace": "Meyrin"}, "sam. 28.04.2012": {"year": 2012, "day": 28, "month": 4, "categories": {"10-M70": {"distance": 10, "rank": 1, "pace": 269000000000, "time": 2693.7}}, "weekday": "saturday", "livingplace": "Meyrin"}}, "location": "Lausanne"}, "SM CS 10km Strasse route + Volkslauf 10km, Uster": {"latitude": 47.3482747, "longitude": 8.717873899999999, "race": "SM CS 10km Strasse route + Volkslauf 10km, Uster", "date": {"sam. 23.03.2013": {"year": 2013, "day": 23, "month": 3, "categories": {"10-M70": {"distance": 10, "rank": 5, "pace": 303000000000, "time": 3036.9}}, "weekday": "saturday", "livingplace": "Meyrin"}}, "location": "Uster"}}, "birth": 1942}