{"name": "Huber Sylvia", "sex": "F", "races": {"Tour du Chablais #1 Roche": {"latitude": 46.2957462, "longitude": 6.9916269, "race": "Tour du Chablais #1 Roche", "date": {"mer. 07.04.2010": {"year": 2010, "day": 7, "month": 4, "categories": {"F-F20": {"distance": 9, "rank": 18, "pace": 275000000000, "time": 2467.8}}, "weekday": "wednesday", "livingplace": "St Triphon"}}, "location": "Ollon VD"}, "Glacier 3000 Run, Gstaad": {"latitude": 46.4717588, "longitude": 7.2865728, "race": "Glacier 3000 Run, Gstaad", "date": {"sam. 08.08.2009": {"year": 2009, "day": 8, "month": 8, "categories": {"F30": {"distance": 26, "rank": 8, "pace": 553000000000, "time": 14397.6}}, "weekday": "saturday", "livingplace": "St Triphon"}, "sam. 09.08.2008": {"year": 2008, "day": 9, "month": 8, "categories": {"F30": {"distance": 26, "rank": 23, "pace": 609000000000, "time": 15840.8}}, "weekday": "saturday", "livingplace": "St Triphon"}}, "location": "Gstaad"}, "Tour du Chablais #3 Bex": {"latitude": 46.1782231, "longitude": 7.0223787, "race": "Tour du Chablais #3 Bex", "date": {"mer. 21.04.2010": {"year": 2010, "day": 21, "month": 4, "categories": {"F-F20": {"distance": 10, "rank": 18, "pace": 284000000000, "time": 2845.6}}, "weekday": "wednesday", "livingplace": "St Triphon"}}, "location": "Evionnaz"}, "Morat-Fribourg": {"latitude": 46.92922110000001, "longitude": 7.120184, "race": "Morat-Fribourg", "date": {"sam. 04.10.2008": {"year": 2008, "day": 4, "month": 10, "categories": {"C-W20": {"distance": 17, "rank": 113, "pace": 317000000000, "time": 5449.6}}, "weekday": "saturday", "livingplace": "St Triphon"}}, "location": "Murten"}, "Corrida Bulloise, Bulle": {"latitude": 46.6154512, "longitude": 7.057726799999999, "race": "Corrida Bulloise, Bulle", "date": {"sam. 20.11.2010": {"year": 2010, "day": 20, "month": 11, "categories": {"F20": {"distance": 6, "rank": 92, "pace": 306000000000, "time": 1886.1}}, "weekday": "saturday", "livingplace": "St Triphon"}, "sam. 19.11.2011": {"year": 2011, "day": 19, "month": 11, "categories": {"F20": {"distance": 6, "rank": 84, "pace": 302000000000, "time": 1860.3}}, "weekday": "saturday", "livingplace": "Aarburg"}}, "location": "Bulle"}, "Tour du Chablais #4 Morgins": {"latitude": NaN, "longitude": NaN, "race": "Tour du Chablais #4 Morgins", "date": {"mer. 18.05.2011": {"year": 2011, "day": 18, "month": 5, "categories": {"F-F20": {"distance": 8, "rank": 35, "pace": 315000000000, "time": 2637.9}}, "weekday": "wednesday", "livingplace": "St Triphon"}}, "location": "Les Mosses"}, "Schweizer Frauenlauf Bern": {"latitude": 46.9479739, "longitude": 7.4474468, "race": "Schweizer Frauenlauf Bern", "date": {"dim. 19.06.2011": {"year": 2011, "day": 19, "month": 6, "categories": {"10-W35": {"distance": 10, "rank": 57, "pace": 290000000000, "time": 2902.7}}, "weekday": "sunday", "livingplace": "St Triphon"}}, "location": "Bern"}, "Liestaler Stadtlauf": {"latitude": 47.4866143, "longitude": 7.7334272, "race": "Liestaler Stadtlauf", "date": {"mer. 26.08.2015": {"year": 2015, "day": 26, "month": 8, "categories": {"W40": {"distance": 12, "rank": 3, "pace": 309000000000, "time": 3709.7}}, "weekday": "wednesday", "livingplace": "Strengelbach"}}, "location": "Liestal"}, "Tour du Chablais #5 Leysin": {"latitude": 46.3603257, "longitude": 6.931504599999999, "race": "Tour du Chablais #5 Leysin", "date": {"mer. 05.05.2010": {"year": 2010, "day": 5, "month": 5, "categories": {"F-F20": {"distance": 8, "rank": 22, "pace": 310000000000, "time": 2621.6}}, "weekday": "wednesday", "livingplace": "St Triphon"}}, "location": "Roche VD"}, "Tour du Chablais #6 Mouthey": {"latitude": 46.3190253, "longitude": 6.970566, "race": "Tour du Chablais #6 Mouthey", "date": {"mer. 12.05.2010": {"year": 2010, "day": 12, "month": 5, "categories": {"F-F20": {"distance": 9, "rank": 18, "pace": 276000000000, "time": 2541.1}}, "weekday": "wednesday", "livingplace": "St Triphon"}}, "location": "Aigle"}, "Tour du Chablais #3 Le Bouveret": {"latitude": 46.1782231, "longitude": 7.0223787, "race": "Tour du Chablais #3 Le Bouveret", "date": {"mer. 11.05.2011": {"year": 2011, "day": 11, "month": 5, "categories": {"F-F20": {"distance": 10, "rank": 32, "pace": 296000000000, "time": 2966.7}}, "weekday": "wednesday", "livingplace": "St Triphon"}}, "location": "Evionnaz"}, "Tour du Chablais #6 Aigle": {"latitude": 46.3190253, "longitude": 6.970566, "race": "Tour du Chablais #6 Aigle", "date": {"mer. 01.06.2011": {"year": 2011, "day": 1, "month": 6, "categories": {"F-F20": {"distance": 10, "rank": 38, "pace": 285000000000, "time": 2912.8}}, "weekday": "wednesday", "livingplace": "St Triphon"}}, "location": "Aigle"}, "Tour du Chablais #2 St-Gingolph": {"latitude": 46.3835529, "longitude": 6.854975199999999, "race": "Tour du Chablais #2 St-Gingolph", "date": {"mer. 14.04.2010": {"year": 2010, "day": 14, "month": 4, "categories": {"F-F20": {"distance": 8, "rank": 17, "pace": 305000000000, "time": 2549.1}}, "weekday": "wednesday", "livingplace": "St Triphon"}}, "location": "Bouveret"}, "Tour du Chablais #4 Yvorne": {"latitude": NaN, "longitude": NaN, "race": "Tour du Chablais #4 Yvorne", "date": {"mer. 28.04.2010": {"year": 2010, "day": 28, "month": 4, "categories": {"F-F20": {"distance": 8, "rank": 19, "pace": 303000000000, "time": 2515.0}}, "weekday": "wednesday", "livingplace": "St Triphon"}}, "location": "Les Mosses"}}, "birth": 1974}