{"name": "Huber Gregory", "sex": "M", "races": {"Course de l'Escalade, Gen\u00e8ve": {"latitude": 46.2043907, "longitude": 6.1431577, "race": "Course de l'Escalade, Gen\u00e8ve", "date": {"sam. 07.12.2002": {"year": 2002, "day": 7, "month": 12, "categories": {"Hommes2": {"distance": 7, "rank": 694, "pace": 293000000000, "time": 2130.7}}, "weekday": "saturday", "livingplace": "Zuerich"}}, "location": "Gen\u00e8ve"}, "ASICS Bremgarter Reusslauf": {"latitude": 47.34917739999999, "longitude": 8.3397905, "race": "ASICS Bremgarter Reusslauf", "date": {"sam. 26.02.2005": {"year": 2005, "day": 26, "month": 2, "categories": {"13": {"distance": 11, "rank": 275, "pace": 278000000000, "time": 2925.2}}, "weekday": "saturday", "livingplace": "Zurich"}}, "location": "Bremgarten AG"}, "Badener Limmat-Lauf, Baden": {"latitude": 48.5699281, "longitude": 8.5303972, "race": "Badener Limmat-Lauf, Baden", "date": {"sam. 09.04.2005": {"year": 2005, "day": 9, "month": 4, "categories": {"13": {"distance": 13, "rank": 76, "pace": 283000000000, "time": 3721.6}}, "weekday": "saturday", "livingplace": "Zurich"}}, "location": "Baden"}, "Z\u00fcrich Marathon, Teamrun und Cityrun": {"latitude": 47.3768866, "longitude": 8.541694, "race": "Z\u00fcrich Marathon, Teamrun und Cityrun", "date": {"dim. 13.04.2003": {"year": 2003, "day": 13, "month": 4, "categories": {"M30": {"distance": 42, "rank": 1009, "pace": 335000000000, "time": 14157.5}}, "weekday": "sunday", "livingplace": "Zurich"}}, "location": "Z\u00fcrich"}, "Z\u00fcrcher Silvesterlauf, Z\u00fcrich": {"latitude": 47.3768866, "longitude": 8.541694, "race": "Z\u00fcrcher Silvesterlauf, Z\u00fcrich", "date": {"dim. 10.12.2006": {"year": 2006, "day": 10, "month": 12, "categories": {"MenAK2-8": {"distance": 9, "rank": 522, "pace": 271000000000, "time": 2338.3}}, "weekday": "sunday", "livingplace": "Zurich"}}, "location": "Z\u00fcrich"}, "Int Greifenseelauf, Uster": {"latitude": 47.3482747, "longitude": 8.717873899999999, "race": "Int Greifenseelauf, Uster", "date": {"sam. 16.09.2006": {"year": 2006, "day": 16, "month": 9, "categories": {"H/M40": {"distance": 21, "rank": 619, "pace": 311000000000, "time": 6583.0}}, "weekday": "saturday", "livingplace": "Zurich"}, "sam. 20.09.2008": {"year": 2008, "day": 20, "month": 9, "categories": {"H-M40": {"distance": 21, "rank": 666, "pace": 310000000000, "time": 6553.2}}, "weekday": "saturday", "livingplace": "Zurich"}, "sam. 19.09.2009": {"year": 2009, "day": 19, "month": 9, "categories": {"H-M45": {"distance": 21, "rank": 337, "pace": 297000000000, "time": 6280.4}}, "weekday": "saturday", "livingplace": "Zurich"}}, "location": "Uster"}}, "birth": 1964}