{"name": "Hubert Alexandre", "sex": "M", "races": {"Tour du Chablais #2 Rennaz": {"latitude": 46.3835529, "longitude": 6.854975199999999, "race": "Tour du Chablais #2 Rennaz", "date": {"mer. 04.05.2011": {"year": 2011, "day": 4, "month": 5, "categories": {"M-M20": {"distance": 9, "rank": 17, "pace": 216000000000, "time": 2028.3}}, "weekday": "wednesday", "livingplace": "Martigny Gare CFF"}}, "location": "Bouveret"}, "Montreux - Les Rochers de Naye": {"latitude": 46.4312213, "longitude": 6.9106799, "race": "Montreux - Les Rochers de Naye", "date": {"dim. 10.07.2011": {"year": 2011, "day": 10, "month": 7, "categories": {"M-HElite": {"distance": 19, "rank": 17, "pace": 352000000000, "time": 6618.8}}, "weekday": "sunday", "livingplace": "Martigny"}}, "location": "Montreux"}, "Morat-Fribourg": {"latitude": 46.92922110000001, "longitude": 7.120184, "race": "Morat-Fribourg", "date": {"sam. 02.10.2010": {"year": 2010, "day": 2, "month": 10, "categories": {"17-M20": {"distance": 17, "rank": 79, "pace": 242000000000, "time": 4169.1}}, "weekday": "saturday", "livingplace": "Martigny"}}, "location": "Murten"}, "Tour du Chablais #5 Les Mosses": {"latitude": 46.3603257, "longitude": 6.931504599999999, "race": "Tour du Chablais #5 Les Mosses", "date": {"mer. 25.05.2011": {"year": 2011, "day": 25, "month": 5, "categories": {"M-M20": {"distance": 8, "rank": 15, "pace": 233000000000, "time": 1866.1}}, "weekday": "wednesday", "livingplace": "Martigny"}}, "location": "Roche VD"}, "Tour du Chablais #4 Morgins": {"latitude": NaN, "longitude": NaN, "race": "Tour du Chablais #4 Morgins", "date": {"mer. 18.05.2011": {"year": 2011, "day": 18, "month": 5, "categories": {"M-M20": {"distance": 8, "rank": 16, "pace": 232000000000, "time": 1937.4}}, "weekday": "wednesday", "livingplace": "Martigny"}}, "location": "Les Mosses"}, "Tour du Chablais #3 Le Bouveret": {"latitude": 46.1782231, "longitude": 7.0223787, "race": "Tour du Chablais #3 Le Bouveret", "date": {"mer. 11.05.2011": {"year": 2011, "day": 11, "month": 5, "categories": {"M-M20": {"distance": 10, "rank": 17, "pace": 218000000000, "time": 2186.4}}, "weekday": "wednesday", "livingplace": "Martigny Gare CFF"}}, "location": "Evionnaz"}, "Tour du Chablais #6 Aigle": {"latitude": 46.3190253, "longitude": 6.970566, "race": "Tour du Chablais #6 Aigle", "date": {"mer. 01.06.2011": {"year": 2011, "day": 1, "month": 6, "categories": {"M-M20": {"distance": 10, "rank": 16, "pace": 215000000000, "time": 2194.3}}, "weekday": "wednesday", "livingplace": "Martigny"}}, "location": "Aigle"}, "Tour du Chablais #1 Lavey": {"latitude": 46.2957462, "longitude": 6.9916269, "race": "Tour du Chablais #1 Lavey", "date": {"mer. 27.04.2011": {"year": 2011, "day": 27, "month": 4, "categories": {"M-M20": {"distance": 9, "rank": 17, "pace": 218000000000, "time": 1967.8}}, "weekday": "wednesday", "livingplace": "Martigny Gare CFF"}}, "location": "Ollon VD"}, "Aletsch-Halbmarathon, Bettmeralp": {"latitude": NaN, "longitude": NaN, "race": "Aletsch-Halbmarathon, Bettmeralp", "date": {"dim. 26.06.2011": {"year": 2011, "day": 26, "month": 6, "categories": {"M30": {"distance": 21, "rank": 11, "pace": 329000000000, "time": 6909.1}}, "weekday": "sunday", "livingplace": "Running Planet Montruex"}, "dim. 28.06.2009": {"year": 2009, "day": 28, "month": 6, "categories": {"M30": {"distance": 21, "rank": 83, "pace": 402000000000, "time": 8460.1}}, "weekday": "sunday", "livingplace": "Martigny"}}, "location": "Bettmeralp"}}, "birth": 1974}