{"name": "H\u00fcbsch Hans-J\u00f6rg", "sex": "M", "races": {"Lucerne Marathon, Luzern": {"latitude": 47.05016819999999, "longitude": 8.3093072, "race": "Lucerne Marathon, Luzern", "date": {"dim. 30.10.2011": {"year": 2011, "day": 30, "month": 10, "categories": {"H-M40": {"distance": 21, "rank": 1021, "pace": 330000000000, "time": 6963.0}}, "weekday": "sunday", "livingplace": "Charmey Gruyere"}}, "location": "Luzern"}, "20km de Lausanne": {"latitude": 46.5196535, "longitude": 6.6322734, "race": "20km de Lausanne", "date": {"sam. 30.04.2011": {"year": 2011, "day": 30, "month": 4, "categories": {"20-H45": {"distance": 20, "rank": 220, "pace": 298000000000, "time": 5970.6}}, "weekday": "saturday", "livingplace": "Charmey Gruyere"}}, "location": "Lausanne"}, "Morat-Fribourg": {"latitude": 46.92922110000001, "longitude": 7.120184, "race": "Morat-Fribourg", "date": {"sam. 01.10.2011": {"year": 2011, "day": 1, "month": 10, "categories": {"17-M45": {"distance": 17, "rank": 569, "pace": 349000000000, "time": 5996.9}}, "weekday": "saturday", "livingplace": "Charmey Gruyere"}}, "location": "Murten"}, "Stralugano, Lugano": {"latitude": 46.0036778, "longitude": 8.951051999999999, "race": "Stralugano, Lugano", "date": {"dim. 25.09.2011": {"year": 2011, "day": 25, "month": 9, "categories": {"30-M40": {"distance": 30, "rank": 232, "pace": 319000000000, "time": 9580.8}}, "weekday": "sunday", "livingplace": "Charmey Gruyere"}}, "location": "Lugano"}, "Corrida Bulloise, Bulle": {"latitude": 46.6154512, "longitude": 7.057726799999999, "race": "Corrida Bulloise, Bulle", "date": {"sam. 19.11.2011": {"year": 2011, "day": 19, "month": 11, "categories": {"M40": {"distance": 8, "rank": 158, "pace": 316000000000, "time": 2578.2}}, "weekday": "saturday", "livingplace": "Charmey Gruyere"}}, "location": "Bulle"}}, "birth": 1964}