{"name": "Huguenin Didier", "sex": "M", "races": {"Lausanne Marathon": {"latitude": 46.5196535, "longitude": 6.6322734, "race": "Lausanne Marathon", "date": {"dim. 28.10.2012": {"year": 2012, "day": 28, "month": 10, "categories": {"10-H3": {"distance": 10, "rank": 178, "pace": 286000000000, "time": 2865.3}}, "weekday": "sunday", "livingplace": "Cugy"}}, "location": "Lausanne"}, "Tour du Pays de Vaud #4, La Sarraz": {"latitude": 46.7088129, "longitude": 6.5707689, "race": "Tour du Pays de Vaud #4, La Sarraz", "date": {"mer. 03.09.2014": {"year": 2014, "day": 3, "month": 9, "categories": {"H-Sen3": {"distance": 9, "rank": 65, "pace": 328000000000, "time": 2792.8}}, "weekday": "wednesday", "livingplace": "Lausanne"}}, "location": "Chavornay"}, "Tour du pays de Vaud #1 - Mezi\u00e8res": {"latitude": 46.7784736, "longitude": 6.641183, "race": "Tour du pays de Vaud #1 - Mezi\u00e8res", "date": {"mer. 10.08.2011": {"year": 2011, "day": 10, "month": 8, "categories": {"H-Sen2": {"distance": 9, "rank": 118, "pace": 294000000000, "time": 2505.3}}, "weekday": "wednesday", "livingplace": "Cugy"}}, "location": "Yverdon-les-Bains"}, "Tour du pays de Vaud #5 - Penthaz": {"latitude": 46.5993131, "longitude": 6.539251200000001, "race": "Tour du pays de Vaud #5 - Penthaz", "date": {"mer. 07.09.2011": {"year": 2011, "day": 7, "month": 9, "categories": {"H-Sen2": {"distance": 8, "rank": 92, "pace": 322000000000, "time": 2690.7}}, "weekday": "wednesday", "livingplace": "Cugy"}}, "location": "Penthaz"}, "20km de Lausanne": {"latitude": 46.5196535, "longitude": 6.6322734, "race": "20km de Lausanne", "date": {"sam. 27.04.2013": {"year": 2013, "day": 27, "month": 4, "categories": {"10-H45": {"distance": 10, "rank": 127, "pace": 287000000000, "time": 2876.1}}, "weekday": "saturday", "livingplace": "Cugy"}, "sam. 28.04.2012": {"year": 2012, "day": 28, "month": 4, "categories": {"10-H45": {"distance": 10, "rank": 176, "pace": 319000000000, "time": 3194.4}}, "weekday": "saturday", "livingplace": "Cugy"}}, "location": "Lausanne"}, "Les Traine-Savates, Cheseaux-sur-Lausanne": {"latitude": 46.585452, "longitude": 6.6047712, "race": "Les Traine-Savates, Cheseaux-sur-Lausanne", "date": {"sam. 18.04.2015": {"year": 2015, "day": 18, "month": 4, "categories": {"10-M50": {"distance": 10, "rank": 70, "pace": 292000000000, "time": 3011.5}}, "weekday": "saturday", "livingplace": "Lausanne"}, "sam. 14.04.2012": {"year": 2012, "day": 14, "month": 4, "categories": {"10-M40": {"distance": 10, "rank": 148, "pace": 312000000000, "time": 3244.9}}, "weekday": "saturday", "livingplace": "Cugy"}}, "location": "Cheseaux-sur-Lausanne"}}, "birth": 1964}