{"name": "Humbert-Droz Nolan", "sex": "M", "races": {"BCN Tour Couvet": {"latitude": 47.0624261, "longitude": 6.9175754, "race": "BCN Tour Couvet", "date": {"mer. 02.05.2012": {"year": 2012, "day": 2, "month": 5, "categories": {"KG1": {"distance": 2, "rank": 70, "pace": 331000000000, "time": 596.0}}, "weekday": "wednesday", "livingplace": "Les Ponts de Martel"}}, "location": "Ch\u00e9zard-St-Martin"}, "BCN Tour M\u00f4tier": {"latitude": 46.9262933, "longitude": 6.6324944, "race": "BCN Tour M\u00f4tier", "date": {"mer. 19.05.2010": {"year": 2010, "day": 19, "month": 5, "categories": {"KG1": {"distance": 2, "rank": 94, "pace": 338000000000, "time": 608.4}}, "weekday": "wednesday", "livingplace": "Les Ponts de Martel"}}, "location": "Couvet"}, "BCN Tour Les Ponts-de-Martel": {"latitude": 46.999113, "longitude": 6.733554799999999, "race": "BCN Tour Les Ponts-de-Martel", "date": {"mer. 09.05.2012": {"year": 2012, "day": 9, "month": 5, "categories": {"KG1": {"distance": 2, "rank": 53, "pace": 308000000000, "time": 585.3}}, "weekday": "wednesday", "livingplace": "Les Ponts de Martel"}}, "location": "Les Ponts-de-Martel"}, "BCN Tour Fontaine Cernier": {"latitude": 47.0624261, "longitude": 6.9175754, "race": "BCN Tour Fontaine Cernier", "date": {"mer. 27.04.2011": {"year": 2011, "day": 27, "month": 4, "categories": {"KG1": {"distance": 2, "rank": 96, "pace": 386000000000, "time": 656.7}}, "weekday": "wednesday", "livingplace": "Les Ponts de Martel"}}, "location": "Ch\u00e9zard-St-Martin"}, "BCN Tour Ponts-de-Martel": {"latitude": 47.0624261, "longitude": 6.9175754, "race": "BCN Tour Ponts-de-Martel", "date": {"mer. 28.04.2010": {"year": 2010, "day": 28, "month": 4, "categories": {"KG1": {"distance": 2, "rank": 128, "pace": 309000000000, "time": 681.5}}, "weekday": "wednesday", "livingplace": "Les Ponts de Martel"}}, "location": "Ch\u00e9zard-St-Martin"}, "BCN Tour Auvernier": {"latitude": 46.9668714, "longitude": 6.8589727, "race": "BCN Tour Auvernier", "date": {"mer. 20.04.2011": {"year": 2011, "day": 20, "month": 4, "categories": {"KG1": {"distance": 1, "rank": 67, "pace": 309000000000, "time": 418.0}}, "weekday": "wednesday", "livingplace": "Les Ponts de Martel"}}, "location": "Colombier NE"}, "BCN Tour Colombier": {"latitude": 47.1034892, "longitude": 6.832783800000001, "race": "BCN Tour Colombier", "date": {"mer. 16.05.2012": {"year": 2012, "day": 16, "month": 5, "categories": {"KG1": {"distance": 2, "rank": 88, "pace": 382000000000, "time": 574.3}}, "weekday": "wednesday", "livingplace": "Les Ponts de Martel"}}, "location": "La Chaux-de-Fonds"}, "BCN Tour La Chaux-de-Fonds": {"latitude": 47.1034892, "longitude": 6.832783800000001, "race": "BCN Tour La Chaux-de-Fonds", "date": {"mer. 23.05.2012": {"year": 2012, "day": 23, "month": 5, "categories": {"KG1": {"distance": 2, "rank": 55, "pace": 372000000000, "time": 820.5}}, "weekday": "wednesday", "livingplace": "Les Ponts de Martel"}, "mer. 11.05.2011": {"year": 2011, "day": 11, "month": 5, "categories": {"KG1": {"distance": 1, "rank": 68, "pace": 548000000000, "time": 532.4}}, "weekday": "wednesday", "livingplace": "Les Ponts de Martel"}}, "location": "La Chaux-de-Fonds"}, "BCN Tour La Br\u00e9vine": {"latitude": 46.999113, "longitude": 6.733554799999999, "race": "BCN Tour La Br\u00e9vine", "date": {"mer. 04.05.2011": {"year": 2011, "day": 4, "month": 5, "categories": {"KG1": {"distance": 2, "rank": 71, "pace": 340000000000, "time": 646.0}}, "weekday": "wednesday", "livingplace": "Les Ponts de Martel"}}, "location": "Les Ponts-de-Martel"}, "BCN Tour Neuch\u00e2tel": {"latitude": 46.9899874, "longitude": 6.9292732, "race": "BCN Tour Neuch\u00e2tel", "date": {"mer. 26.05.2010": {"year": 2010, "day": 26, "month": 5, "categories": {"KG1": {"distance": 2, "rank": 114, "pace": 320000000000, "time": 481.1}}, "weekday": "wednesday", "livingplace": "Les Ponts de Martel"}, "mer. 30.05.2012": {"year": 2012, "day": 30, "month": 5, "categories": {"KG1": {"distance": 2, "rank": 94, "pace": 332000000000, "time": 582.6}}, "weekday": "wednesday", "livingplace": "Les Ponts de Martel"}, "mer. 25.05.2011": {"year": 2011, "day": 25, "month": 5, "categories": {"KG1": {"distance": 2, "rank": 98, "pace": 320000000000, "time": 641.0}}, "weekday": "wednesday", "livingplace": "Les Ponts de Martel"}}, "location": "Neuch\u00e2tel"}, "BCN Tour Les Ponts de Martel": {"latitude": 46.9262933, "longitude": 6.6324944, "race": "BCN Tour Les Ponts de Martel", "date": {"mer. 18.05.2011": {"year": 2011, "day": 18, "month": 5, "categories": {"KG1": {"distance": 2, "rank": 77, "pace": 309000000000, "time": 609.5}}, "weekday": "wednesday", "livingplace": "Les Ponts de Martel"}}, "location": "Couvet"}, "BCN Tour La Chaux-de-fonds": {"latitude": 47.1034892, "longitude": 6.832783800000001, "race": "BCN Tour La Chaux-de-fonds", "date": {"mer. 12.05.2010": {"year": 2010, "day": 12, "month": 5, "categories": {"KG1": {"distance": 1, "rank": 72, "pace": 967000000000, "time": 938.6}}, "weekday": "wednesday", "livingplace": "Les Ponts de Martel"}}, "location": "La Chaux-de-Fonds"}, "BCN Tour Cornaux": {"latitude": 46.9668714, "longitude": 6.8589727, "race": "BCN Tour Cornaux", "date": {"mer. 25.04.2012": {"year": 2012, "day": 25, "month": 4, "categories": {"KG1": {"distance": 2, "rank": 50, "pace": 322000000000, "time": 483.4}}, "weekday": "wednesday", "livingplace": "Les Ponts de Martel"}}, "location": "Colombier NE"}}, "birth": 2005}