{"name": "H\u00fcrlimann Daniel", "sex": "M", "races": {"Derendinger Abendlauf, Derendingen": {"latitude": 47.1952433, "longitude": 7.585593099999999, "race": "Derendinger Abendlauf, Derendingen", "date": {"ven. 28.06.2013": {"year": 2013, "day": 28, "month": 6, "categories": {"M40": {"distance": 10, "rank": 29, "pace": 267000000000, "time": 2729.1}}, "weekday": "friday", "livingplace": "Kirchberg"}}, "location": "Derendingen"}, "Thuner Stadtlauf, Thun": {"latitude": 46.7579868, "longitude": 7.6279881, "race": "Thuner Stadtlauf, Thun", "date": {"dim. 25.08.2013": {"year": 2013, "day": 25, "month": 8, "categories": {"10-M40": {"distance": 10, "rank": 65, "pace": 263000000000, "time": 2638.6}}, "weekday": "sunday", "livingplace": "Kirchberg"}}, "location": "Thun"}, "Morat-Fribourg": {"latitude": 46.92922110000001, "longitude": 7.120184, "race": "Morat-Fribourg", "date": {"sam. 06.10.2012": {"year": 2012, "day": 6, "month": 10, "categories": {"17-M40": {"distance": 17, "rank": 353, "pace": 302000000000, "time": 5287.2}}, "weekday": "saturday", "livingplace": "Kirchberg"}, "sam. 03.10.2015": {"year": 2015, "day": 3, "month": 10, "categories": {"17-M45": {"distance": 17, "rank": 105, "pace": 280000000000, "time": 4814.3}}, "weekday": "saturday", "livingplace": "Kirchberg"}}, "location": "Murten"}, "ASICS Bremgarter Reusslauf": {"latitude": 47.34917739999999, "longitude": 8.3397905, "race": "ASICS Bremgarter Reusslauf", "date": {"sam. 28.02.2015": {"year": 2015, "day": 28, "month": 2, "categories": {"11-M40": {"distance": 11, "rank": 216, "pace": 264000000000, "time": 2905.4}}, "weekday": "saturday", "livingplace": "Kirchberg"}}, "location": "Bremgarten AG"}, "Bieler Lauftage, Biel Bienne": {"latitude": 47.1367785, "longitude": 7.2467909, "race": "Bieler Lauftage, Biel Bienne", "date": {"jeu. 11.06.2015": {"year": 2015, "day": 11, "month": 6, "categories": {"H-M45": {"distance": 21, "rank": 16, "pace": 288000000000, "time": 6084.3}}, "weekday": "thursday", "livingplace": "Kirchberg"}}, "location": "Biel/Bienne"}, "Lausanne Marathon": {"latitude": 46.5196535, "longitude": 6.6322734, "race": "Lausanne Marathon", "date": {"dim. 27.10.2013": {"year": 2013, "day": 27, "month": 10, "categories": {"42-H3": {"distance": 42, "rank": 262, "pace": 338000000000, "time": 14290.4}}, "weekday": "sunday", "livingplace": "Kirchberg"}}, "location": "Lausanne"}, "Steinh\u00f6lzlilauf, Liebefeld": {"latitude": 46.933331, "longitude": 7.416668, "race": "Steinh\u00f6lzlilauf, Liebefeld", "date": {"dim. 02.12.2012": {"year": 2012, "day": 2, "month": 12, "categories": {"K-M1": {"distance": 4, "rank": 21, "pace": 267000000000, "time": 1175.3}}, "weekday": "sunday", "livingplace": "Kirchberg"}, "dim. 04.12.2011": {"year": 2011, "day": 4, "month": 12, "categories": {"L-S2M": {"distance": 11, "rank": 40, "pace": 309000000000, "time": 3244.8}}, "weekday": "sunday", "livingplace": "Kirchberg"}}, "location": "Liebefeld"}, "Gurtenclassic, Wabern": {"latitude": 46.92901639999999, "longitude": 7.448973199999999, "race": "Gurtenclassic, Wabern", "date": {"dim. 03.11.2013": {"year": 2013, "day": 3, "month": 11, "categories": {"KM35": {"distance": 8, "rank": 34, "pace": 326000000000, "time": 2746.3}}, "weekday": "sunday", "livingplace": "Kirchberg"}, "dim. 04.11.2012": {"year": 2012, "day": 4, "month": 11, "categories": {"15-M40": {"distance": 15, "rank": 50, "pace": 321000000000, "time": 4816.6}}, "weekday": "sunday", "livingplace": "Kirchberg"}}, "location": "Wabern"}, "Kerzerslauf": {"latitude": 46.97488999999999, "longitude": 7.1954365, "race": "Kerzerslauf", "date": {"sam. 17.03.2012": {"year": 2012, "day": 17, "month": 3, "categories": {"15-M40": {"distance": 15, "rank": 410, "pace": 308000000000, "time": 4634.2}}, "weekday": "saturday", "livingplace": "Kirchberg"}, "sam. 16.03.2013": {"year": 2013, "day": 16, "month": 3, "categories": {"15-M40": {"distance": 15, "rank": 225, "pace": 284000000000, "time": 4270.5}}, "weekday": "saturday", "livingplace": "Kirchberg"}}, "location": "Kerzers"}, "Emmenlauf Utzenstorf": {"latitude": 47.12816670000001, "longitude": 7.5588034, "race": "Emmenlauf Utzenstorf", "date": {"mer. 15.08.2012": {"year": 2012, "day": 15, "month": 8, "categories": {"Volk_H": {"distance": 5, "rank": 17, "pace": 278000000000, "time": 1508.9}}, "weekday": "wednesday", "livingplace": "Kirchberg"}, "mer. 21.08.2013": {"year": 2013, "day": 21, "month": 8, "categories": {"Herren3": {"distance": 11, "rank": 47, "pace": 270000000000, "time": 2839.4}}, "weekday": "wednesday", "livingplace": "Kirchberg"}, "mer. 20.08.2014": {"year": 2014, "day": 20, "month": 8, "categories": {"Herren3": {"distance": 11, "rank": 48, "pace": 265000000000, "time": 2784.9}}, "weekday": "wednesday", "livingplace": "Kirchberg"}}, "location": "Utzenstorf"}, "Burgdorfer Stadtlauf, Burgdorf": {"latitude": 45.277123, "longitude": -115.9129022, "race": "Burgdorfer Stadtlauf, Burgdorf", "date": {"sam. 14.09.2013": {"year": 2013, "day": 14, "month": 9, "categories": {"10-SenM2": {"distance": 10, "rank": 17, "pace": 271000000000, "time": 2718.3}}, "weekday": "saturday", "livingplace": "Rebmann Elektro"}, "sam. 15.09.2012": {"year": 2012, "day": 15, "month": 9, "categories": {"K-S2M": {"distance": 5, "rank": 10, "pace": 275000000000, "time": 1379.1}}, "weekday": "saturday", "livingplace": "Rebmann Elektro"}}, "location": "Burgdorf"}}, "birth": 1969}