{"name": "Husi Sandra", "sex": "F", "races": {"crossrun, Therwil": {"latitude": 47.4990611, "longitude": 7.5532808, "race": "crossrun, Therwil", "date": {"dim. 02.09.2012": {"year": 2012, "day": 2, "month": 9, "categories": {"F20": {"distance": 10, "rank": 2, "pace": 359000000000, "time": 3597.8}}, "weekday": "sunday", "livingplace": "Basel"}}, "location": "Therwil"}, "Lucerne Marathon, Luzern": {"latitude": 47.05016819999999, "longitude": 8.3093072, "race": "Lucerne Marathon, Luzern", "date": {"dim. 28.10.2012": {"year": 2012, "day": 28, "month": 10, "categories": {"H-F20": {"distance": 21, "rank": 396, "pace": 362000000000, "time": 7649.9}}, "weekday": "sunday", "livingplace": "Basel"}}, "location": "Luzern"}, "Muttenzer Herbstlauf": {"latitude": 47.5279292, "longitude": 7.6476369, "race": "Muttenzer Herbstlauf", "date": {"dim. 27.10.2013": {"year": 2013, "day": 27, "month": 10, "categories": {"10-W30": {"distance": 10, "rank": 14, "pace": 355000000000, "time": 3550.5}}, "weekday": "sunday", "livingplace": "Basel"}}, "location": "Muttenz"}, "Kerzerslauf": {"latitude": 46.97488999999999, "longitude": 7.1954365, "race": "Kerzerslauf", "date": {"sam. 16.03.2013": {"year": 2013, "day": 16, "month": 3, "categories": {"15-F20": {"distance": 15, "rank": 196, "pace": 328000000000, "time": 4930.1}}, "weekday": "saturday", "livingplace": "Basel"}}, "location": "Kerzers"}, "Schweizer Frauenlauf Bern": {"latitude": 46.9479739, "longitude": 7.4474468, "race": "Schweizer Frauenlauf Bern", "date": {"dim. 10.06.2012": {"year": 2012, "day": 10, "month": 6, "categories": {"10-W20": {"distance": 10, "rank": 596, "pace": 352000000000, "time": 3520.7}}, "weekday": "sunday", "livingplace": "Basel"}, "dim. 15.06.2014": {"year": 2014, "day": 15, "month": 6, "categories": {"10-W30": {"distance": 10, "rank": 119, "pace": 311000000000, "time": 3114.0}}, "weekday": "sunday", "livingplace": "Basel"}}, "location": "Bern"}}, "birth": 1983}