{"name": "Imboden Peter", "sex": "M", "races": {"Lucerne Marathon, Luzern": {"latitude": 47.05016819999999, "longitude": 8.3093072, "race": "Lucerne Marathon, Luzern", "date": {"dim. 31.10.2010": {"year": 2010, "day": 31, "month": 10, "categories": {"M-M50": {"distance": 42, "rank": 127, "pace": 325000000000, "time": 13732.1}}, "weekday": "sunday", "livingplace": "Bern"}}, "location": "Luzern"}, "Gippinger Stauseelauf": {"latitude": 47.5810513, "longitude": 8.2152586, "race": "Gippinger Stauseelauf", "date": {"ven. 31.12.2004": {"year": 2004, "day": 31, "month": 12, "categories": {"M40": {"distance": 8, "rank": 231, "pace": 284000000000, "time": 2135.7}}, "weekday": "friday", "livingplace": "Bern"}}, "location": "Leuggern"}, "SwissCityMarathon - Lucerne, Luzern": {"latitude": 47.05016819999999, "longitude": 8.3093072, "race": "SwissCityMarathon - Lucerne, Luzern", "date": {"dim. 25.10.2015": {"year": 2015, "day": 25, "month": 10, "categories": {"M-M55": {"distance": 42, "rank": 36, "pace": 338000000000, "time": 14272.7}}, "weekday": "sunday", "livingplace": "Bern"}}, "location": "Luzern"}, "Jungfrau-Marathon, Interlaken": {"latitude": NaN, "longitude": NaN, "race": "Jungfrau-Marathon, Interlaken", "date": {"sam. 08.09.2007": {"year": 2007, "day": 8, "month": 9, "categories": {"M45": {"distance": 42, "rank": 421, "pace": 465000000000, "time": 19628.6}}, "weekday": "saturday", "livingplace": "Bern"}}, "location": "Interlaken"}, "Steinh\u00f6lzlilauf, Liebefeld": {"latitude": 46.933331, "longitude": 7.416668, "race": "Steinh\u00f6lzlilauf, Liebefeld", "date": {"dim. 05.12.2004": {"year": 2004, "day": 5, "month": 12, "categories": {"27": {"distance": 11, "rank": 51, "pace": 290000000000, "time": 3053.8}}, "weekday": "sunday", "livingplace": "Bern"}}, "location": "Liebefeld"}, "Hallwilerseelauf, Beinwil am See": {"latitude": NaN, "longitude": NaN, "race": "Hallwilerseelauf, Beinwil am See", "date": {"sam. 12.10.2013": {"year": 2013, "day": 12, "month": 10, "categories": {"21-M50": {"distance": 21, "rank": 258, "pace": 308000000000, "time": 6514.6}}, "weekday": "saturday", "livingplace": "Bern"}}, "location": "Beinwil am See"}, "Kerzerslauf": {"latitude": 46.97488999999999, "longitude": 7.1954365, "race": "Kerzerslauf", "date": {"sam. 20.03.2004": {"year": 2004, "day": 20, "month": 3, "categories": {"M40": {"distance": 15, "rank": 347, "pace": 298000000000, "time": 4481.3}}, "weekday": "saturday", "livingplace": "Bern"}}, "location": "Kerzers"}, "Z\u00fcrich Marathon, Teamrun und Cityrun": {"latitude": 47.3768866, "longitude": 8.541694, "race": "Z\u00fcrich Marathon, Teamrun und Cityrun", "date": {"dim. 03.04.2005": {"year": 2005, "day": 3, "month": 4, "categories": {"M45": {"distance": 42, "rank": 500, "pace": 335000000000, "time": 14151.9}}, "weekday": "sunday", "livingplace": "Bern"}}, "location": "Z\u00fcrich"}}, "birth": 1960}