{"name": "Iseli Simon", "sex": "M", "races": {"Thuner Stadtlauf, Thun": {"latitude": 46.7579868, "longitude": 7.6279881, "race": "Thuner Stadtlauf, Thun", "date": {"sam. 15.08.2015": {"year": 2015, "day": 15, "month": 8, "categories": {"10-M20": {"distance": 10, "rank": 30, "pace": 257000000000, "time": 2570.1}}, "weekday": "saturday", "livingplace": "Konolfingen"}, "dim. 24.08.2014": {"year": 2014, "day": 24, "month": 8, "categories": {"10-M20": {"distance": 11, "rank": 47, "pace": 272000000000, "time": 2926.1}}, "weekday": "sunday", "livingplace": "Konolfingen"}}, "location": "Thun"}, "SwissCityMarathon - Lucerne, Luzern": {"latitude": 47.05016819999999, "longitude": 8.3093072, "race": "SwissCityMarathon - Lucerne, Luzern", "date": {"dim. 26.10.2014": {"year": 2014, "day": 26, "month": 10, "categories": {"H-M20": {"distance": 21, "rank": 337, "pace": 293000000000, "time": 6201.9}}, "weekday": "sunday", "livingplace": "Konolfingen"}, "dim. 25.10.2015": {"year": 2015, "day": 25, "month": 10, "categories": {"H-M20": {"distance": 21, "rank": 117, "pace": 264000000000, "time": 5583.4}}, "weekday": "sunday", "livingplace": "Konolfingen"}}, "location": "Luzern"}, "Ch\u00e4sitzerlouf, Kehrsatz": {"latitude": NaN, "longitude": NaN, "race": "Ch\u00e4sitzerlouf, Kehrsatz", "date": {"sam. 25.04.2015": {"year": 2015, "day": 25, "month": 4, "categories": {"12-M20": {"distance": 12, "rank": 27, "pace": 270000000000, "time": 3247.1}}, "weekday": "saturday", "livingplace": "Konolfingen"}}, "location": "Kehrsatz"}, "Morat-Fribourg": {"latitude": 46.92922110000001, "longitude": 7.120184, "race": "Morat-Fribourg", "date": {"sam. 03.10.2015": {"year": 2015, "day": 3, "month": 10, "categories": {"17-M20": {"distance": 17, "rank": 636, "pace": 283000000000, "time": 4873.5}}, "weekday": "saturday", "livingplace": "Konolfingen"}}, "location": "Murten"}, "Gurtenclassic, Wabern": {"latitude": 46.92901639999999, "longitude": 7.448973199999999, "race": "Gurtenclassic, Wabern", "date": {"dim. 02.11.2014": {"year": 2014, "day": 2, "month": 11, "categories": {"M20": {"distance": 15, "rank": 19, "pace": 309000000000, "time": 4643.5}}, "weekday": "sunday", "livingplace": "Konolfingen"}}, "location": "Wabern"}, "Burgdorfer Stadtlauf, Burgdorf": {"latitude": 45.277123, "longitude": -115.9129022, "race": "Burgdorfer Stadtlauf, Burgdorf", "date": {"sam. 13.09.2014": {"year": 2014, "day": 13, "month": 9, "categories": {"10-MU30": {"distance": 10, "rank": 17, "pace": 272000000000, "time": 2726.4}}, "weekday": "saturday", "livingplace": "Konolfingen"}}, "location": "Burgdorf"}, "Emmenlauf Utzenstorf": {"latitude": 47.12816670000001, "longitude": 7.5588034, "race": "Emmenlauf Utzenstorf", "date": {"mer. 20.08.2014": {"year": 2014, "day": 20, "month": 8, "categories": {"Herren1": {"distance": 11, "rank": 28, "pace": 275000000000, "time": 2890.0}}, "weekday": "wednesday", "livingplace": "Konolfingen"}}, "location": "Utzenstorf"}}, "birth": 1988}