{"name": "Isler Marlis", "sex": "F", "races": {"Lucerne Marathon, Luzern": {"latitude": 47.05016819999999, "longitude": 8.3093072, "race": "Lucerne Marathon, Luzern", "date": {"dim. 31.10.2010": {"year": 2010, "day": 31, "month": 10, "categories": {"H-F20": {"distance": 21, "rank": 112, "pace": 310000000000, "time": 6550.3}}, "weekday": "sunday", "livingplace": "Zurich"}}, "location": "Luzern"}, "Schweizer Frauenlauf Bern": {"latitude": 46.9479739, "longitude": 7.4474468, "race": "Schweizer Frauenlauf Bern", "date": {"dim. 14.06.2009": {"year": 2009, "day": 14, "month": 6, "categories": {"10-W20": {"distance": 10, "rank": 268, "pace": 333000000000, "time": 3339.8}}, "weekday": "sunday", "livingplace": "Russikon"}}, "location": "Bern"}, "Z\u00fcrich Marathon, Teamrun und Cityrun": {"latitude": 47.3768866, "longitude": 8.541694, "race": "Z\u00fcrich Marathon, Teamrun und Cityrun", "date": {"dim. 01.04.2007": {"year": 2007, "day": 1, "month": 4, "categories": {"W20": {"distance": 42, "rank": 98, "pace": 411000000000, "time": 17349.9}}, "weekday": "sunday", "livingplace": "Russikon"}}, "location": "Z\u00fcrich"}, "Winterthur Marathon": {"latitude": 39.8088766, "longitude": -75.6037351, "race": "Winterthur Marathon", "date": {"dim. 16.05.2010": {"year": 2010, "day": 16, "month": 5, "categories": {"HFAktiv": {"distance": 21, "rank": 18, "pace": 319000000000, "time": 6743.3}}, "weekday": "sunday", "livingplace": "Zurich"}}, "location": "Winterthur"}, "Bieler Lauftage, Biel Bienne": {"latitude": 47.1367785, "longitude": 7.2467909, "race": "Bieler Lauftage, Biel Bienne", "date": {"ven. 17.06.2005": {"year": 2005, "day": 17, "month": 6, "categories": {"H/WJ": {"distance": 21, "rank": 2, "pace": 355000000000, "time": 7508.6}}, "weekday": "friday", "livingplace": "Russikon"}}, "location": "Biel/Bienne"}, "Z\u00fcrcher Silvesterlauf, Z\u00fcrich": {"latitude": 47.3768866, "longitude": 8.541694, "race": "Z\u00fcrcher Silvesterlauf, Z\u00fcrich", "date": {"dim. 13.12.2009": {"year": 2009, "day": 13, "month": 12, "categories": {"8-DaHK": {"distance": 9, "rank": 120, "pace": 303000000000, "time": 2612.4}}, "weekday": "sunday", "livingplace": "Zurich"}, "dim. 10.12.2006": {"year": 2006, "day": 10, "month": 12, "categories": {"DaHK-8": {"distance": 9, "rank": 196, "pace": 309000000000, "time": 2661.7}}, "weekday": "sunday", "livingplace": "Russikon"}, "dim. 16.12.2007": {"year": 2007, "day": 16, "month": 12, "categories": {"DaHK-8": {"distance": 9, "rank": 595, "pace": 408000000000, "time": 3516.0}}, "weekday": "sunday", "livingplace": "Russikon"}}, "location": "Z\u00fcrich"}}, "birth": 1986}