{"name": "Jackson Stewart", "sex": "M", "races": {"Tour du Pays de Vaud etape 5 - La Sarraz": {"latitude": 46.5993131, "longitude": 6.539251200000001, "race": "Tour du Pays de Vaud etape 5 - La Sarraz", "date": {"mer. 10.09.2008": {"year": 2008, "day": 10, "month": 9, "categories": {"HomSen3": {"distance": 9, "rank": 62, "pace": 313000000000, "time": 2697.6}}, "weekday": "wednesday", "livingplace": "La Rippe"}}, "location": "Penthaz"}, "Course de l'Escalade, Gen\u00e8ve": {"latitude": 46.2043907, "longitude": 6.1431577, "race": "Course de l'Escalade, Gen\u00e8ve", "date": {"sam. 03.12.2005": {"year": 2005, "day": 3, "month": 12, "categories": {"Hommes3": {"distance": 7, "rank": 1181, "pace": 301000000000, "time": 2184.1}}, "weekday": "saturday", "livingplace": "Nyon"}, "sam. 06.12.2008": {"year": 2008, "day": 6, "month": 12, "categories": {"Hommes4": {"distance": 7, "rank": 378, "pace": 294000000000, "time": 2131.7}}, "weekday": "saturday", "livingplace": "La Rippe"}, "sam. 04.12.2010": {"year": 2010, "day": 4, "month": 12, "categories": {"H-H4": {"distance": 7, "rank": 473, "pace": 290000000000, "time": 2105.2}}, "weekday": "saturday", "livingplace": "La Rippe"}}, "location": "Gen\u00e8ve"}, "Tour du pays de Vaud #1 - Mezi\u00e8res": {"latitude": 46.7784736, "longitude": 6.641183, "race": "Tour du pays de Vaud #1 - Mezi\u00e8res", "date": {"mer. 10.08.2011": {"year": 2011, "day": 10, "month": 8, "categories": {"H-Sen3": {"distance": 9, "rank": 81, "pace": 332000000000, "time": 2825.4}}, "weekday": "wednesday", "livingplace": "La Rippe"}}, "location": "Yverdon-les-Bains"}, "Tour du Pays de Vaud #3 - Mezi\u00e8res": {"latitude": 46.7784736, "longitude": 6.641183, "race": "Tour du Pays de Vaud #3 - Mezi\u00e8res", "date": {"mer. 22.08.2012": {"year": 2012, "day": 22, "month": 8, "categories": {"H-Sen3": {"distance": 8, "rank": 88, "pace": 370000000000, "time": 3108.7}}, "weekday": "wednesday", "livingplace": "La Rippe"}}, "location": "Yverdon-les-Bains"}, "Tour du Pays de Vaud etape 1 - Le Mont sur Lausanne": {"latitude": 46.7784736, "longitude": 6.641183, "race": "Tour du Pays de Vaud etape 1 - Le Mont sur Lausanne", "date": {"mer. 13.08.2008": {"year": 2008, "day": 13, "month": 8, "categories": {"HomSen3": {"distance": 8, "rank": 60, "pace": 320000000000, "time": 2688.9}}, "weekday": "wednesday", "livingplace": "La Rippe"}}, "location": "Yverdon-les-Bains"}, "Tour du pays de Vaud #1 - Penthaz": {"latitude": 46.5993131, "longitude": 6.539251200000001, "race": "Tour du pays de Vaud #1 - Penthaz", "date": {"mer. 08.08.2012": {"year": 2012, "day": 8, "month": 8, "categories": {"H-Sen3": {"distance": 9, "rank": 69, "pace": 344000000000, "time": 2939.4}}, "weekday": "wednesday", "livingplace": "La Rippe"}}, "location": "Penthaz"}, "Tour du Pays de Vaud #2 - Genolier": {"latitude": 46.5955273, "longitude": 6.7702883, "race": "Tour du Pays de Vaud #2 - Genolier", "date": {"mer. 15.08.2012": {"year": 2012, "day": 15, "month": 8, "categories": {"H-Sen3": {"distance": 9, "rank": 85, "pace": 341000000000, "time": 2906.4}}, "weekday": "wednesday", "livingplace": "La Rippe"}, "mer. 17.08.2011": {"year": 2011, "day": 17, "month": 8, "categories": {"H-Sen3": {"distance": 9, "rank": 73, "pace": 358000000000, "time": 3049.0}}, "weekday": "wednesday", "livingplace": "La Rippe"}}, "location": "M\u00e9zi\u00e8res VD"}, "Tour du Pays de Vaud etape 2 - Genolier": {"latitude": 46.5955273, "longitude": 6.7702883, "race": "Tour du Pays de Vaud etape 2 - Genolier", "date": {"mer. 20.08.2008": {"year": 2008, "day": 20, "month": 8, "categories": {"HomSen3": {"distance": 8, "rank": 67, "pace": 320000000000, "time": 2663.5}}, "weekday": "wednesday", "livingplace": "La Rippe"}, "mer. 19.08.2009": {"year": 2009, "day": 19, "month": 8, "categories": {"HSen3": {"distance": 8, "rank": 77, "pace": 347000000000, "time": 2812.8}}, "weekday": "wednesday", "livingplace": "La Rippe"}}, "location": "M\u00e9zi\u00e8res VD"}, "Tour du Pays de Vaud etape 3 - Aubonne": {"latitude": 46.7829756, "longitude": 6.5728678, "race": "Tour du Pays de Vaud etape 3 - Aubonne", "date": {"mer. 27.08.2008": {"year": 2008, "day": 27, "month": 8, "categories": {"HomSen3": {"distance": 8, "rank": 65, "pace": 346000000000, "time": 2701.2}}, "weekday": "wednesday", "livingplace": "La Rippe"}}, "location": "Champvent"}, "Tour du pays de Vaud #5 - Penthaz": {"latitude": 46.5993131, "longitude": 6.539251200000001, "race": "Tour du pays de Vaud #5 - Penthaz", "date": {"mer. 07.09.2011": {"year": 2011, "day": 7, "month": 9, "categories": {"H-Sen3": {"distance": 8, "rank": 71, "pace": 370000000000, "time": 3094.3}}, "weekday": "wednesday", "livingplace": "La Rippe"}}, "location": "Penthaz"}, "Tour du pays de Vaud #6 - St  Prex": {"latitude": 46.4829113, "longitude": 6.458343500000001, "race": "Tour du pays de Vaud #6 - St  Prex", "date": {"mer. 14.09.2011": {"year": 2011, "day": 14, "month": 9, "categories": {"H-Sen3": {"distance": 9, "rank": 95, "pace": 327000000000, "time": 2816.5}}, "weekday": "wednesday", "livingplace": "La Rippe"}}, "location": "St-Prex"}, "Tour du Pays de Vaud #4 - La Sarraz": {"latitude": 46.7088129, "longitude": 6.5707689, "race": "Tour du Pays de Vaud #4 - La Sarraz", "date": {"mer. 29.08.2012": {"year": 2012, "day": 29, "month": 8, "categories": {"H-Sen3": {"distance": 9, "rank": 93, "pace": 332000000000, "time": 2822.2}}, "weekday": "wednesday", "livingplace": "La Rippe"}}, "location": "Chavornay"}, "Kerzerslauf": {"latitude": 46.97488999999999, "longitude": 7.1954365, "race": "Kerzerslauf", "date": {"sam. 15.03.2008": {"year": 2008, "day": 15, "month": 3, "categories": {"15/M50": {"distance": 15, "rank": 334, "pace": 320000000000, "time": 4811.3}}, "weekday": "saturday", "livingplace": "La Rippe"}}, "location": "Kerzers"}}, "birth": 1957}