{"name": "Jacot Laurent", "sex": "M", "races": {"Tour du Chablais #1 Roche": {"latitude": 46.2957462, "longitude": 6.9916269, "race": "Tour du Chablais #1 Roche", "date": {"mer. 03.04.2013": {"year": 2013, "day": 3, "month": 4, "categories": {"M-M40": {"distance": 9, "rank": 89, "pace": 284000000000, "time": 2520.4}}, "weekday": "wednesday", "livingplace": "La Tour de Peilz"}}, "location": "Ollon VD"}, "Tour du Chablais #6 Monthey": {"latitude": 46.3190253, "longitude": 6.970566, "race": "Tour du Chablais #6 Monthey", "date": {"mer. 08.05.2013": {"year": 2013, "day": 8, "month": 5, "categories": {"M-M40": {"distance": 9, "rank": 119, "pace": 304000000000, "time": 2843.5}}, "weekday": "wednesday", "livingplace": "La Tour de Peilz"}}, "location": "Aigle"}, "Tour du pays de Vaud #1 - Penthaz": {"latitude": 46.5993131, "longitude": 6.539251200000001, "race": "Tour du pays de Vaud #1 - Penthaz", "date": {"mer. 14.08.2013": {"year": 2013, "day": 14, "month": 8, "categories": {"H-Sen2": {"distance": 9, "rank": 79, "pace": 285000000000, "time": 2439.5}}, "weekday": "wednesday", "livingplace": "La Tour de Peilz"}}, "location": "Penthaz"}, "Tour du pays de Vaud #6 - St  Prex": {"latitude": 46.4829113, "longitude": 6.458343500000001, "race": "Tour du pays de Vaud #6 - St  Prex", "date": {"mer. 14.09.2011": {"year": 2011, "day": 14, "month": 9, "categories": {"H-Sen2": {"distance": 9, "rank": 134, "pace": 301000000000, "time": 2590.0}}, "weekday": "wednesday", "livingplace": "La Tour de Peilz"}}, "location": "St-Prex"}, "Corrida Bulloise, Bulle": {"latitude": 46.6154512, "longitude": 7.057726799999999, "race": "Corrida Bulloise, Bulle", "date": {"sam. 16.11.2013": {"year": 2013, "day": 16, "month": 11, "categories": {"M40": {"distance": 8, "rank": 140, "pace": 281000000000, "time": 2291.2}}, "weekday": "saturday", "livingplace": "La Tour de Peilz"}, "sam. 17.11.2012": {"year": 2012, "day": 17, "month": 11, "categories": {"M40": {"distance": 8, "rank": 131, "pace": 281000000000, "time": 2292.2}}, "weekday": "saturday", "livingplace": "La Tour de Peilz"}, "sam. 15.11.2014": {"year": 2014, "day": 15, "month": 11, "categories": {"8-M40": {"distance": 8, "rank": 155, "pace": 349000000000, "time": 2845.4}}, "weekday": "saturday", "livingplace": "La Tour de Peilz"}, "sam. 19.11.2011": {"year": 2011, "day": 19, "month": 11, "categories": {"M40": {"distance": 8, "rank": 149, "pace": 299000000000, "time": 2438.9}}, "weekday": "saturday", "livingplace": "La Tour de Peilz"}}, "location": "Bulle"}, "20km de Lausanne": {"latitude": 46.5196535, "longitude": 6.6322734, "race": "20km de Lausanne", "date": {"sam. 30.04.2011": {"year": 2011, "day": 30, "month": 4, "categories": {"10-H45": {"distance": 10, "rank": 205, "pace": 315000000000, "time": 3152.3}}, "weekday": "saturday", "livingplace": "Vaudoise 9"}, "sam. 26.04.2014": {"year": 2014, "day": 26, "month": 4, "categories": {"10-H45": {"distance": 10, "rank": 115, "pace": 290000000000, "time": 2903.3}}, "weekday": "saturday", "livingplace": "Vaudoise Assurances"}}, "location": "Lausanne"}, "Tour du Pays de Vaud #2 - Mezi\u00e8res": {"latitude": 46.5955273, "longitude": 6.7702883, "race": "Tour du Pays de Vaud #2 - Mezi\u00e8res", "date": {"mer. 21.08.2013": {"year": 2013, "day": 21, "month": 8, "categories": {"H-Sen2": {"distance": 8, "rank": 89, "pace": 314000000000, "time": 2543.4}}, "weekday": "wednesday", "livingplace": "La Tour de Peilz"}}, "location": "M\u00e9zi\u00e8res VD"}, "Tour du Pays de Vaud #4, La Sarraz": {"latitude": 46.7088129, "longitude": 6.5707689, "race": "Tour du Pays de Vaud #4, La Sarraz", "date": {"mer. 03.09.2014": {"year": 2014, "day": 3, "month": 9, "categories": {"H-Sen2": {"distance": 9, "rank": 73, "pace": 296000000000, "time": 2518.2}}, "weekday": "wednesday", "livingplace": "La Tour de Peilz"}}, "location": "Chavornay"}, "Tour du Chablais #2 Yvorne": {"latitude": 46.3835529, "longitude": 6.854975199999999, "race": "Tour du Chablais #2 Yvorne", "date": {"mer. 10.04.2013": {"year": 2013, "day": 10, "month": 4, "categories": {"M-M40": {"distance": 8, "rank": 97, "pace": 325000000000, "time": 2605.4}}, "weekday": "wednesday", "livingplace": "La Tour de Peilz"}}, "location": "Bouveret"}, "Tour du Chablais #5 Bex": {"latitude": 46.3603257, "longitude": 6.931504599999999, "race": "Tour du Chablais #5 Bex", "date": {"mer. 09.05.2012": {"year": 2012, "day": 9, "month": 5, "categories": {"M-M40": {"distance": 9, "rank": 73, "pace": 279000000000, "time": 2473.5}}, "weekday": "wednesday", "livingplace": "La Tour de Peilz"}}, "location": "Roche VD"}, "Lausanne Marathon": {"latitude": 46.5196535, "longitude": 6.6322734, "race": "Lausanne Marathon", "date": {"dim. 31.10.2010": {"year": 2010, "day": 31, "month": 10, "categories": {"10-H3": {"distance": 10, "rank": 418, "pace": 338000000000, "time": 3381.8}}, "weekday": "sunday", "livingplace": "La Tour de Peilz"}, "dim. 26.10.2014": {"year": 2014, "day": 26, "month": 10, "categories": {"10-H40": {"distance": 10, "rank": 283, "pace": 298000000000, "time": 2988.8}}, "weekday": "sunday", "livingplace": "La Tour de Peilz"}, "dim. 28.10.2012": {"year": 2012, "day": 28, "month": 10, "categories": {"10-H3": {"distance": 10, "rank": 132, "pace": 276000000000, "time": 2768.9}}, "weekday": "sunday", "livingplace": "La Tour de Peilz"}}, "location": "Lausanne"}, "Les Traine-Savates, Cheseaux-sur-Lausanne": {"latitude": 46.585452, "longitude": 6.6047712, "race": "Les Traine-Savates, Cheseaux-sur-Lausanne", "date": {"sam. 18.04.2015": {"year": 2015, "day": 18, "month": 4, "categories": {"10-M50": {"distance": 10, "rank": 92, "pace": 309000000000, "time": 3192.2}}, "weekday": "saturday", "livingplace": "La Tour de Peilz"}, "sam. 12.04.2014": {"year": 2014, "day": 12, "month": 4, "categories": {"10-M40": {"distance": 10, "rank": 153, "pace": 310000000000, "time": 3196.8}}, "weekday": "saturday", "livingplace": "La Tour de Peilz"}}, "location": "Cheseaux-sur-Lausanne"}, "Tour du Chablais #1 Montreux": {"latitude": 46.2957462, "longitude": 6.9916269, "race": "Tour du Chablais #1 Montreux", "date": {"mer. 11.04.2012": {"year": 2012, "day": 11, "month": 4, "categories": {"M-M40": {"distance": 8, "rank": 98, "pace": 294000000000, "time": 2238.9}}, "weekday": "wednesday", "livingplace": "La Tour de Peilz"}}, "location": "Ollon VD"}, "Tour du Chablais #3 Collombey-Muraz": {"latitude": 46.1782231, "longitude": 7.0223787, "race": "Tour du Chablais #3 Collombey-Muraz", "date": {"mer. 25.04.2012": {"year": 2012, "day": 25, "month": 4, "categories": {"M-M40": {"distance": 9, "rank": 84, "pace": 281000000000, "time": 2526.5}}, "weekday": "wednesday", "livingplace": "La Tour de Peilz"}}, "location": "Evionnaz"}, "Tour du Pays de Vaud printanier #1 Moudon": {"latitude": 46.3832683, "longitude": 6.2347852, "race": "Tour du Pays de Vaud printanier #1 Moudon", "date": {"mer. 29.05.2013": {"year": 2013, "day": 29, "month": 5, "categories": {"H-Sen2": {"distance": 8, "rank": 39, "pace": 300000000000, "time": 2571.3}}, "weekday": "wednesday", "livingplace": "La Tour de Peilz"}}, "location": "Nyon"}, "Tour du pays de Vaud #5 - Penthaz": {"latitude": 46.5993131, "longitude": 6.539251200000001, "race": "Tour du pays de Vaud #5 - Penthaz", "date": {"mer. 07.09.2011": {"year": 2011, "day": 7, "month": 9, "categories": {"H-Sen2": {"distance": 8, "rank": 99, "pace": 330000000000, "time": 2761.3}}, "weekday": "wednesday", "livingplace": "La Tour de Peilz"}}, "location": "Penthaz"}, "Tour du Chablais #6 Aigle": {"latitude": 46.3190253, "longitude": 6.970566, "race": "Tour du Chablais #6 Aigle", "date": {"mer. 01.06.2011": {"year": 2011, "day": 1, "month": 6, "categories": {"M-M40": {"distance": 10, "rank": 144, "pace": 321000000000, "time": 3275.0}}, "weekday": "wednesday", "livingplace": "La Tour de Peilz"}}, "location": "Aigle"}, "Tour du Pays de Vaud #4 - La Sarraz": {"latitude": 46.7088129, "longitude": 6.5707689, "race": "Tour du Pays de Vaud #4 - La Sarraz", "date": {"mer. 29.08.2012": {"year": 2012, "day": 29, "month": 8, "categories": {"H-Sen2": {"distance": 9, "rank": 90, "pace": 285000000000, "time": 2424.8}}, "weekday": "wednesday", "livingplace": "La Tour de Peilz"}, "mer. 04.09.2013": {"year": 2013, "day": 4, "month": 9, "categories": {"H-Sen2": {"distance": 9, "rank": 97, "pace": 295000000000, "time": 2515.5}}, "weekday": "wednesday", "livingplace": "La Tour de Peilz"}}, "location": "Chavornay"}, "Tour du Chablais #2 Bex": {"latitude": 46.3835529, "longitude": 6.854975199999999, "race": "Tour du Chablais #2 Bex", "date": {"mer. 18.04.2012": {"year": 2012, "day": 18, "month": 4, "categories": {"M-M40": {"distance": 8, "rank": 105, "pace": 293000000000, "time": 2349.5}}, "weekday": "wednesday", "livingplace": "La Tour de Peilz"}}, "location": "Bouveret"}, "Tour du Chablais #6 Montreux": {"latitude": 46.3190253, "longitude": 6.970566, "race": "Tour du Chablais #6 Montreux", "date": {"mer. 16.05.2012": {"year": 2012, "day": 16, "month": 5, "categories": {"M-M40": {"distance": 9, "rank": 90, "pace": 273000000000, "time": 2533.8}}, "weekday": "wednesday", "livingplace": "La Tour de Peilz"}}, "location": "Aigle"}}, "birth": 1965}