{"name": "Janelle Paul", "sex": "M", "races": {"Morat-Fribourg": {"latitude": 46.92922110000001, "longitude": 7.120184, "race": "Morat-Fribourg", "date": {"sam. 04.10.2008": {"year": 2008, "day": 4, "month": 10, "categories": {"C-M40": {"distance": 17, "rank": 49, "pace": 244000000000, "time": 4194.0}}, "weekday": "saturday", "livingplace": "Epalinges"}}, "location": "Murten"}, "Tour du Pays de Vaud etape 2 - Genolier": {"latitude": 46.5955273, "longitude": 6.7702883, "race": "Tour du Pays de Vaud etape 2 - Genolier", "date": {"mer. 20.08.2008": {"year": 2008, "day": 20, "month": 8, "categories": {"HomSen2": {"distance": 8, "rank": 16, "pace": 238000000000, "time": 1977.6}}, "weekday": "wednesday", "livingplace": "Epalinges"}}, "location": "M\u00e9zi\u00e8res VD"}, "Corrida Bulloise, Bulle": {"latitude": 46.6154512, "longitude": 7.057726799999999, "race": "Corrida Bulloise, Bulle", "date": {"sam. 17.11.2007": {"year": 2007, "day": 17, "month": 11, "categories": {"M40": {"distance": 8, "rank": 25, "pace": 226000000000, "time": 1812.2}}, "weekday": "saturday", "livingplace": "Lausanne"}, "sam. 15.11.2008": {"year": 2008, "day": 15, "month": 11, "categories": {"M40": {"distance": 8, "rank": 18, "pace": 217000000000, "time": 1738.1}}, "weekday": "saturday", "livingplace": "Epalinges"}}, "location": "Bulle"}, "Tour du Pays de Vaud etape 3 - Aubonne": {"latitude": 46.7829756, "longitude": 6.5728678, "race": "Tour du Pays de Vaud etape 3 - Aubonne", "date": {"mer. 27.08.2008": {"year": 2008, "day": 27, "month": 8, "categories": {"HomSen2": {"distance": 8, "rank": 21, "pace": 257000000000, "time": 2010.3}}, "weekday": "wednesday", "livingplace": "Epalinges"}}, "location": "Champvent"}, "Tour du Pays de Vaud etape 1 - Le Mont sur Lausanne": {"latitude": 46.7784736, "longitude": 6.641183, "race": "Tour du Pays de Vaud etape 1 - Le Mont sur Lausanne", "date": {"mer. 13.08.2008": {"year": 2008, "day": 13, "month": 8, "categories": {"HomSen2": {"distance": 8, "rank": 20, "pace": 241000000000, "time": 2032.7}}, "weekday": "wednesday", "livingplace": "Epalinges"}}, "location": "Yverdon-les-Bains"}, "20km de Lausanne": {"latitude": 46.5196535, "longitude": 6.6322734, "race": "20km de Lausanne", "date": {"sam. 25.04.2009": {"year": 2009, "day": 25, "month": 4, "categories": {"20-H40": {"distance": 20, "rank": 20, "pace": 231000000000, "time": 4632.7}}, "weekday": "saturday", "livingplace": "Epalinges"}, "sam. 28.04.2007": {"year": 2007, "day": 28, "month": 4, "categories": {"20H40": {"distance": 20, "rank": 39, "pace": 253000000000, "time": 5078.4}}, "weekday": "saturday", "livingplace": "Lausanne"}}, "location": "Lausanne"}, "Kerzerslauf": {"latitude": 46.97488999999999, "longitude": 7.1954365, "race": "Kerzerslauf", "date": {"sam. 21.03.2009": {"year": 2009, "day": 21, "month": 3, "categories": {"15-M40": {"distance": 15, "rank": 20, "pace": 226000000000, "time": 3398.5}}, "weekday": "saturday", "livingplace": "Epalinges"}, "sam. 15.03.2008": {"year": 2008, "day": 15, "month": 3, "categories": {"15/M40": {"distance": 15, "rank": 28, "pace": 231000000000, "time": 3478.3}}, "weekday": "saturday", "livingplace": "Epalinges"}}, "location": "Kerzers"}, "Les Traine-Savates, Cheseaux-sur-Lausanne": {"latitude": 46.585452, "longitude": 6.6047712, "race": "Les Traine-Savates, Cheseaux-sur-Lausanne", "date": {"sam. 04.04.2009": {"year": 2009, "day": 4, "month": 4, "categories": {"Hom V1": {"distance": 10, "rank": 15, "pace": 223000000000, "time": 2327.8}}, "weekday": "saturday", "livingplace": "Epalinges"}, "sam. 12.04.2008": {"year": 2008, "day": 12, "month": 4, "categories": {"MV1": {"distance": 10, "rank": 13, "pace": 226000000000, "time": 2353.8}}, "weekday": "saturday", "livingplace": "Epalinges"}}, "location": "Cheseaux-sur-Lausanne"}}, "birth": 1965}