{"name": "Jansen Sascha", "sex": "M", "races": {"Tour du Chablais #1 Roche": {"latitude": 46.2957462, "longitude": 6.9916269, "race": "Tour du Chablais #1 Roche", "date": {"mer. 03.04.2013": {"year": 2013, "day": 3, "month": 4, "categories": {"M-M20": {"distance": 9, "rank": 191, "pace": 313000000000, "time": 2781.3}}, "weekday": "wednesday", "livingplace": "Vevey"}}, "location": "Ollon VD"}, "Tour du Pays de Vaud #4 - La Sarraz": {"latitude": 46.7088129, "longitude": 6.5707689, "race": "Tour du Pays de Vaud #4 - La Sarraz", "date": {"mer. 04.09.2013": {"year": 2013, "day": 4, "month": 9, "categories": {"H-Sen1": {"distance": 9, "rank": 136, "pace": 346000000000, "time": 2945.4}}, "weekday": "wednesday", "livingplace": "Vevey"}}, "location": "Chavornay"}, "Tour du pays de Vaud #6 - St  Prex": {"latitude": 46.4829113, "longitude": 6.458343500000001, "race": "Tour du pays de Vaud #6 - St  Prex", "date": {"mer. 14.09.2011": {"year": 2011, "day": 14, "month": 9, "categories": {"H-Hom": {"distance": 9, "rank": 79, "pace": 355000000000, "time": 3057.3}}, "weekday": "wednesday", "livingplace": "Vevey"}}, "location": "St-Prex"}, "Tour du Pays de Vaud #2 - Mezi\u00e8res": {"latitude": 46.5955273, "longitude": 6.7702883, "race": "Tour du Pays de Vaud #2 - Mezi\u00e8res", "date": {"mer. 21.08.2013": {"year": 2013, "day": 21, "month": 8, "categories": {"H-Sen1": {"distance": 8, "rank": 141, "pace": 377000000000, "time": 3055.8}}, "weekday": "wednesday", "livingplace": "Vevey"}}, "location": "M\u00e9zi\u00e8res VD"}, "Tour du pays de Vaud #1 - Penthaz": {"latitude": 46.5993131, "longitude": 6.539251200000001, "race": "Tour du pays de Vaud #1 - Penthaz", "date": {"mer. 14.08.2013": {"year": 2013, "day": 14, "month": 8, "categories": {"H-Sen1": {"distance": 9, "rank": 152, "pace": 352000000000, "time": 3003.4}}, "weekday": "wednesday", "livingplace": "Vevey"}}, "location": "Penthaz"}, "Tour du Pays de Vaud #3 - Chavornay": {"latitude": 46.7784736, "longitude": 6.641183, "race": "Tour du Pays de Vaud #3 - Chavornay", "date": {"mer. 28.08.2013": {"year": 2013, "day": 28, "month": 8, "categories": {"H-Sen1": {"distance": 9, "rank": 151, "pace": 343000000000, "time": 3057.1}}, "weekday": "wednesday", "livingplace": "Vevey"}}, "location": "Yverdon-les-Bains"}, "Tour du Chablais #2 Yvorne": {"latitude": 46.3835529, "longitude": 6.854975199999999, "race": "Tour du Chablais #2 Yvorne", "date": {"mer. 10.04.2013": {"year": 2013, "day": 10, "month": 4, "categories": {"M-M20": {"distance": 8, "rank": 218, "pace": 358000000000, "time": 2869.8}}, "weekday": "wednesday", "livingplace": "Vevey"}}, "location": "Bouveret"}}, "birth": 1983}