{"name": "Jaquenoud-Cottens Val\u00e9rie", "sex": "F", "races": {"Tour du Pays de Vaud #2 - Genolier": {"latitude": 46.5955273, "longitude": 6.7702883, "race": "Tour du Pays de Vaud #2 - Genolier", "date": {"mer. 15.08.2012": {"year": 2012, "day": 15, "month": 8, "categories": {"D-Sen1": {"distance": 9, "rank": 8, "pace": 268000000000, "time": 2282.7}}, "weekday": "wednesday", "livingplace": "Orbe"}}, "location": "M\u00e9zi\u00e8res VD"}, "Morat-Fribourg": {"latitude": 46.92922110000001, "longitude": 7.120184, "race": "Morat-Fribourg", "date": {"sam. 03.10.2009": {"year": 2009, "day": 3, "month": 10, "categories": {"C-W20": {"distance": 17, "rank": 69, "pace": 308000000000, "time": 5300.8}}, "weekday": "saturday", "livingplace": "Orbe"}}, "location": "Murten"}, "Tour du Pays de Vaud #3 - Mezi\u00e8res": {"latitude": 46.7784736, "longitude": 6.641183, "race": "Tour du Pays de Vaud #3 - Mezi\u00e8res", "date": {"mer. 22.08.2012": {"year": 2012, "day": 22, "month": 8, "categories": {"D-Sen1": {"distance": 8, "rank": 9, "pace": 301000000000, "time": 2533.0}}, "weekday": "wednesday", "livingplace": "Orbe"}}, "location": "Yverdon-les-Bains"}, "20km de Lausanne": {"latitude": 46.5196535, "longitude": 6.6322734, "race": "20km de Lausanne", "date": {"sam. 24.04.2010": {"year": 2010, "day": 24, "month": 4, "categories": {"10-F30": {"distance": 10, "rank": 57, "pace": 310000000000, "time": 3100.3}}, "weekday": "saturday", "livingplace": "Orbe"}}, "location": "Lausanne"}, "Tour du Pays de Vaud #4 - La Sarraz": {"latitude": 46.7088129, "longitude": 6.5707689, "race": "Tour du Pays de Vaud #4 - La Sarraz", "date": {"mer. 29.08.2012": {"year": 2012, "day": 29, "month": 8, "categories": {"D-Sen1": {"distance": 9, "rank": 12, "pace": 272000000000, "time": 2315.8}}, "weekday": "wednesday", "livingplace": "Orbe"}}, "location": "Chavornay"}, "Aletsch-Halbmarathon, Bettmeralp": {"latitude": NaN, "longitude": NaN, "race": "Aletsch-Halbmarathon, Bettmeralp", "date": {"dim. 28.06.2009": {"year": 2009, "day": 28, "month": 6, "categories": {"F30": {"distance": 21, "rank": 54, "pace": 485000000000, "time": 10203.2}}, "weekday": "sunday", "livingplace": "Orbe"}}, "location": "Bettmeralp"}}, "birth": 1975}