{"name": "Jaquier Lucien", "sex": "M", "races": {"Tour du Pays de Vaud #2 - Genolier": {"latitude": 46.5955273, "longitude": 6.7702883, "race": "Tour du Pays de Vaud #2 - Genolier", "date": {"mer. 17.08.2011": {"year": 2011, "day": 17, "month": 8, "categories": {"H-Sen2": {"distance": 9, "rank": 47, "pace": 273000000000, "time": 2321.7}}, "weekday": "wednesday", "livingplace": "Le Sentier"}}, "location": "M\u00e9zi\u00e8res VD"}, "Tour du pays de Vaud #6 - St  Prex": {"latitude": 46.4829113, "longitude": 6.458343500000001, "race": "Tour du pays de Vaud #6 - St  Prex", "date": {"mer. 14.09.2011": {"year": 2011, "day": 14, "month": 9, "categories": {"H-Sen2": {"distance": 9, "rank": 37, "pace": 252000000000, "time": 2174.6}}, "weekday": "wednesday", "livingplace": "Le Sentier"}}, "location": "St-Prex"}, "Tour du Pays de Vaud printanier #1 Chavornay": {"latitude": 46.3832683, "longitude": 6.2347852, "race": "Tour du Pays de Vaud printanier #1 Chavornay", "date": {"mer. 30.05.2012": {"year": 2012, "day": 30, "month": 5, "categories": {"H-Sen2": {"distance": 9, "rank": 20, "pace": 275000000000, "time": 2463.8}}, "weekday": "wednesday", "livingplace": "Le Sentier"}}, "location": "Nyon"}, "Tour du pays de Vaud #5 - Penthaz": {"latitude": 46.5993131, "longitude": 6.539251200000001, "race": "Tour du pays de Vaud #5 - Penthaz", "date": {"mer. 07.09.2011": {"year": 2011, "day": 7, "month": 9, "categories": {"H-Sen2": {"distance": 8, "rank": 26, "pace": 276000000000, "time": 2307.3}}, "weekday": "wednesday", "livingplace": "Le Sentier"}}, "location": "Penthaz"}, "20km de Lausanne": {"latitude": 46.5196535, "longitude": 6.6322734, "race": "20km de Lausanne", "date": {"sam. 24.04.2004": {"year": 2004, "day": 24, "month": 4, "categories": {"13": {"distance": 20, "rank": 489, "pace": 335000000000, "time": 6712.4}}, "weekday": "saturday", "livingplace": "Le Sentier"}, "sam. 22.04.2006": {"year": 2006, "day": 22, "month": 4, "categories": {"20/H40": {"distance": 20, "rank": 64, "pace": 268000000000, "time": 5378.7}}, "weekday": "saturday", "livingplace": "Meneur d'allure"}}, "location": "Lausanne"}, "Tour du Pays de Vaud #4 - La Sarraz": {"latitude": 46.7088129, "longitude": 6.5707689, "race": "Tour du Pays de Vaud #4 - La Sarraz", "date": {"mer. 29.08.2012": {"year": 2012, "day": 29, "month": 8, "categories": {"H-Sen2": {"distance": 9, "rank": 51, "pace": 267000000000, "time": 2269.5}}, "weekday": "wednesday", "livingplace": "Le Sentier"}}, "location": "Chavornay"}, "Tour du Pays de Vaud printanier #2 Yens": {"latitude": 46.6698891, "longitude": 6.7975224, "race": "Tour du Pays de Vaud printanier #2 Yens", "date": {"mer. 06.06.2012": {"year": 2012, "day": 6, "month": 6, "categories": {"H-Sen2": {"distance": 9, "rank": 19, "pace": 264000000000, "time": 2409.0}}, "weekday": "wednesday", "livingplace": "Le Sentier"}}, "location": "Moudon"}}, "birth": 1963}