{"name": "Jaques Christian", "sex": "M", "races": {"BCN Tour La Chaux-de-Fonds": {"latitude": 46.9262933, "longitude": 6.6324944, "race": "BCN Tour La Chaux-de-Fonds", "date": {"mer. 23.05.2012": {"year": 2012, "day": 23, "month": 5, "categories": {"HE": {"distance": 11, "rank": 156, "pace": 314000000000, "time": 3392.8}}, "weekday": "wednesday", "livingplace": "Provence Mutrux"}}, "location": "Couvet"}, "Jungfrau-Marathon, Interlaken": {"latitude": NaN, "longitude": NaN, "race": "Jungfrau-Marathon, Interlaken", "date": {"sam. 06.09.2008": {"year": 2008, "day": 6, "month": 9, "categories": {"M20": {"distance": 42, "rank": 657, "pace": 472000000000, "time": 19952.1}}, "weekday": "saturday", "livingplace": "Boudry"}}, "location": "Interlaken"}, "BCN Tour Les Ponts-de-Martel": {"latitude": 46.999113, "longitude": 6.733554799999999, "race": "BCN Tour Les Ponts-de-Martel", "date": {"mer. 09.05.2012": {"year": 2012, "day": 9, "month": 5, "categories": {"HE": {"distance": 10, "rank": 185, "pace": 325000000000, "time": 3354.1}}, "weekday": "wednesday", "livingplace": "Provence Mutrux"}}, "location": "Les Ponts-de-Martel"}, "La Trotteuse-Tissot, La Chaux-de-Fonds": {"latitude": 47.1034892, "longitude": 6.832783800000001, "race": "La Trotteuse-Tissot, La Chaux-de-Fonds", "date": {"sam. 13.12.2014": {"year": 2014, "day": 13, "month": 12, "categories": {"GC-H20": {"distance": 8, "rank": 44, "pace": 250000000000, "time": 2004.1}}, "weekday": "saturday", "livingplace": "Boudry"}}, "location": "La Chaux-de-Fonds"}, "BCN Tour Couvet": {"latitude": 47.0624261, "longitude": 6.9175754, "race": "BCN Tour Couvet", "date": {"mer. 02.05.2012": {"year": 2012, "day": 2, "month": 5, "categories": {"HE": {"distance": 11, "rank": 185, "pace": 345000000000, "time": 3848.1}}, "weekday": "wednesday", "livingplace": "Provence Mutrux"}}, "location": "Ch\u00e9zard-St-Martin"}, "Aletsch-Halbmarathon, Bettmeralp": {"latitude": NaN, "longitude": NaN, "race": "Aletsch-Halbmarathon, Bettmeralp", "date": {"dim. 24.06.2007": {"year": 2007, "day": 24, "month": 6, "categories": {"MJun": {"distance": 21, "rank": 11, "pace": 472000000000, "time": 9928.7}}, "weekday": "sunday", "livingplace": "Boudry"}}, "location": "Bettmeralp"}, "BCN Tour Colombier": {"latitude": 47.1034892, "longitude": 6.832783800000001, "race": "BCN Tour Colombier", "date": {"mer. 16.05.2012": {"year": 2012, "day": 16, "month": 5, "categories": {"HE": {"distance": 11, "rank": 161, "pace": 305000000000, "time": 3294.7}}, "weekday": "wednesday", "livingplace": "Provence Mutrux"}}, "location": "La Chaux-de-Fonds"}, "BCN Tour Cornaux": {"latitude": 46.9668714, "longitude": 6.8589727, "race": "BCN Tour Cornaux", "date": {"mer. 25.04.2012": {"year": 2012, "day": 25, "month": 4, "categories": {"HE": {"distance": 11, "rank": 200, "pace": 392000000000, "time": 4312.7}}, "weekday": "wednesday", "livingplace": "Provence Mutrux"}}, "location": "Colombier NE"}}, "birth": 1988}