{"name": "Jaunin Marc-Henri", "sex": "M", "races": {"Grand Prix Craft, Neuch\u00e2tel": {"latitude": 46.9899874, "longitude": 6.9292732, "race": "Grand Prix Craft, Neuch\u00e2tel", "date": {"dim. 16.12.2007": {"year": 2007, "day": 16, "month": 12, "categories": {"HS1": {"distance": 7, "rank": 6, "pace": 195000000000, "time": 1365.3}}, "weekday": "sunday", "livingplace": "CEP Cortaillod"}, "dim. 17.12.2006": {"year": 2006, "day": 17, "month": 12, "categories": {"HS1": {"distance": 7, "rank": 3, "pace": 192000000000, "time": 1346.2}}, "weekday": "sunday", "livingplace": "Neuchatel"}}, "location": "Neuch\u00e2tel"}, "Morat-Fribourg": {"latitude": 46.92922110000001, "longitude": 7.120184, "race": "Morat-Fribourg", "date": {"sam. 02.10.2010": {"year": 2010, "day": 2, "month": 10, "categories": {"17-M40": {"distance": 17, "rank": 11, "pace": 232000000000, "time": 3997.3}}, "weekday": "saturday", "livingplace": "Cortaillod"}}, "location": "Murten"}, "La Trotteuse-Tissot, La Chaux-de-Fonds": {"latitude": 47.1034892, "longitude": 6.832783800000001, "race": "La Trotteuse-Tissot, La Chaux-de-Fonds", "date": {"sam. 17.12.2011": {"year": 2011, "day": 17, "month": 12, "categories": {"GC-H40": {"distance": 8, "rank": 8, "pace": 229000000000, "time": 1837.7}}, "weekday": "saturday", "livingplace": "CEP Cortailod"}}, "location": "La Chaux-de-Fonds"}, "Tour du Pays de Vaud printanier #2 Yverdon-les-Bains": {"latitude": 46.6698891, "longitude": 6.7975224, "race": "Tour du Pays de Vaud printanier #2 Yverdon-les-Bains", "date": {"mer. 05.06.2013": {"year": 2013, "day": 5, "month": 6, "categories": {"H-Sen2": {"distance": 9, "rank": 2, "pace": 238000000000, "time": 2168.1}}, "weekday": "wednesday", "livingplace": "Cortaillod"}}, "location": "Moudon"}, "20km de Lausanne": {"latitude": 46.5196535, "longitude": 6.6322734, "race": "20km de Lausanne", "date": {"sam. 30.04.2011": {"year": 2011, "day": 30, "month": 4, "categories": {"20-H40": {"distance": 20, "rank": 2, "pace": 218000000000, "time": 4367.6}}, "weekday": "saturday", "livingplace": "Cortaillod"}, "sam. 27.04.2013": {"year": 2013, "day": 27, "month": 4, "categories": {"20-H45": {"distance": 20, "rank": 6, "pace": 225000000000, "time": 4511.8}}, "weekday": "saturday", "livingplace": "FY Nature Marathon"}, "sam. 25.04.2009": {"year": 2009, "day": 25, "month": 4, "categories": {"20-H40": {"distance": 20, "rank": 4, "pace": 217000000000, "time": 4350.8}}, "weekday": "saturday", "livingplace": "Neuchatel"}, "sam. 25.04.2015": {"year": 2015, "day": 25, "month": 4, "categories": {"20-H45": {"distance": 20, "rank": 9, "pace": 230000000000, "time": 4604.2}}, "weekday": "saturday", "livingplace": "1. Swiss Lake Marathon 20"}, "sam. 26.04.2014": {"year": 2014, "day": 26, "month": 4, "categories": {"20-H45": {"distance": 20, "rank": 8, "pace": 232000000000, "time": 4640.1}}, "weekday": "saturday", "livingplace": "Semi du CEP 2014"}}, "location": "Lausanne"}, "Hallwilerseelauf, Beinwil am See": {"latitude": NaN, "longitude": NaN, "race": "Hallwilerseelauf, Beinwil am See", "date": {"sam. 12.10.2013": {"year": 2013, "day": 12, "month": 10, "categories": {"21-M40": {"distance": 21, "rank": 4, "pace": 222000000000, "time": 4703.6}}, "weekday": "saturday", "livingplace": "Cortaillod"}}, "location": "Beinwil am See"}, "Z\u00fcrcher Silvesterlauf, Z\u00fcrich": {"latitude": 47.3768866, "longitude": 8.541694, "race": "Z\u00fcrcher Silvesterlauf, Z\u00fcrich", "date": {"dim. 13.12.2009": {"year": 2009, "day": 13, "month": 12, "categories": {"8-MenAK2": {"distance": 9, "rank": 2, "pace": 206000000000, "time": 1778.8}}, "weekday": "sunday", "livingplace": "Cortaillod"}}, "location": "Z\u00fcrich"}, "BCN Tour La Chaux-de-Fonds": {"latitude": 46.9262933, "longitude": 6.6324944, "race": "BCN Tour La Chaux-de-Fonds", "date": {"mer. 23.05.2012": {"year": 2012, "day": 23, "month": 5, "categories": {"HS2": {"distance": 11, "rank": 15, "pace": 238000000000, "time": 2571.9}}, "weekday": "wednesday", "livingplace": "Cortaillod"}}, "location": "Couvet"}, "Jungfrau-Marathon, Interlaken": {"latitude": NaN, "longitude": NaN, "race": "Jungfrau-Marathon, Interlaken", "date": {"sam. 06.09.2003": {"year": 2003, "day": 6, "month": 9, "categories": {"M20": {"distance": 42, "rank": 31, "pace": 303000000000, "time": 12807.1}}, "weekday": "saturday", "livingplace": "Neuchatel"}}, "location": "Interlaken"}, "BCN Tour Les Ponts-de-Martel": {"latitude": 46.999113, "longitude": 6.733554799999999, "race": "BCN Tour Les Ponts-de-Martel", "date": {"mer. 09.05.2012": {"year": 2012, "day": 9, "month": 5, "categories": {"HS2": {"distance": 10, "rank": 16, "pace": 242000000000, "time": 2492.7}}, "weekday": "wednesday", "livingplace": "Cortaillod"}}, "location": "Les Ponts-de-Martel"}, "Tour du Pays de Vaud printanier #1 Moudon": {"latitude": 46.3832683, "longitude": 6.2347852, "race": "Tour du Pays de Vaud printanier #1 Moudon", "date": {"mer. 29.05.2013": {"year": 2013, "day": 29, "month": 5, "categories": {"H-Sen2": {"distance": 8, "rank": 2, "pace": 230000000000, "time": 1970.6}}, "weekday": "wednesday", "livingplace": "Cortaillod"}}, "location": "Nyon"}, "Lausanne Marathon": {"latitude": 46.5196535, "longitude": 6.6322734, "race": "Lausanne Marathon", "date": {"sam. 24.10.2015": {"year": 2015, "day": 24, "month": 10, "categories": {"10-H40": {"distance": 10, "rank": 29, "pace": 232000000000, "time": 2323.2}}, "weekday": "saturday", "livingplace": "Cortaillod"}, "dim. 30.10.2011": {"year": 2011, "day": 30, "month": 10, "categories": {"10-H3": {"distance": 10, "rank": 12, "pace": 215000000000, "time": 2154.3}}, "weekday": "sunday", "livingplace": "Cortaillod"}}, "location": "Lausanne"}, "Tour du Pays de Vaud #4 - La Sarraz": {"latitude": 46.7088129, "longitude": 6.5707689, "race": "Tour du Pays de Vaud #4 - La Sarraz", "date": {"mer. 04.09.2013": {"year": 2013, "day": 4, "month": 9, "categories": {"H-Sen2": {"distance": 9, "rank": 3, "pace": 230000000000, "time": 1956.9}}, "weekday": "wednesday", "livingplace": "Cortaillod"}}, "location": "Chavornay"}, "BCN Tour Cornaux": {"latitude": 46.9668714, "longitude": 6.8589727, "race": "BCN Tour Cornaux", "date": {"mer. 25.04.2012": {"year": 2012, "day": 25, "month": 4, "categories": {"HS2": {"distance": 11, "rank": 13, "pace": 252000000000, "time": 2776.6}}, "weekday": "wednesday", "livingplace": "Cortaillod"}}, "location": "Colombier NE"}, "10km de Payerne": {"latitude": 46.8220266, "longitude": 6.9405663, "race": "10km de Payerne", "date": {"sam. 28.03.2009": {"year": 2009, "day": 28, "month": 3, "categories": {"M40": {"distance": 10, "rank": 11, "pace": 209000000000, "time": 2099.0}}, "weekday": "saturday", "livingplace": "CEP Cortaillod"}}, "location": "Payerne"}, "Semi-Marathon de la C\u00f4te, Allaman-Nyon": {"latitude": 46.3832683, "longitude": 6.2347852, "race": "Semi-Marathon de la C\u00f4te, Allaman-Nyon", "date": {"dim. 14.09.2014": {"year": 2014, "day": 14, "month": 9, "categories": {"21-H45": {"distance": 21, "rank": 6, "pace": 237000000000, "time": 5012.3}}, "weekday": "sunday", "livingplace": "Cortaillod"}}, "location": "Nyon"}, "Course de l'Escalade, Gen\u00e8ve": {"latitude": 46.2043907, "longitude": 6.1431577, "race": "Course de l'Escalade, Gen\u00e8ve", "date": {"sam. 04.12.2010": {"year": 2010, "day": 4, "month": 12, "categories": {"H-H3": {"distance": 7, "rank": 23, "pace": 205000000000, "time": 1488.5}}, "weekday": "saturday", "livingplace": "Cortaillod"}, "sam. 01.12.2012": {"year": 2012, "day": 1, "month": 12, "categories": {"Duc-Hom3": {"distance": 18, "rank": 123, "pace": 261000000000, "time": 4579.8}}, "weekday": "saturday", "livingplace": "Cortaillod"}}, "location": "Gen\u00e8ve"}, "Course de l'Avent, Yverdon": {"latitude": 46.8064773, "longitude": 7.161971899999999, "race": "Course de l'Avent, Yverdon", "date": {"dim. 27.11.2011": {"year": 2011, "day": 27, "month": 11, "categories": {"E-H4": {"distance": 8, "rank": 2, "pace": 205000000000, "time": 1586.1}}, "weekday": "sunday", "livingplace": "Cortaillod"}}, "location": "Fribourg"}, "Les Traine-Savates, Cheseaux-sur-Lausanne": {"latitude": 46.585452, "longitude": 6.6047712, "race": "Les Traine-Savates, Cheseaux-sur-Lausanne", "date": {"sam. 14.04.2012": {"year": 2012, "day": 14, "month": 4, "categories": {"10-M40": {"distance": 10, "rank": 5, "pace": 215000000000, "time": 2242.7}}, "weekday": "saturday", "livingplace": "Cortaillod"}}, "location": "Cheseaux-sur-Lausanne"}, "BCN Tour Couvet": {"latitude": 47.0624261, "longitude": 6.9175754, "race": "BCN Tour Couvet", "date": {"mer. 02.05.2012": {"year": 2012, "day": 2, "month": 5, "categories": {"HS2": {"distance": 11, "rank": 13, "pace": 238000000000, "time": 2656.7}}, "weekday": "wednesday", "livingplace": "Cortaillod"}}, "location": "Ch\u00e9zard-St-Martin"}, "Winterthur Marathon": {"latitude": 39.8088766, "longitude": -75.6037351, "race": "Winterthur Marathon", "date": {"dim. 25.05.2003": {"year": 2003, "day": 25, "month": 5, "categories": {"MM35": {"distance": 42, "rank": 4, "pace": 216000000000, "time": 9123.5}}, "weekday": "sunday", "livingplace": "Neuchatel"}}, "location": "Winterthur"}, "Z\u00fcrich Marathon, Teamrun und Cityrun": {"latitude": 47.3768866, "longitude": 8.541694, "race": "Z\u00fcrich Marathon, Teamrun und Cityrun", "date": {"dim. 22.04.2012": {"year": 2012, "day": 22, "month": 4, "categories": {"42-TMen": {"distance": 42, "rank": 5, "pace": 221000000000, "time": 9346.2}}, "weekday": "sunday", "livingplace": "Cortaillod"}}, "location": "Z\u00fcrich"}, "Brienzerseelauf, B\u00f6nigen": {"latitude": NaN, "longitude": NaN, "race": "Brienzerseelauf, B\u00f6nigen", "date": {"sam. 10.10.2015": {"year": 2015, "day": 10, "month": 10, "categories": {"43-10-M": {"distance": 10, "rank": 13, "pace": 249000000000, "time": 2496.5}}, "weekday": "saturday", "livingplace": "CEP Cortaillod"}}, "location": "B\u00f6nigen b. Interlaken"}, "BCN Tour Colombier": {"latitude": 47.1034892, "longitude": 6.832783800000001, "race": "BCN Tour Colombier", "date": {"mer. 16.05.2012": {"year": 2012, "day": 16, "month": 5, "categories": {"HS2": {"distance": 11, "rank": 12, "pace": 234000000000, "time": 2531.3}}, "weekday": "wednesday", "livingplace": "Cortaillod"}}, "location": "La Chaux-de-Fonds"}}, "birth": 1968}