{"name": "Jean-Mairet Mathieu", "sex": "M", "races": {"BCN Tour Couvet": {"latitude": 47.0624261, "longitude": 6.9175754, "race": "BCN Tour Couvet", "date": {"mer. 02.05.2012": {"year": 2012, "day": 2, "month": 5, "categories": {"KG1": {"distance": 2, "rank": 35, "pace": 299000000000, "time": 539.4}}, "weekday": "wednesday", "livingplace": "La Sagne"}}, "location": "Ch\u00e9zard-St-Martin"}, "BCN Tour M\u00f4tier": {"latitude": 46.9262933, "longitude": 6.6324944, "race": "BCN Tour M\u00f4tier", "date": {"mer. 19.05.2010": {"year": 2010, "day": 19, "month": 5, "categories": {"KG1": {"distance": 2, "rank": 88, "pace": 329000000000, "time": 593.8}}, "weekday": "wednesday", "livingplace": "La Sagne"}}, "location": "Couvet"}, "BCN Tour La Br\u00e9vine": {"latitude": 46.999113, "longitude": 6.733554799999999, "race": "BCN Tour La Br\u00e9vine", "date": {"mer. 04.05.2011": {"year": 2011, "day": 4, "month": 5, "categories": {"KG1": {"distance": 2, "rank": 59, "pace": 329000000000, "time": 626.2}}, "weekday": "wednesday", "livingplace": "La Sagne"}}, "location": "Les Ponts-de-Martel"}, "BCN Tour #1 Corcelles": {"latitude": 46.9668714, "longitude": 6.8589727, "race": "BCN Tour #1 Corcelles", "date": {"mer. 24.04.2013": {"year": 2013, "day": 24, "month": 4, "categories": {"KG1": {"distance": 2, "rank": 43, "pace": 362000000000, "time": 544.2}}, "weekday": "wednesday", "livingplace": "La Sagne"}}, "location": "Colombier NE"}, "BCN Tour #4 Fleurier": {"latitude": 47.1034892, "longitude": 6.832783800000001, "race": "BCN Tour #4 Fleurier", "date": {"mer. 15.05.2013": {"year": 2013, "day": 15, "month": 5, "categories": {"KG1": {"distance": 2, "rank": 30, "pace": 193000000000, "time": 290.3}}, "weekday": "wednesday", "livingplace": "La Sagne"}}, "location": "La Chaux-de-Fonds"}, "BCN Tour La Chaux-de-Fonds": {"latitude": 47.1034892, "longitude": 6.832783800000001, "race": "BCN Tour La Chaux-de-Fonds", "date": {"mer. 11.05.2011": {"year": 2011, "day": 11, "month": 5, "categories": {"KG1": {"distance": 1, "rank": 69, "pace": 550000000000, "time": 533.7}}, "weekday": "wednesday", "livingplace": "La Sagne"}}, "location": "La Chaux-de-Fonds"}, "BCN Tour #6 Neuch\u00e2tel": {"latitude": 46.9899874, "longitude": 6.9292732, "race": "BCN Tour #6 Neuch\u00e2tel", "date": {"mer. 29.05.2013": {"year": 2013, "day": 29, "month": 5, "categories": {"KG1": {"distance": 1, "rank": 46, "pace": 271000000000, "time": 352.7}}, "weekday": "wednesday", "livingplace": "La Sagne"}}, "location": "Neuch\u00e2tel"}, "BCN Tour Les Ponts-de-Martel": {"latitude": 46.999113, "longitude": 6.733554799999999, "race": "BCN Tour Les Ponts-de-Martel", "date": {"mer. 09.05.2012": {"year": 2012, "day": 9, "month": 5, "categories": {"KG1": {"distance": 2, "rank": 38, "pace": 294000000000, "time": 558.8}}, "weekday": "wednesday", "livingplace": "La Sagne"}}, "location": "Les Ponts-de-Martel"}, "BCN Tour Ponts-de-Martel": {"latitude": 47.0624261, "longitude": 6.9175754, "race": "BCN Tour Ponts-de-Martel", "date": {"mer. 28.04.2010": {"year": 2010, "day": 28, "month": 4, "categories": {"KG1": {"distance": 2, "rank": 117, "pace": 299000000000, "time": 658.3}}, "weekday": "wednesday", "livingplace": "La Sagne"}}, "location": "Ch\u00e9zard-St-Martin"}, "BCN Tour Les Ponts de Martel": {"latitude": 46.9262933, "longitude": 6.6324944, "race": "BCN Tour Les Ponts de Martel", "date": {"mer. 18.05.2011": {"year": 2011, "day": 18, "month": 5, "categories": {"KG1": {"distance": 2, "rank": 87, "pace": 320000000000, "time": 631.0}}, "weekday": "wednesday", "livingplace": "La Sagne"}}, "location": "Couvet"}, "BCN Tour #5 Colombier": {"latitude": 46.9262933, "longitude": 6.6324944, "race": "BCN Tour #5 Colombier", "date": {"mer. 22.05.2013": {"year": 2013, "day": 22, "month": 5, "categories": {"KG1": {"distance": 1, "rank": 33, "pace": 274000000000, "time": 329.7}}, "weekday": "wednesday", "livingplace": "La Sagne"}}, "location": "Couvet"}, "BCN Tour La Chaux-de-fonds": {"latitude": 47.1034892, "longitude": 6.832783800000001, "race": "BCN Tour La Chaux-de-fonds", "date": {"mer. 12.05.2010": {"year": 2010, "day": 12, "month": 5, "categories": {"KG1": {"distance": 1, "rank": 65, "pace": 947000000000, "time": 918.7}}, "weekday": "wednesday", "livingplace": "La Sagne"}}, "location": "La Chaux-de-Fonds"}, "BCN Tour Colombier": {"latitude": 47.1034892, "longitude": 6.832783800000001, "race": "BCN Tour Colombier", "date": {"mer. 16.05.2012": {"year": 2012, "day": 16, "month": 5, "categories": {"KG1": {"distance": 2, "rank": 47, "pace": 355000000000, "time": 533.3}}, "weekday": "wednesday", "livingplace": "La Sagne"}}, "location": "La Chaux-de-Fonds"}, "BCN Tour #3 Dombresson": {"latitude": 46.999113, "longitude": 6.733554799999999, "race": "BCN Tour #3 Dombresson", "date": {"mer. 08.05.2013": {"year": 2013, "day": 8, "month": 5, "categories": {"KG1": {"distance": 1, "rank": 33, "pace": 286000000000, "time": 372.0}}, "weekday": "wednesday", "livingplace": "La Sagne"}}, "location": "Les Ponts-de-Martel"}}, "birth": 2004}