{"name": "Jeannier Olivier", "sex": "M", "races": {"Sierre-Zinal, Sierre": {"latitude": 46.29413110000001, "longitude": 7.533536199999999, "race": "Sierre-Zinal, Sierre", "date": {"dim. 09.08.2015": {"year": 2015, "day": 9, "month": 8, "categories": {"V\u00e9t_I": {"distance": 31, "rank": 75, "pace": 461000000000, "time": 14316.3}}, "weekday": "sunday", "livingplace": "Les Gras"}}, "location": "Sierre"}, "20km de Lausanne": {"latitude": 46.5196535, "longitude": 6.6322734, "race": "20km de Lausanne", "date": {"sam. 30.04.2011": {"year": 2011, "day": 30, "month": 4, "categories": {"10-H40": {"distance": 10, "rank": 24, "pace": 243000000000, "time": 2439.0}}, "weekday": "saturday", "livingplace": "Tourisme Pour Tous"}, "sam. 25.04.2015": {"year": 2015, "day": 25, "month": 4, "categories": {"10-H40": {"distance": 10, "rank": 28, "pace": 250000000000, "time": 2509.8}}, "weekday": "saturday", "livingplace": "Tpt 10"}, "sam. 26.04.2014": {"year": 2014, "day": 26, "month": 4, "categories": {"10-H40": {"distance": 10, "rank": 412, "pace": 350000000000, "time": 3501.9}}, "weekday": "saturday", "livingplace": "Lausanne"}}, "location": "Lausanne"}, "Morat-Fribourg": {"latitude": 46.92922110000001, "longitude": 7.120184, "race": "Morat-Fribourg", "date": {"sam. 05.10.2013": {"year": 2013, "day": 5, "month": 10, "categories": {"17-M40": {"distance": 17, "rank": 95, "pace": 260000000000, "time": 4549.9}}, "weekday": "saturday", "livingplace": "Les Gras"}}, "location": "Murten"}, "Les Traine-Savates, Cheseaux-sur-Lausanne": {"latitude": 46.585452, "longitude": 6.6047712, "race": "Les Traine-Savates, Cheseaux-sur-Lausanne", "date": {"sam. 18.04.2015": {"year": 2015, "day": 18, "month": 4, "categories": {"10-M40": {"distance": 10, "rank": 35, "pace": 249000000000, "time": 2573.3}}, "weekday": "saturday", "livingplace": "Lausanne"}}, "location": "Cheseaux-sur-Lausanne"}, "La Trotteuse-Tissot, La Chaux-de-Fonds": {"latitude": 47.1034892, "longitude": 6.832783800000001, "race": "La Trotteuse-Tissot, La Chaux-de-Fonds", "date": {"sam. 12.12.2015": {"year": 2015, "day": 12, "month": 12, "categories": {"GC-H40": {"distance": 8, "rank": 40, "pace": 253000000000, "time": 2024.9}}, "weekday": "saturday", "livingplace": "Les Gras"}}, "location": "La Chaux-de-Fonds"}}, "birth": 1971}