{"name": "Jean Mich\u00e8le", "sex": "F", "races": {"Tour du Chablais #1 Roche": {"latitude": 46.2957462, "longitude": 6.9916269, "race": "Tour du Chablais #1 Roche", "date": {"mer. 03.04.2013": {"year": 2013, "day": 3, "month": 4, "categories": {"F-F20": {"distance": 9, "rank": 52, "pace": 306000000000, "time": 2718.7}}, "weekday": "wednesday", "livingplace": "Chexbres"}}, "location": "Ollon VD"}, "Tour du Chablais #4 Morgins": {"latitude": NaN, "longitude": NaN, "race": "Tour du Chablais #4 Morgins", "date": {"mer. 18.05.2011": {"year": 2011, "day": 18, "month": 5, "categories": {"F-F20": {"distance": 8, "rank": 66, "pace": 348000000000, "time": 2907.9}}, "weekday": "wednesday", "livingplace": "Chexbres"}}, "location": "Les Mosses"}, "20km de Lausanne": {"latitude": 46.5196535, "longitude": 6.6322734, "race": "20km de Lausanne", "date": {"sam. 24.04.2010": {"year": 2010, "day": 24, "month": 4, "categories": {"10-F30": {"distance": 10, "rank": 146, "pace": 333000000000, "time": 3336.5}}, "weekday": "saturday", "livingplace": "Ton toubib se bouge"}}, "location": "Lausanne"}, "Tour du Chablais #1 Lavey": {"latitude": 46.2957462, "longitude": 6.9916269, "race": "Tour du Chablais #1 Lavey", "date": {"mer. 27.04.2011": {"year": 2011, "day": 27, "month": 4, "categories": {"F-F20": {"distance": 9, "rank": 54, "pace": 326000000000, "time": 2937.1}}, "weekday": "wednesday", "livingplace": "Chexbres"}}, "location": "Ollon VD"}, "Tour du Chablais #2 Bex": {"latitude": 46.3835529, "longitude": 6.854975199999999, "race": "Tour du Chablais #2 Bex", "date": {"mer. 18.04.2012": {"year": 2012, "day": 18, "month": 4, "categories": {"F-F20": {"distance": 8, "rank": 61, "pace": 318000000000, "time": 2550.5}}, "weekday": "wednesday", "livingplace": "Chexbres"}}, "location": "Bouveret"}, "Tour du Chablais #5 Bex": {"latitude": 46.3603257, "longitude": 6.931504599999999, "race": "Tour du Chablais #5 Bex", "date": {"mer. 09.05.2012": {"year": 2012, "day": 9, "month": 5, "categories": {"F-F20": {"distance": 9, "rank": 43, "pace": 302000000000, "time": 2682.8}}, "weekday": "wednesday", "livingplace": "Chexbres"}}, "location": "Roche VD"}, "Tour du Chablais #4 Champ\u00e9ry": {"latitude": NaN, "longitude": NaN, "race": "Tour du Chablais #4 Champ\u00e9ry", "date": {"mer. 02.05.2012": {"year": 2012, "day": 2, "month": 5, "categories": {"F-F20": {"distance": 8, "rank": 41, "pace": 304000000000, "time": 2527.5}}, "weekday": "wednesday", "livingplace": "Chexbres"}}, "location": "Les Mosses"}, "Tour du Chablais #1 Montreux": {"latitude": 46.2957462, "longitude": 6.9916269, "race": "Tour du Chablais #1 Montreux", "date": {"mer. 11.04.2012": {"year": 2012, "day": 11, "month": 4, "categories": {"F-F20": {"distance": 8, "rank": 40, "pace": 317000000000, "time": 2412.6}}, "weekday": "wednesday", "livingplace": "Chexbres"}}, "location": "Ollon VD"}, "Tour du Chablais #3 Collombey-Muraz": {"latitude": 46.1782231, "longitude": 7.0223787, "race": "Tour du Chablais #3 Collombey-Muraz", "date": {"mer. 25.04.2012": {"year": 2012, "day": 25, "month": 4, "categories": {"F-F20": {"distance": 9, "rank": 32, "pace": 293000000000, "time": 2635.0}}, "weekday": "wednesday", "livingplace": "Chexbres"}}, "location": "Evionnaz"}, "Tour du Chablais #6 Aigle": {"latitude": 46.3190253, "longitude": 6.970566, "race": "Tour du Chablais #6 Aigle", "date": {"mer. 01.06.2011": {"year": 2011, "day": 1, "month": 6, "categories": {"F-F20": {"distance": 10, "rank": 82, "pace": 322000000000, "time": 3293.3}}, "weekday": "wednesday", "livingplace": "Chexbres"}}, "location": "Aigle"}, "Gurtenclassic, Wabern": {"latitude": 46.92901639999999, "longitude": 7.448973199999999, "race": "Gurtenclassic, Wabern", "date": {"dim. 01.11.2009": {"year": 2009, "day": 1, "month": 11, "categories": {"KW20": {"distance": 8, "rank": 53, "pace": 399000000000, "time": 3352.8}}, "weekday": "sunday", "livingplace": "Jongny"}}, "location": "Wabern"}, "Kerzerslauf": {"latitude": 46.97488999999999, "longitude": 7.1954365, "race": "Kerzerslauf", "date": {"sam. 19.03.2011": {"year": 2011, "day": 19, "month": 3, "categories": {"15-F20": {"distance": 15, "rank": 151, "pace": 336000000000, "time": 5047.4}}, "weekday": "saturday", "livingplace": "Chexbres"}}, "location": "Kerzers"}, "Tour du Chablais #6 Montreux": {"latitude": 46.3190253, "longitude": 6.970566, "race": "Tour du Chablais #6 Montreux", "date": {"mer. 16.05.2012": {"year": 2012, "day": 16, "month": 5, "categories": {"F-F20": {"distance": 9, "rank": 30, "pace": 291000000000, "time": 2694.6}}, "weekday": "wednesday", "livingplace": "Chexbres"}}, "location": "Aigle"}}, "birth": 1977}