{"name": "Jeanneret Michael", "sex": "M", "races": {"Tour du pays de Vaud #6 - St  Prex": {"latitude": 46.4829113, "longitude": 6.458343500000001, "race": "Tour du pays de Vaud #6 - St  Prex", "date": {"mer. 14.09.2011": {"year": 2011, "day": 14, "month": 9, "categories": {"H-Sen1": {"distance": 9, "rank": 175, "pace": 350000000000, "time": 3016.3}}, "weekday": "wednesday", "livingplace": "La Sarraz"}}, "location": "St-Prex"}, "Tour du pays de Vaud #1 - Mezi\u00e8res": {"latitude": 46.7784736, "longitude": 6.641183, "race": "Tour du pays de Vaud #1 - Mezi\u00e8res", "date": {"mer. 10.08.2011": {"year": 2011, "day": 10, "month": 8, "categories": {"H-Sen1": {"distance": 9, "rank": 143, "pace": 352000000000, "time": 2994.4}}, "weekday": "wednesday", "livingplace": "La Sarraz"}}, "location": "Yverdon-les-Bains"}, "Tour du Pays de Vaud #3 - Mezi\u00e8res": {"latitude": 46.7784736, "longitude": 6.641183, "race": "Tour du Pays de Vaud #3 - Mezi\u00e8res", "date": {"mer. 22.08.2012": {"year": 2012, "day": 22, "month": 8, "categories": {"H-Sen1": {"distance": 8, "rank": 127, "pace": 336000000000, "time": 2827.6}}, "weekday": "wednesday", "livingplace": "La Sarraz"}}, "location": "Yverdon-les-Bains"}, "Tour du pays de Vaud #1 - Penthaz": {"latitude": 46.5993131, "longitude": 6.539251200000001, "race": "Tour du pays de Vaud #1 - Penthaz", "date": {"mer. 14.08.2013": {"year": 2013, "day": 14, "month": 8, "categories": {"H-Sen1": {"distance": 9, "rank": 132, "pace": 318000000000, "time": 2718.4}}, "weekday": "wednesday", "livingplace": "La Sarraz"}, "mer. 08.08.2012": {"year": 2012, "day": 8, "month": 8, "categories": {"H-Sen1": {"distance": 9, "rank": 147, "pace": 327000000000, "time": 2792.7}}, "weekday": "wednesday", "livingplace": "La Sarraz"}}, "location": "Penthaz"}, "Tour du Pays de Vaud #2 - Mezi\u00e8res": {"latitude": 46.5955273, "longitude": 6.7702883, "race": "Tour du Pays de Vaud #2 - Mezi\u00e8res", "date": {"mer. 21.08.2013": {"year": 2013, "day": 21, "month": 8, "categories": {"H-Sen1": {"distance": 8, "rank": 114, "pace": 337000000000, "time": 2730.4}}, "weekday": "wednesday", "livingplace": "La Sarraz"}}, "location": "M\u00e9zi\u00e8res VD"}, "Aletsch-Halbmarathon, Bettmeralp": {"latitude": NaN, "longitude": NaN, "race": "Aletsch-Halbmarathon, Bettmeralp", "date": {"dim. 24.06.2012": {"year": 2012, "day": 24, "month": 6, "categories": {"M30": {"distance": 21, "rank": 343, "pace": 534000000000, "time": 11335.2}}, "weekday": "sunday", "livingplace": "La Sarraz"}}, "location": "Bettmeralp"}, "Kerzerslauf": {"latitude": 46.97488999999999, "longitude": 7.1954365, "race": "Kerzerslauf", "date": {"sam. 17.03.2012": {"year": 2012, "day": 17, "month": 3, "categories": {"15-M20": {"distance": 15, "rank": 546, "pace": 352000000000, "time": 5294.7}}, "weekday": "saturday", "livingplace": "La Sarraz"}}, "location": "Kerzers"}, "Tour du Pays de Vaud #3 - Chavornay": {"latitude": 46.7784736, "longitude": 6.641183, "race": "Tour du Pays de Vaud #3 - Chavornay", "date": {"mer. 28.08.2013": {"year": 2013, "day": 28, "month": 8, "categories": {"H-Sen1": {"distance": 9, "rank": 135, "pace": 325000000000, "time": 2898.1}}, "weekday": "wednesday", "livingplace": "La Sarraz"}}, "location": "Yverdon-les-Bains"}, "Lausanne Marathon": {"latitude": 46.5196535, "longitude": 6.6322734, "race": "Lausanne Marathon", "date": {"dim. 30.10.2011": {"year": 2011, "day": 30, "month": 10, "categories": {"10-H2": {"distance": 10, "rank": 408, "pace": 328000000000, "time": 3280.6}}, "weekday": "sunday", "livingplace": "La Sarraz"}, "dim. 28.10.2012": {"year": 2012, "day": 28, "month": 10, "categories": {"21-H2": {"distance": 21, "rank": 509, "pace": 309000000000, "time": 6531.8}}, "weekday": "sunday", "livingplace": "La Sarraz"}}, "location": "Lausanne"}, "Morat-Fribourg": {"latitude": 46.92922110000001, "longitude": 7.120184, "race": "Morat-Fribourg", "date": {"sam. 06.10.2012": {"year": 2012, "day": 6, "month": 10, "categories": {"17-M20": {"distance": 17, "rank": 1714, "pace": 351000000000, "time": 6137.4}}, "weekday": "saturday", "livingplace": "La Sarraz"}}, "location": "Murten"}, "Tour du Pays de Vaud #4 - La Sarraz": {"latitude": 46.7088129, "longitude": 6.5707689, "race": "Tour du Pays de Vaud #4 - La Sarraz", "date": {"mer. 29.08.2012": {"year": 2012, "day": 29, "month": 8, "categories": {"H-Sen1": {"distance": 9, "rank": 123, "pace": 297000000000, "time": 2529.4}}, "weekday": "wednesday", "livingplace": "La Sarraz"}}, "location": "Chavornay"}, "20km de Lausanne": {"latitude": 46.5196535, "longitude": 6.6322734, "race": "20km de Lausanne", "date": {"sam. 27.04.2013": {"year": 2013, "day": 27, "month": 4, "categories": {"10-H30": {"distance": 10, "rank": 576, "pace": 303000000000, "time": 3036.8}}, "weekday": "saturday", "livingplace": "Matisa 2"}, "sam. 28.04.2012": {"year": 2012, "day": 28, "month": 4, "categories": {"10-H30": {"distance": 10, "rank": 693, "pace": 336000000000, "time": 3366.4}}, "weekday": "saturday", "livingplace": "Matisa 2"}, "sam. 25.04.2015": {"year": 2015, "day": 25, "month": 4, "categories": {"10-H30": {"distance": 10, "rank": 552, "pace": 306000000000, "time": 3063.3}}, "weekday": "saturday", "livingplace": "Matisa 2"}}, "location": "Lausanne"}}, "birth": 1980}