{"name": "Jeger Marianne", "sex": "F", "races": {"Derendinger Abendlauf, Derendingen": {"latitude": 47.1952433, "longitude": 7.585593099999999, "race": "Derendinger Abendlauf, Derendingen", "date": {"ven. 25.06.2010": {"year": 2010, "day": 25, "month": 6, "categories": {"VLF": {"distance": 5, "rank": 3, "pace": 272000000000, "time": 1469.6}}, "weekday": "friday", "livingplace": "Solothurn"}}, "location": "Derendingen"}, "Stralugano, Lugano": {"latitude": 46.0036778, "longitude": 8.951051999999999, "race": "Stralugano, Lugano", "date": {"dim. 30.09.2012": {"year": 2012, "day": 30, "month": 9, "categories": {"30-W45": {"distance": 30, "rank": 14, "pace": 318000000000, "time": 9559.9}}, "weekday": "sunday", "livingplace": "Solothurn"}}, "location": "Lugano"}, "IWB Basel Marathon": {"latitude": 47.5595986, "longitude": 7.5885761, "race": "IWB Basel Marathon", "date": {"dim. 23.09.2012": {"year": 2012, "day": 23, "month": 9, "categories": {"H-21-F55": {"distance": 21, "rank": 1, "pace": 289000000000, "time": 6099.8}}, "weekday": "sunday", "livingplace": "Solothurn"}}, "location": "Basel"}, "Jungfrau-Marathon, Interlaken": {"latitude": NaN, "longitude": NaN, "race": "Jungfrau-Marathon, Interlaken", "date": {"sam. 01.09.2001": {"year": 2001, "day": 1, "month": 9, "categories": {"F45": {"distance": 42, "rank": 7, "pace": 398000000000, "time": 16808.7}}, "weekday": "saturday", "livingplace": "Solothurn"}}, "location": "Interlaken"}, "Basler Stadtlauf": {"latitude": 47.5595986, "longitude": 7.5885761, "race": "Basler Stadtlauf", "date": {"sam. 24.11.2012": {"year": 2012, "day": 24, "month": 11, "categories": {"F55": {"distance": 6, "rank": 2, "pace": 271000000000, "time": 1494.8}}, "weekday": "saturday", "livingplace": "Solothurn"}}, "location": "Basel"}, "Gurtenclassic, Wabern": {"latitude": 46.92901639999999, "longitude": 7.448973199999999, "race": "Gurtenclassic, Wabern", "date": {"dim. 01.11.2009": {"year": 2009, "day": 1, "month": 11, "categories": {"W50": {"distance": 15, "rank": 4, "pace": 312000000000, "time": 4684.9}}, "weekday": "sunday", "livingplace": "Solothurn"}, "dim. 05.11.2006": {"year": 2006, "day": 5, "month": 11, "categories": {"W50": {"distance": 15, "rank": 2, "pace": 297000000000, "time": 4466.3}}, "weekday": "sunday", "livingplace": "Solothurn"}}, "location": "Wabern"}, "Gempenlauf, Dornach": {"latitude": 47.4790491, "longitude": 7.6170412, "race": "Gempenlauf, Dornach", "date": {"mer. 04.06.2008": {"year": 2008, "day": 4, "month": 6, "categories": {"F50": {"distance": 8, "rank": 2, "pace": 314000000000, "time": 2453.5}}, "weekday": "wednesday", "livingplace": "Jura Top Tour"}}, "location": "Dornach"}, "Int Greifenseelauf, Uster": {"latitude": 47.3482747, "longitude": 8.717873899999999, "race": "Int Greifenseelauf, Uster", "date": {"sam. 20.09.2003": {"year": 2003, "day": 20, "month": 9, "categories": {"H/W45": {"distance": 21, "rank": 6, "pace": 284000000000, "time": 6001.5}}, "weekday": "saturday", "livingplace": "Solothurn"}, "sam. 17.09.2005": {"year": 2005, "day": 17, "month": 9, "categories": {"H/W45": {"distance": 21, "rank": 4, "pace": 268000000000, "time": 5656.0}}, "weekday": "saturday", "livingplace": "Solothurn"}, "sam. 18.09.2004": {"year": 2004, "day": 18, "month": 9, "categories": {"H/W45": {"distance": 21, "rank": 5, "pace": 281000000000, "time": 5946.9}}, "weekday": "saturday", "livingplace": "Solothurn"}}, "location": "Uster"}}, "birth": 1956}