{"name": "Jenni Philipp", "sex": "M", "races": {"Pfingstlauf Wohlen AG": {"latitude": 47.3493653, "longitude": 8.2768762, "race": "Pfingstlauf Wohlen AG", "date": {"sam. 10.05.2008": {"year": 2008, "day": 10, "month": 5, "categories": {"M30": {"distance": 8, "rank": 36, "pace": 301000000000, "time": 2474.2}}, "weekday": "saturday", "livingplace": "Baden"}}, "location": "Wohlen AG"}, "ASICS Bremgarter Reusslauf": {"latitude": 47.34917739999999, "longitude": 8.3397905, "race": "ASICS Bremgarter Reusslauf", "date": {"sam. 23.02.2008": {"year": 2008, "day": 23, "month": 2, "categories": {"M30": {"distance": 11, "rank": 284, "pace": 299000000000, "time": 3289.5}}, "weekday": "saturday", "livingplace": "Baden"}}, "location": "Bremgarten AG"}, "Badener Limmat-Lauf, Baden": {"latitude": 48.5699281, "longitude": 8.5303972, "race": "Badener Limmat-Lauf, Baden", "date": {"sam. 27.03.2010": {"year": 2010, "day": 27, "month": 3, "categories": {"M30": {"distance": 13, "rank": 92, "pace": 311000000000, "time": 4105.2}}, "weekday": "saturday", "livingplace": "Ennetbaden"}}, "location": "Baden"}, "Kerzerslauf": {"latitude": 46.97488999999999, "longitude": 7.1954365, "race": "Kerzerslauf", "date": {"sam. 20.03.2010": {"year": 2010, "day": 20, "month": 3, "categories": {"15-M35": {"distance": 15, "rank": 367, "pace": 327000000000, "time": 4910.6}}, "weekday": "saturday", "livingplace": "Ennetbaden"}}, "location": "Kerzers"}, "Bieler Lauftage, Biel Bienne": {"latitude": 47.1367785, "longitude": 7.2467909, "race": "Bieler Lauftage, Biel Bienne", "date": {"ven. 13.06.2008": {"year": 2008, "day": 13, "month": 6, "categories": {"H/M35": {"distance": 21, "rank": 21, "pace": 327000000000, "time": 6905.1}}, "weekday": "friday", "livingplace": "Baden"}}, "location": "Biel/Bienne"}, "GP Fricktal, Eiken": {"latitude": NaN, "longitude": NaN, "race": "GP Fricktal, Eiken", "date": {"sam. 03.04.2010": {"year": 2010, "day": 3, "month": 4, "categories": {"M30": {"distance": 16, "rank": 78, "pace": 325000000000, "time": 5233.2}}, "weekday": "saturday", "livingplace": "Ennetbaden"}}, "location": "Eiken"}}, "birth": 1972}