{"name": "Jermann Sandra", "sex": "F", "races": {"Bl\u00fcemlisalp-Lauf, Reichenbach": {"latitude": 46.6254387, "longitude": 7.6940529, "race": "Bl\u00fcemlisalp-Lauf, Reichenbach", "date": {"dim. 29.05.2011": {"year": 2011, "day": 29, "month": 5, "categories": {"F20": {"distance": 16, "rank": 13, "pace": 441000000000, "time": 7102.7}}, "weekday": "sunday", "livingplace": "Lsvb"}}, "location": "Reichenbach im Kandertal"}, "Lucerne Marathon, Luzern": {"latitude": 47.05016819999999, "longitude": 8.3093072, "race": "Lucerne Marathon, Luzern", "date": {"dim. 30.10.2011": {"year": 2011, "day": 30, "month": 10, "categories": {"H-F20": {"distance": 21, "rank": 64, "pace": 300000000000, "time": 6336.4}}, "weekday": "sunday", "livingplace": "Basel"}}, "location": "Luzern"}, "IWB Basel Marathon": {"latitude": 47.5595986, "longitude": 7.5885761, "race": "IWB Basel Marathon", "date": {"dim. 11.09.2011": {"year": 2011, "day": 11, "month": 9, "categories": {"H-21-F20": {"distance": 21, "rank": 36, "pace": 355000000000, "time": 7493.6}}, "weekday": "sunday", "livingplace": "Basel"}}, "location": "Basel"}, "Schweizer Frauenlauf Bern": {"latitude": 46.9479739, "longitude": 7.4474468, "race": "Schweizer Frauenlauf Bern", "date": {"dim. 13.06.2010": {"year": 2010, "day": 13, "month": 6, "categories": {"10-W20": {"distance": 10, "rank": 165, "pace": 313000000000, "time": 3132.5}}, "weekday": "sunday", "livingplace": "Basel"}}, "location": "Bern"}, "Dreil\u00e4nder-Lauf, Basel": {"latitude": 47.5595986, "longitude": 7.5885761, "race": "Dreil\u00e4nder-Lauf, Basel", "date": {"dim. 16.05.2010": {"year": 2010, "day": 16, "month": 5, "categories": {"21F20": {"distance": 21, "rank": 26, "pace": 346000000000, "time": 7302.9}}, "weekday": "sunday", "livingplace": "Basel"}}, "location": "Basel"}, "Sempacherseelauf, Sursee": {"latitude": NaN, "longitude": NaN, "race": "Sempacherseelauf, Sursee", "date": {"sam. 08.05.2010": {"year": 2010, "day": 8, "month": 5, "categories": {"21F18": {"distance": 21, "rank": 36, "pace": 337000000000, "time": 7121.6}}, "weekday": "saturday", "livingplace": "Basel"}}, "location": "Sursee"}, "Gempenlauf, Dornach": {"latitude": 47.4790491, "longitude": 7.6170412, "race": "Gempenlauf, Dornach", "date": {"mer. 02.06.2010": {"year": 2010, "day": 2, "month": 6, "categories": {"F20": {"distance": 8, "rank": 35, "pace": 410000000000, "time": 3204.2}}, "weekday": "wednesday", "livingplace": "Basel"}, "mer. 08.06.2011": {"year": 2011, "day": 8, "month": 6, "categories": {"F20": {"distance": 8, "rank": 31, "pace": 390000000000, "time": 3049.0}}, "weekday": "wednesday", "livingplace": "Basel"}}, "location": "Dornach"}, "GP Fricktal, Eiken": {"latitude": NaN, "longitude": NaN, "race": "GP Fricktal, Eiken", "date": {"sam. 23.04.2011": {"year": 2011, "day": 23, "month": 4, "categories": {"F20": {"distance": 16, "rank": 8, "pace": 332000000000, "time": 5355.2}}, "weekday": "saturday", "livingplace": "Basel"}}, "location": "Eiken"}}, "birth": 1982}