{"name": "Jermann Val\u00e9rie", "sex": "F", "races": {"Tour du Chablais #2 Rennaz": {"latitude": 46.3835529, "longitude": 6.854975199999999, "race": "Tour du Chablais #2 Rennaz", "date": {"mer. 04.05.2011": {"year": 2011, "day": 4, "month": 5, "categories": {"F-F20": {"distance": 9, "rank": 112, "pace": 364000000000, "time": 3407.8}}, "weekday": "wednesday", "livingplace": "Verossaz"}}, "location": "Bouveret"}, "Morat-Fribourg": {"latitude": 46.92922110000001, "longitude": 7.120184, "race": "Morat-Fribourg", "date": {"sam. 04.10.2008": {"year": 2008, "day": 4, "month": 10, "categories": {"C-W20": {"distance": 17, "rank": 166, "pace": 330000000000, "time": 5680.0}}, "weekday": "saturday", "livingplace": "Verossaz"}}, "location": "Murten"}, "Tour du Chablais #3 Le Bouveret": {"latitude": 46.1782231, "longitude": 7.0223787, "race": "Tour du Chablais #3 Le Bouveret", "date": {"mer. 11.05.2011": {"year": 2011, "day": 11, "month": 5, "categories": {"F-F20": {"distance": 10, "rank": 122, "pace": 376000000000, "time": 3762.4}}, "weekday": "wednesday", "livingplace": "Verossaz"}}, "location": "Evionnaz"}, "Tour du Chablais #4 Morgins": {"latitude": NaN, "longitude": NaN, "race": "Tour du Chablais #4 Morgins", "date": {"mer. 18.05.2011": {"year": 2011, "day": 18, "month": 5, "categories": {"F-F20": {"distance": 8, "rank": 98, "pace": 376000000000, "time": 3141.9}}, "weekday": "wednesday", "livingplace": "Verossaz"}}, "location": "Les Mosses"}, "Schweizer Frauenlauf Bern": {"latitude": 46.9479739, "longitude": 7.4474468, "race": "Schweizer Frauenlauf Bern", "date": {"dim. 01.06.2008": {"year": 2008, "day": 1, "month": 6, "categories": {"W20-10": {"distance": 10, "rank": 220, "pace": 327000000000, "time": 3273.9}}, "weekday": "sunday", "livingplace": "Verossaz"}}, "location": "Bern"}, "20km de Lausanne": {"latitude": 46.5196535, "longitude": 6.6322734, "race": "20km de Lausanne", "date": {"sam. 30.04.2011": {"year": 2011, "day": 30, "month": 4, "categories": {"10-F20": {"distance": 10, "rank": 477, "pace": 377000000000, "time": 3774.9}}, "weekday": "saturday", "livingplace": "Verossaz"}, "sam. 24.04.2010": {"year": 2010, "day": 24, "month": 4, "categories": {"10-F20": {"distance": 10, "rank": 469, "pace": 396000000000, "time": 3965.1}}, "weekday": "saturday", "livingplace": "Verossaz"}}, "location": "Lausanne"}, "Tour du Chablais #1 Lavey": {"latitude": 46.2957462, "longitude": 6.9916269, "race": "Tour du Chablais #1 Lavey", "date": {"mer. 27.04.2011": {"year": 2011, "day": 27, "month": 4, "categories": {"F-F20": {"distance": 9, "rank": 106, "pace": 374000000000, "time": 3369.1}}, "weekday": "wednesday", "livingplace": "Verossaz"}}, "location": "Ollon VD"}, "Tour du Chablais #2 St-Gingolph": {"latitude": 46.3835529, "longitude": 6.854975199999999, "race": "Tour du Chablais #2 St-Gingolph", "date": {"mer. 14.04.2010": {"year": 2010, "day": 14, "month": 4, "categories": {"F-F20": {"distance": 8, "rank": 95, "pace": 398000000000, "time": 3329.5}}, "weekday": "wednesday", "livingplace": "Verossaz"}}, "location": "Bouveret"}, "Tour du Chablais #5 Bex": {"latitude": 46.3603257, "longitude": 6.931504599999999, "race": "Tour du Chablais #5 Bex", "date": {"mer. 09.05.2012": {"year": 2012, "day": 9, "month": 5, "categories": {"F-F20": {"distance": 9, "rank": 89, "pace": 349000000000, "time": 3093.5}}, "weekday": "wednesday", "livingplace": "Verossaz"}}, "location": "Roche VD"}, "Tour du Chablais #4 Champ\u00e9ry": {"latitude": NaN, "longitude": NaN, "race": "Tour du Chablais #4 Champ\u00e9ry", "date": {"mer. 02.05.2012": {"year": 2012, "day": 2, "month": 5, "categories": {"F-F20": {"distance": 8, "rank": 84, "pace": 338000000000, "time": 2807.5}}, "weekday": "wednesday", "livingplace": "Verossaz"}}, "location": "Les Mosses"}, "Tour du Chablais #1 Montreux": {"latitude": 46.2957462, "longitude": 6.9916269, "race": "Tour du Chablais #1 Montreux", "date": {"mer. 11.04.2012": {"year": 2012, "day": 11, "month": 4, "categories": {"F-F20": {"distance": 8, "rank": 103, "pace": 359000000000, "time": 2734.6}}, "weekday": "wednesday", "livingplace": "Verossaz"}}, "location": "Ollon VD"}, "Tour du Chablais #5 Les Mosses": {"latitude": 46.3603257, "longitude": 6.931504599999999, "race": "Tour du Chablais #5 Les Mosses", "date": {"mer. 25.05.2011": {"year": 2011, "day": 25, "month": 5, "categories": {"F-F20": {"distance": 8, "rank": 94, "pace": 387000000000, "time": 3100.1}}, "weekday": "wednesday", "livingplace": "Verossaz"}}, "location": "Roche VD"}, "Tour du Chablais #6 Aigle": {"latitude": 46.3190253, "longitude": 6.970566, "race": "Tour du Chablais #6 Aigle", "date": {"mer. 01.06.2011": {"year": 2011, "day": 1, "month": 6, "categories": {"F-F20": {"distance": 10, "rank": 119, "pace": 361000000000, "time": 3683.6}}, "weekday": "wednesday", "livingplace": "Verossaz"}}, "location": "Aigle"}, "Tour du Chablais #3 Bex": {"latitude": 46.1782231, "longitude": 7.0223787, "race": "Tour du Chablais #3 Bex", "date": {"mer. 21.04.2010": {"year": 2010, "day": 21, "month": 4, "categories": {"F-F20": {"distance": 10, "rank": 111, "pace": 378000000000, "time": 3782.4}}, "weekday": "wednesday", "livingplace": "Verossaz"}}, "location": "Evionnaz"}, "Tour du Chablais #2 Bex": {"latitude": 46.3835529, "longitude": 6.854975199999999, "race": "Tour du Chablais #2 Bex", "date": {"mer. 18.04.2012": {"year": 2012, "day": 18, "month": 4, "categories": {"F-F20": {"distance": 8, "rank": 103, "pace": 345000000000, "time": 2763.2}}, "weekday": "wednesday", "livingplace": "Verossaz"}}, "location": "Bouveret"}, "Tour du Chablais #3 Collombey-Muraz": {"latitude": 46.1782231, "longitude": 7.0223787, "race": "Tour du Chablais #3 Collombey-Muraz", "date": {"mer. 25.04.2012": {"year": 2012, "day": 25, "month": 4, "categories": {"F-F20": {"distance": 9, "rank": 105, "pace": 355000000000, "time": 3196.0}}, "weekday": "wednesday", "livingplace": "Verossaz"}}, "location": "Evionnaz"}, "Tour du Chablais #6 Montreux": {"latitude": 46.3190253, "longitude": 6.970566, "race": "Tour du Chablais #6 Montreux", "date": {"mer. 16.05.2012": {"year": 2012, "day": 16, "month": 5, "categories": {"F-F20": {"distance": 9, "rank": 99, "pace": 341000000000, "time": 3157.0}}, "weekday": "wednesday", "livingplace": "Verossaz"}}, "location": "Aigle"}}, "birth": 1982}