{"name": "Jimenez Steve", "sex": "M", "races": {"Tour du Chablais #1 Roche": {"latitude": 46.2957462, "longitude": 6.9916269, "race": "Tour du Chablais #1 Roche", "date": {"mer. 03.04.2013": {"year": 2013, "day": 3, "month": 4, "categories": {"M-M20": {"distance": 9, "rank": 208, "pace": 331000000000, "time": 2940.8}}, "weekday": "wednesday", "livingplace": "Le Tretien"}}, "location": "Ollon VD"}, "Tour du Chablais #6 Monthey": {"latitude": 46.3190253, "longitude": 6.970566, "race": "Tour du Chablais #6 Monthey", "date": {"mer. 08.05.2013": {"year": 2013, "day": 8, "month": 5, "categories": {"M-M20": {"distance": 9, "rank": 152, "pace": 292000000000, "time": 2728.2}}, "weekday": "wednesday", "livingplace": "Le Tretien"}}, "location": "Aigle"}, "Tour du Chablais #2 Yvorne": {"latitude": 46.3835529, "longitude": 6.854975199999999, "race": "Tour du Chablais #2 Yvorne", "date": {"mer. 10.04.2013": {"year": 2013, "day": 10, "month": 4, "categories": {"M-M20": {"distance": 8, "rank": 220, "pace": 361000000000, "time": 2889.1}}, "weekday": "wednesday", "livingplace": "Le Tretien"}}, "location": "Bouveret"}, "Tour du Chablais #1 Martigny": {"latitude": 46.2957462, "longitude": 6.9916269, "race": "Tour du Chablais #1 Martigny", "date": {"mer. 23.04.2014": {"year": 2014, "day": 23, "month": 4, "categories": {"M-M20": {"distance": 9, "rank": 223, "pace": 312000000000, "time": 2655.0}}, "weekday": "wednesday", "livingplace": "Le Tretien"}}, "location": "Ollon VD"}, "Tour du Chablais #5 Morgins": {"latitude": 46.3603257, "longitude": 6.931504599999999, "race": "Tour du Chablais #5 Morgins", "date": {"mer. 01.05.2013": {"year": 2013, "day": 1, "month": 5, "categories": {"M-M20": {"distance": 8, "rank": 175, "pace": 334000000000, "time": 2542.4}}, "weekday": "wednesday", "livingplace": "Le Tretien"}}, "location": "Roche VD"}, "Tour du Chablais #5 Bex": {"latitude": 46.3603257, "longitude": 6.931504599999999, "race": "Tour du Chablais #5 Bex", "date": {"mer. 09.05.2012": {"year": 2012, "day": 9, "month": 5, "categories": {"M-M20": {"distance": 9, "rank": 135, "pace": 296000000000, "time": 2630.6}}, "weekday": "wednesday", "livingplace": "Le Tretien"}}, "location": "Roche VD"}, "Tour du Chablais #4 Champ\u00e9ry": {"latitude": NaN, "longitude": NaN, "race": "Tour du Chablais #4 Champ\u00e9ry", "date": {"mer. 02.05.2012": {"year": 2012, "day": 2, "month": 5, "categories": {"M-M20": {"distance": 8, "rank": 160, "pace": 306000000000, "time": 2540.8}}, "weekday": "wednesday", "livingplace": "Le Tretien"}}, "location": "Les Mosses"}, "Tour du Chablais #5 Les Mosses": {"latitude": 46.3603257, "longitude": 6.931504599999999, "race": "Tour du Chablais #5 Les Mosses", "date": {"mer. 25.05.2011": {"year": 2011, "day": 25, "month": 5, "categories": {"M-M20": {"distance": 8, "rank": 207, "pace": 383000000000, "time": 3071.4}}, "weekday": "wednesday", "livingplace": "Le Tretien"}}, "location": "Roche VD"}, "Tour du Chablais #3 Collombey-Muraz": {"latitude": 46.1782231, "longitude": 7.0223787, "race": "Tour du Chablais #3 Collombey-Muraz", "date": {"mer. 25.04.2012": {"year": 2012, "day": 25, "month": 4, "categories": {"M-M20": {"distance": 9, "rank": 171, "pace": 313000000000, "time": 2815.4}}, "weekday": "wednesday", "livingplace": "Le Tretien"}}, "location": "Evionnaz"}, "Tour du Chablais #6 Aigle": {"latitude": 46.3190253, "longitude": 6.970566, "race": "Tour du Chablais #6 Aigle", "date": {"mer. 01.06.2011": {"year": 2011, "day": 1, "month": 6, "categories": {"M-M20": {"distance": 10, "rank": 219, "pace": 316000000000, "time": 3228.8}}, "weekday": "wednesday", "livingplace": "Le Tretien"}}, "location": "Aigle"}, "Tour du Chablais #4 St  Maurice": {"latitude": NaN, "longitude": NaN, "race": "Tour du Chablais #4 St  Maurice", "date": {"mer. 24.04.2013": {"year": 2013, "day": 24, "month": 4, "categories": {"M-M20": {"distance": 10, "rank": 185, "pace": 315000000000, "time": 3158.9}}, "weekday": "wednesday", "livingplace": "Le Tretien"}}, "location": "Les Mosses"}, "Tour du Chablais #2 Bex": {"latitude": 46.3835529, "longitude": 6.854975199999999, "race": "Tour du Chablais #2 Bex", "date": {"mer. 18.04.2012": {"year": 2012, "day": 18, "month": 4, "categories": {"M-M20": {"distance": 8, "rank": 188, "pace": 322000000000, "time": 2578.6}}, "weekday": "wednesday", "livingplace": "Le Tretien"}}, "location": "Bouveret"}, "Tour du Chablais #3 Bouveret": {"latitude": 46.1782231, "longitude": 7.0223787, "race": "Tour du Chablais #3 Bouveret", "date": {"mer. 17.04.2013": {"year": 2013, "day": 17, "month": 4, "categories": {"M-M20": {"distance": 10, "rank": 186, "pace": 322000000000, "time": 3227.1}}, "weekday": "wednesday", "livingplace": "Le Tretien"}}, "location": "Evionnaz"}, "Tour du Chablais #6 Montreux": {"latitude": 46.3190253, "longitude": 6.970566, "race": "Tour du Chablais #6 Montreux", "date": {"mer. 16.05.2012": {"year": 2012, "day": 16, "month": 5, "categories": {"M-M20": {"distance": 9, "rank": 174, "pace": 294000000000, "time": 2727.7}}, "weekday": "wednesday", "livingplace": "Le Tretien"}}, "location": "Aigle"}}, "birth": 1982}