{"name": "Jodidio Alex", "sex": "M", "races": {"Morat-Fribourg": {"latitude": 46.92922110000001, "longitude": 7.120184, "race": "Morat-Fribourg", "date": {"sam. 05.10.2013": {"year": 2013, "day": 5, "month": 10, "categories": {"17-M20": {"distance": 17, "rank": 13, "pace": 199000000000, "time": 3481.8}}, "weekday": "saturday", "livingplace": "Saviese"}}, "location": "Murten"}, "Steinh\u00f6lzlilauf, Liebefeld": {"latitude": 46.933331, "longitude": 7.416668, "race": "Steinh\u00f6lzlilauf, Liebefeld", "date": {"dim. 02.12.2012": {"year": 2012, "day": 2, "month": 12, "categories": {"L-HKM": {"distance": 11, "rank": 2, "pace": 200000000000, "time": 2109.5}}, "weekday": "sunday", "livingplace": "Schweiz"}}, "location": "Liebefeld"}, "20km de Lausanne": {"latitude": 46.5196535, "longitude": 6.6322734, "race": "20km de Lausanne", "date": {"sam. 28.04.2007": {"year": 2007, "day": 28, "month": 4, "categories": {"EspH": {"distance": 10, "rank": 6, "pace": 222000000000, "time": 2229.3}}, "weekday": "saturday", "livingplace": "Sport Attitude Scuderi"}}, "location": "Lausanne"}, "Tour du Chablais #5 Leysin": {"latitude": 46.3603257, "longitude": 6.931504599999999, "race": "Tour du Chablais #5 Leysin", "date": {"mer. 05.05.2010": {"year": 2010, "day": 5, "month": 5, "categories": {"M-M20": {"distance": 8, "rank": 3, "pace": 215000000000, "time": 1821.2}}, "weekday": "wednesday", "livingplace": "Grimentz"}}, "location": "Roche VD"}, "Kerzerslauf": {"latitude": 46.97488999999999, "longitude": 7.1954365, "race": "Kerzerslauf", "date": {"sam. 16.03.2013": {"year": 2013, "day": 16, "month": 3, "categories": {"5-M20": {"distance": 5, "rank": 2, "pace": 188000000000, "time": 941.6}}, "weekday": "saturday", "livingplace": "Grimentz"}}, "location": "Kerzers"}, "Internationaler Matterhornlauf, Zermatt": {"latitude": NaN, "longitude": NaN, "race": "Internationaler Matterhornlauf, Zermatt", "date": {"sam. 23.08.2008": {"year": 2008, "day": 23, "month": 8, "categories": {"MHL-MJun": {"distance": 12, "rank": 3, "pace": 338000000000, "time": 4233.2}}, "weekday": "saturday", "livingplace": "sport nature.ch"}, "sam. 18.08.2007": {"year": 2007, "day": 18, "month": 8, "categories": {"MHL/MJun": {"distance": 12, "rank": 5, "pace": 336000000000, "time": 4209.1}}, "weekday": "saturday", "livingplace": "sport nature.ch"}}, "location": "Zermatt"}}, "birth": 1990}