{"name": "Joggi Fr\u00e9d\u00e9ric", "sex": "M", "races": {"Tour du Chablais #2 Rennaz": {"latitude": 46.3835529, "longitude": 6.854975199999999, "race": "Tour du Chablais #2 Rennaz", "date": {"mer. 04.05.2011": {"year": 2011, "day": 4, "month": 5, "categories": {"M-M20": {"distance": 9, "rank": 159, "pace": 287000000000, "time": 2690.8}}, "weekday": "wednesday", "livingplace": "Blonay"}}, "location": "Bouveret"}, "Tour du Chablais #5 Les Mosses": {"latitude": 46.3603257, "longitude": 6.931504599999999, "race": "Tour du Chablais #5 Les Mosses", "date": {"mer. 25.05.2011": {"year": 2011, "day": 25, "month": 5, "categories": {"M-M20": {"distance": 8, "rank": 125, "pace": 297000000000, "time": 2378.8}}, "weekday": "wednesday", "livingplace": "Blonay"}}, "location": "Roche VD"}, "Tour du Chablais #3 Le Bouveret": {"latitude": 46.1782231, "longitude": 7.0223787, "race": "Tour du Chablais #3 Le Bouveret", "date": {"mer. 11.05.2011": {"year": 2011, "day": 11, "month": 5, "categories": {"M-M20": {"distance": 10, "rank": 160, "pace": 280000000000, "time": 2805.2}}, "weekday": "wednesday", "livingplace": "Blonay"}}, "location": "Evionnaz"}, "Tour du Chablais #6 Aigle": {"latitude": 46.3190253, "longitude": 6.970566, "race": "Tour du Chablais #6 Aigle", "date": {"mer. 01.06.2011": {"year": 2011, "day": 1, "month": 6, "categories": {"M-M20": {"distance": 10, "rank": 115, "pace": 260000000000, "time": 2658.4}}, "weekday": "wednesday", "livingplace": "Blonay"}}, "location": "Aigle"}, "20km de Lausanne": {"latitude": 46.5196535, "longitude": 6.6322734, "race": "20km de Lausanne", "date": {"sam. 28.04.2012": {"year": 2012, "day": 28, "month": 4, "categories": {"10-H30": {"distance": 10, "rank": 987, "pace": 402000000000, "time": 4020.9}}, "weekday": "saturday", "livingplace": "Blonay"}}, "location": "Lausanne"}, "Tour du Chablais #2 Bex": {"latitude": 46.3835529, "longitude": 6.854975199999999, "race": "Tour du Chablais #2 Bex", "date": {"mer. 18.04.2012": {"year": 2012, "day": 18, "month": 4, "categories": {"M-M20": {"distance": 8, "rank": 126, "pace": 280000000000, "time": 2247.5}}, "weekday": "wednesday", "livingplace": "Blonay"}}, "location": "Bouveret"}}, "birth": 1978}