{"name": "Jorrot Alexandra", "sex": "F", "races": {"Tour du Pays de Vaud #2 - Genolier": {"latitude": 46.5955273, "longitude": 6.7702883, "race": "Tour du Pays de Vaud #2 - Genolier", "date": {"mer. 15.08.2012": {"year": 2012, "day": 15, "month": 8, "categories": {"D-Sen2": {"distance": 9, "rank": 55, "pace": 365000000000, "time": 3105.9}}, "weekday": "wednesday", "livingplace": "Suisse"}}, "location": "M\u00e9zi\u00e8res VD"}, "Tour du Pays de Vaud printanier #2 Yverdon-les-Bains": {"latitude": 46.6698891, "longitude": 6.7975224, "race": "Tour du Pays de Vaud printanier #2 Yverdon-les-Bains", "date": {"mer. 11.06.2014": {"year": 2014, "day": 11, "month": 6, "categories": {"D-Sen2": {"distance": 9, "rank": 22, "pace": 426000000000, "time": 3877.8}}, "weekday": "wednesday", "livingplace": "Jougne"}}, "location": "Moudon"}, "Tour du pays de Vaud #6 - St  Prex": {"latitude": 46.4829113, "longitude": 6.458343500000001, "race": "Tour du pays de Vaud #6 - St  Prex", "date": {"mer. 14.09.2011": {"year": 2011, "day": 14, "month": 9, "categories": {"D-Sen2": {"distance": 9, "rank": 58, "pace": 350000000000, "time": 3013.1}}, "weekday": "wednesday", "livingplace": "Jougne"}}, "location": "St-Prex"}, "Tour du Pays de Vaud printanier #1 Chavornay": {"latitude": 46.3832683, "longitude": 6.2347852, "race": "Tour du Pays de Vaud printanier #1 Chavornay", "date": {"mer. 30.05.2012": {"year": 2012, "day": 30, "month": 5, "categories": {"D-Sen2": {"distance": 9, "rank": 29, "pace": 358000000000, "time": 3213.0}}, "weekday": "wednesday", "livingplace": "Jougne"}}, "location": "Nyon"}, "Tour du Pays de Vaud #3 - Mezi\u00e8res": {"latitude": 46.7784736, "longitude": 6.641183, "race": "Tour du Pays de Vaud #3 - Mezi\u00e8res", "date": {"mer. 22.08.2012": {"year": 2012, "day": 22, "month": 8, "categories": {"D-Sen2": {"distance": 8, "rank": 38, "pace": 384000000000, "time": 3232.6}}, "weekday": "wednesday", "livingplace": "Suisse"}}, "location": "Yverdon-les-Bains"}, "Tour du Pays de Vaud printanier #3 - Yens": {"latitude": 46.7829756, "longitude": 6.5728678, "race": "Tour du Pays de Vaud printanier #3 - Yens", "date": {"mer. 12.06.2013": {"year": 2013, "day": 12, "month": 6, "categories": {"D-Sen2": {"distance": 9, "rank": 40, "pace": 387000000000, "time": 3521.8}}, "weekday": "wednesday", "livingplace": "Jougne"}, "mer. 18.06.2014": {"year": 2014, "day": 18, "month": 6, "categories": {"D-Sen2": {"distance": 9, "rank": 29, "pace": 401000000000, "time": 3651.5}}, "weekday": "wednesday", "livingplace": "Jougne"}}, "location": "Champvent"}, "20km de Lausanne": {"latitude": 46.5196535, "longitude": 6.6322734, "race": "20km de Lausanne", "date": {"sam. 24.04.2010": {"year": 2010, "day": 24, "month": 4, "categories": {"10-F40": {"distance": 10, "rank": 286, "pace": 406000000000, "time": 4065.1}}, "weekday": "saturday", "livingplace": "Provimi Kliba Sa 1"}, "sam. 27.04.2013": {"year": 2013, "day": 27, "month": 4, "categories": {"20-F45": {"distance": 20, "rank": 65, "pace": 360000000000, "time": 7215.2}}, "weekday": "saturday", "livingplace": "Team Provimi Kliba"}, "sam. 28.04.2012": {"year": 2012, "day": 28, "month": 4, "categories": {"20-F45": {"distance": 20, "rank": 60, "pace": 374000000000, "time": 7494.9}}, "weekday": "saturday", "livingplace": "Team Provimi Kliba"}}, "location": "Lausanne"}, "Tour du Pays de Vaud #4 - La Sarraz": {"latitude": 46.7088129, "longitude": 6.5707689, "race": "Tour du Pays de Vaud #4 - La Sarraz", "date": {"mer. 29.08.2012": {"year": 2012, "day": 29, "month": 8, "categories": {"D-Sen2": {"distance": 9, "rank": 51, "pace": 345000000000, "time": 2938.7}}, "weekday": "wednesday", "livingplace": "Suisse"}}, "location": "Chavornay"}, "Tour du pays de Vaud #1 - Penthaz": {"latitude": 46.5993131, "longitude": 6.539251200000001, "race": "Tour du pays de Vaud #1 - Penthaz", "date": {"mer. 08.08.2012": {"year": 2012, "day": 8, "month": 8, "categories": {"D-Sen2": {"distance": 9, "rank": 45, "pace": 361000000000, "time": 3085.7}}, "weekday": "wednesday", "livingplace": "Suisse"}}, "location": "Penthaz"}, "Tour du Pays de Vaud printanier #2 Yens": {"latitude": 46.6698891, "longitude": 6.7975224, "race": "Tour du Pays de Vaud printanier #2 Yens", "date": {"mer. 06.06.2012": {"year": 2012, "day": 6, "month": 6, "categories": {"D-Sen2": {"distance": 9, "rank": 28, "pace": 346000000000, "time": 3148.6}}, "weekday": "wednesday", "livingplace": "Jougne"}}, "location": "Moudon"}}, "birth": 1966}