{"name": "Joss Nicole", "sex": "F", "races": {"Tour du Pays de Vaud printanier #3 - Yens": {"latitude": 46.7829756, "longitude": 6.5728678, "race": "Tour du Pays de Vaud printanier #3 - Yens", "date": {"mer. 12.06.2013": {"year": 2013, "day": 12, "month": 6, "categories": {"D-Sen2": {"distance": 9, "rank": 47, "pace": 404000000000, "time": 3676.7}}, "weekday": "wednesday", "livingplace": "Montricher"}}, "location": "Champvent"}, "Tour du Pays de Vaud #3 - Chavornay": {"latitude": 46.7784736, "longitude": 6.641183, "race": "Tour du Pays de Vaud #3 - Chavornay", "date": {"mer. 28.08.2013": {"year": 2013, "day": 28, "month": 8, "categories": {"D-Sen2": {"distance": 9, "rank": 75, "pace": 395000000000, "time": 3522.0}}, "weekday": "wednesday", "livingplace": "Montricher"}}, "location": "Yverdon-les-Bains"}, "Tour du Pays de Vaud #3 - Mezi\u00e8res": {"latitude": 46.7784736, "longitude": 6.641183, "race": "Tour du Pays de Vaud #3 - Mezi\u00e8res", "date": {"mer. 22.08.2012": {"year": 2012, "day": 22, "month": 8, "categories": {"D-Sen2": {"distance": 8, "rank": 73, "pace": 458000000000, "time": 3848.3}}, "weekday": "wednesday", "livingplace": "Montricher"}}, "location": "Yverdon-les-Bains"}, "Tour du pays de Vaud #1 - Penthaz": {"latitude": 46.5993131, "longitude": 6.539251200000001, "race": "Tour du pays de Vaud #1 - Penthaz", "date": {"mer. 08.08.2012": {"year": 2012, "day": 8, "month": 8, "categories": {"D-Sen2": {"distance": 9, "rank": 72, "pace": 432000000000, "time": 3690.2}}, "weekday": "wednesday", "livingplace": "Montricher"}}, "location": "Penthaz"}, "Tour du Pays de Vaud #4 - La Sarraz": {"latitude": 46.7088129, "longitude": 6.5707689, "race": "Tour du Pays de Vaud #4 - La Sarraz", "date": {"mer. 29.08.2012": {"year": 2012, "day": 29, "month": 8, "categories": {"D-Sen2": {"distance": 9, "rank": 83, "pace": 402000000000, "time": 3425.4}}, "weekday": "wednesday", "livingplace": "Montricher"}, "mer. 04.09.2013": {"year": 2013, "day": 4, "month": 9, "categories": {"D-Sen2": {"distance": 9, "rank": 68, "pace": 406000000000, "time": 3452.7}}, "weekday": "wednesday", "livingplace": "Montricher"}}, "location": "Chavornay"}, "Tour du Pays de Vaud printanier #2 Yens": {"latitude": 46.6698891, "longitude": 6.7975224, "race": "Tour du Pays de Vaud printanier #2 Yens", "date": {"mer. 06.06.2012": {"year": 2012, "day": 6, "month": 6, "categories": {"D-Sen2": {"distance": 9, "rank": 49, "pace": 418000000000, "time": 3807.3}}, "weekday": "wednesday", "livingplace": "Montricher"}}, "location": "Moudon"}}, "birth": 1972}