{"name": "Joye Aur\u00e9lien", "sex": "M", "races": {"Tour du Pays de Vaud printanier #2 Yverdon-les-Bains": {"latitude": 46.6698891, "longitude": 6.7975224, "race": "Tour du Pays de Vaud printanier #2 Yverdon-les-Bains", "date": {"mer. 11.06.2014": {"year": 2014, "day": 11, "month": 6, "categories": {"H-Jun": {"distance": 9, "rank": 8, "pace": 321000000000, "time": 2922.8}}, "weekday": "wednesday", "livingplace": "Gland"}}, "location": "Moudon"}, "Tour du Pays de Vaud printanier #1 Moudon": {"latitude": 46.3832683, "longitude": 6.2347852, "race": "Tour du Pays de Vaud printanier #1 Moudon", "date": {"mer. 04.06.2014": {"year": 2014, "day": 4, "month": 6, "categories": {"H-Jun": {"distance": 8, "rank": 5, "pace": 294000000000, "time": 2472.0}}, "weekday": "wednesday", "livingplace": "Gland"}}, "location": "Nyon"}, "Tour du Pays de Vaud #4 - La Sarraz": {"latitude": 46.7088129, "longitude": 6.5707689, "race": "Tour du Pays de Vaud #4 - La Sarraz", "date": {"mer. 04.09.2013": {"year": 2013, "day": 4, "month": 9, "categories": {"H-Jun": {"distance": 9, "rank": 13, "pace": 299000000000, "time": 2545.1}}, "weekday": "wednesday", "livingplace": "Gland"}}, "location": "Chavornay"}, "Tour du Pays de Vaud printanier #3 - Yens": {"latitude": 46.7829756, "longitude": 6.5728678, "race": "Tour du Pays de Vaud printanier #3 - Yens", "date": {"mer. 12.06.2013": {"year": 2013, "day": 12, "month": 6, "categories": {"H-Jun": {"distance": 9, "rank": 12, "pace": 328000000000, "time": 2992.3}}, "weekday": "wednesday", "livingplace": "Gland"}, "mer. 18.06.2014": {"year": 2014, "day": 18, "month": 6, "categories": {"H-Jun": {"distance": 9, "rank": 7, "pace": 278000000000, "time": 2536.6}}, "weekday": "wednesday", "livingplace": "Gland"}}, "location": "Champvent"}, "Semi-Marathon de la C\u00f4te, Allaman-Nyon": {"latitude": 46.3832683, "longitude": 6.2347852, "race": "Semi-Marathon de la C\u00f4te, Allaman-Nyon", "date": {"dim. 14.09.2014": {"year": 2014, "day": 14, "month": 9, "categories": {"21-JunM": {"distance": 21, "rank": 10, "pace": 333000000000, "time": 7030.3}}, "weekday": "sunday", "livingplace": "Gland"}}, "location": "Nyon"}, "Tour du Pays de Vaud etape 2 - Genolier": {"latitude": 46.5955273, "longitude": 6.7702883, "race": "Tour du Pays de Vaud etape 2 - Genolier", "date": {"mer. 19.08.2009": {"year": 2009, "day": 19, "month": 8, "categories": {"HJun": {"distance": 8, "rank": 18, "pace": 385000000000, "time": 3123.4}}, "weekday": "wednesday", "livingplace": "Gland"}}, "location": "M\u00e9zi\u00e8res VD"}, "Tour du Pays de Vaud #3 - Chavornay": {"latitude": 46.7784736, "longitude": 6.641183, "race": "Tour du Pays de Vaud #3 - Chavornay", "date": {"mer. 28.08.2013": {"year": 2013, "day": 28, "month": 8, "categories": {"H-Jun": {"distance": 9, "rank": 12, "pace": 296000000000, "time": 2642.9}}, "weekday": "wednesday", "livingplace": "Gland"}}, "location": "Yverdon-les-Bains"}, "Lausanne Marathon": {"latitude": 46.5196535, "longitude": 6.6322734, "race": "Lausanne Marathon", "date": {"dim. 31.10.2010": {"year": 2010, "day": 31, "month": 10, "categories": {"10-JG": {"distance": 10, "rank": 126, "pace": 314000000000, "time": 3148.4}}, "weekday": "sunday", "livingplace": "Gland"}, "dim. 30.10.2011": {"year": 2011, "day": 30, "month": 10, "categories": {"21-JunG": {"distance": 21, "rank": 73, "pace": 344000000000, "time": 7259.5}}, "weekday": "sunday", "livingplace": "Gland"}}, "location": "Lausanne"}, "Morat-Fribourg": {"latitude": 46.92922110000001, "longitude": 7.120184, "race": "Morat-Fribourg", "date": {"dim. 05.10.2003": {"year": 2003, "day": 5, "month": 10, "categories": {"EMC": {"distance": 1, "rank": 66, "pace": 329000000000, "time": 395.2}}, "weekday": "sunday", "livingplace": "Gland"}, "dim. 06.10.2002": {"year": 2002, "day": 6, "month": 10, "categories": {"EMC": {"distance": 1, "rank": 107, "pace": 422000000000, "time": 506.8}}, "weekday": "sunday", "livingplace": "Gland"}}, "location": "Murten"}, "Tour du pays de Vaud #1 - Penthaz": {"latitude": 46.5993131, "longitude": 6.539251200000001, "race": "Tour du pays de Vaud #1 - Penthaz", "date": {"mer. 14.08.2013": {"year": 2013, "day": 14, "month": 8, "categories": {"H-Jun": {"distance": 9, "rank": 16, "pace": 321000000000, "time": 2740.9}}, "weekday": "wednesday", "livingplace": "Gland"}}, "location": "Penthaz"}, "Tour du Pays de Vaud #2 - Mezi\u00e8res": {"latitude": 46.5955273, "longitude": 6.7702883, "race": "Tour du Pays de Vaud #2 - Mezi\u00e8res", "date": {"mer. 21.08.2013": {"year": 2013, "day": 21, "month": 8, "categories": {"H-Jun": {"distance": 8, "rank": 10, "pace": 326000000000, "time": 2648.0}}, "weekday": "wednesday", "livingplace": "Gland"}}, "location": "M\u00e9zi\u00e8res VD"}}, "birth": 1995}