{"name": "Junker Jean-Louis", "sex": "M", "races": {"Thuner Stadtlauf, Thun": {"latitude": 46.7579868, "longitude": 7.6279881, "race": "Thuner Stadtlauf, Thun", "date": {"dim. 24.08.2014": {"year": 2014, "day": 24, "month": 8, "categories": {"10-M70": {"distance": 11, "rank": 4, "pace": 319000000000, "time": 3431.1}}, "weekday": "sunday", "livingplace": "Boudry"}}, "location": "Thun"}, "Morat-Fribourg": {"latitude": 46.92922110000001, "longitude": 7.120184, "race": "Morat-Fribourg", "date": {"sam. 03.10.2009": {"year": 2009, "day": 3, "month": 10, "categories": {"C-M65": {"distance": 17, "rank": 5, "pace": 283000000000, "time": 4872.2}}, "weekday": "saturday", "livingplace": "Boudry"}}, "location": "Murten"}, "BCN Tour Neuch\u00e2tel": {"latitude": 46.9899874, "longitude": 6.9292732, "race": "BCN Tour Neuch\u00e2tel", "date": {"mer. 26.05.2010": {"year": 2010, "day": 26, "month": 5, "categories": {"HV2": {"distance": 10, "rank": 4, "pace": 329000000000, "time": 3192.9}}, "weekday": "wednesday", "livingplace": "Boudry"}}, "location": "Neuch\u00e2tel"}, "BCN Tour M\u00f4tier": {"latitude": 46.9262933, "longitude": 6.6324944, "race": "BCN Tour M\u00f4tier", "date": {"mer. 19.05.2010": {"year": 2010, "day": 19, "month": 5, "categories": {"HV2": {"distance": 10, "rank": 4, "pace": 284000000000, "time": 2820.1}}, "weekday": "wednesday", "livingplace": "Boudry"}}, "location": "Couvet"}, "BCN Tour Le Locle": {"latitude": 46.999113, "longitude": 6.733554799999999, "race": "BCN Tour Le Locle", "date": {"mer. 05.05.2010": {"year": 2010, "day": 5, "month": 5, "categories": {"HV2": {"distance": 11, "rank": 6, "pace": 293000000000, "time": 3200.3}}, "weekday": "wednesday", "livingplace": "Boudry"}}, "location": "Les Ponts-de-Martel"}, "BCN Tour Ponts-de-Martel": {"latitude": 47.0624261, "longitude": 6.9175754, "race": "BCN Tour Ponts-de-Martel", "date": {"mer. 28.04.2010": {"year": 2010, "day": 28, "month": 4, "categories": {"HV2": {"distance": 11, "rank": 8, "pace": 308000000000, "time": 3456.5}}, "weekday": "wednesday", "livingplace": "Boudry"}}, "location": "Ch\u00e9zard-St-Martin"}, "BCN Tour La Chaux-de-fonds": {"latitude": 47.1034892, "longitude": 6.832783800000001, "race": "BCN Tour La Chaux-de-fonds", "date": {"mer. 12.05.2010": {"year": 2010, "day": 12, "month": 5, "categories": {"HV2": {"distance": 11, "rank": 10, "pace": 375000000000, "time": 4017.9}}, "weekday": "wednesday", "livingplace": "Boudry"}}, "location": "La Chaux-de-Fonds"}, "BCN Tour Colombier": {"latitude": 46.9668714, "longitude": 6.8589727, "race": "BCN Tour Colombier", "date": {"mer. 21.04.2010": {"year": 2010, "day": 21, "month": 4, "categories": {"HV2": {"distance": 10, "rank": 10, "pace": 324000000000, "time": 3243.6}}, "weekday": "wednesday", "livingplace": "Boudry"}}, "location": "Colombier NE"}, "10km de Payerne": {"latitude": 46.8220266, "longitude": 6.9405663, "race": "10km de Payerne", "date": {"sam. 27.03.2010": {"year": 2010, "day": 27, "month": 3, "categories": {"M65": {"distance": 10, "rank": 5, "pace": 271000000000, "time": 2716.5}}, "weekday": "saturday", "livingplace": "Boudry"}}, "location": "Payerne"}}, "birth": 1944}