{"name": "Junk Matthieu", "sex": "M", "races": {"A travers Carouge - Run to Run": {"latitude": 46.1829674, "longitude": 6.1378539, "race": "A travers Carouge - Run to Run", "date": {"sam. 26.09.2009": {"year": 2009, "day": 26, "month": 9, "categories": {"HI/10": {"distance": 10, "rank": 263, "pace": 337000000000, "time": 3376.7}}, "weekday": "saturday", "livingplace": "Cranves Sales"}}, "location": "Carouge GE"}, "Lausanne Marathon": {"latitude": 46.5196535, "longitude": 6.6322734, "race": "Lausanne Marathon", "date": {"dim. 27.10.2013": {"year": 2013, "day": 27, "month": 10, "categories": {"42-H2": {"distance": 42, "rank": 222, "pace": 344000000000, "time": 14544.9}}, "weekday": "sunday", "livingplace": "Geneve"}}, "location": "Lausanne"}, "Course de l'Escalade, Gen\u00e8ve": {"latitude": 46.2043907, "longitude": 6.1431577, "race": "Course de l'Escalade, Gen\u00e8ve", "date": {"sam. 06.12.2014": {"year": 2014, "day": 6, "month": 12, "categories": {"Esc-Hom2": {"distance": 7, "rank": 474, "pace": 271000000000, "time": 1988.2}}, "weekday": "saturday", "livingplace": "Geneve"}}, "location": "Gen\u00e8ve"}, "Tour de Presinge": {"latitude": 46.21860299999999, "longitude": 6.2535283, "race": "Tour de Presinge", "date": {"dim. 16.03.2014": {"year": 2014, "day": 16, "month": 3, "categories": {"5-Hom": {"distance": 5, "rank": 28, "pace": 233000000000, "time": 1165.2}}, "weekday": "sunday", "livingplace": "Geneve"}}, "location": "Presinge"}, "Sierre-Zinal, Sierre": {"latitude": 46.29413110000001, "longitude": 7.533536199999999, "race": "Sierre-Zinal, Sierre", "date": {"dim. 10.08.2014": {"year": 2014, "day": 10, "month": 8, "categories": {"ElitesHo": {"distance": 31, "rank": 572, "pace": 614000000000, "time": 19052.0}}, "weekday": "sunday", "livingplace": "Geneve"}}, "location": "Sierre"}}, "birth": 1981}