{"name": "Junod Brigitte", "sex": "F", "races": {"Tour du pays de Vaud #1 - Penthaz": {"latitude": 46.5993131, "longitude": 6.539251200000001, "race": "Tour du pays de Vaud #1 - Penthaz", "date": {"mer. 14.08.2013": {"year": 2013, "day": 14, "month": 8, "categories": {"D-Sen3": {"distance": 9, "rank": 1, "pace": 258000000000, "time": 2206.0}}, "weekday": "wednesday", "livingplace": "Morges"}}, "location": "Penthaz"}, "Tour du Pays de Vaud #3 - Chavornay": {"latitude": 46.7784736, "longitude": 6.641183, "race": "Tour du Pays de Vaud #3 - Chavornay", "date": {"mer. 28.08.2013": {"year": 2013, "day": 28, "month": 8, "categories": {"D-Sen3": {"distance": 9, "rank": 1, "pace": 259000000000, "time": 2313.6}}, "weekday": "wednesday", "livingplace": "Morges"}}, "location": "Yverdon-les-Bains"}, "20km de Lausanne": {"latitude": 46.5196535, "longitude": 6.6322734, "race": "20km de Lausanne", "date": {"sam. 27.04.2013": {"year": 2013, "day": 27, "month": 4, "categories": {"20-F50": {"distance": 20, "rank": 1, "pace": 268000000000, "time": 5372.1}}, "weekday": "saturday", "livingplace": "Morges"}, "sam. 25.04.2015": {"year": 2015, "day": 25, "month": 4, "categories": {"20-F50": {"distance": 20, "rank": 3, "pace": 265000000000, "time": 5305.2}}, "weekday": "saturday", "livingplace": "Morges"}, "sam. 22.04.2006": {"year": 2006, "day": 22, "month": 4, "categories": {"20/F40": {"distance": 20, "rank": 10, "pace": 272000000000, "time": 5455.3}}, "weekday": "saturday", "livingplace": "Morges"}}, "location": "Lausanne"}, "Tour du Pays de Vaud #2 - Mezi\u00e8res": {"latitude": 46.5955273, "longitude": 6.7702883, "race": "Tour du Pays de Vaud #2 - Mezi\u00e8res", "date": {"mer. 21.08.2013": {"year": 2013, "day": 21, "month": 8, "categories": {"D-Sen3": {"distance": 8, "rank": 1, "pace": 273000000000, "time": 2214.8}}, "weekday": "wednesday", "livingplace": "Morges"}}, "location": "M\u00e9zi\u00e8res VD"}, "Basler Marathon-Tage": {"latitude": 47.5595986, "longitude": 7.5885761, "race": "Basler Marathon-Tage", "date": {"sam. 27.10.2007": {"year": 2007, "day": 27, "month": 10, "categories": {"M/W40": {"distance": 42, "rank": 1, "pace": 275000000000, "time": 11632.7}}, "weekday": "saturday", "livingplace": "Morges"}}, "location": "Basel"}, "Kerzerslauf": {"latitude": 46.97488999999999, "longitude": 7.1954365, "race": "Kerzerslauf", "date": {"sam. 21.03.2015": {"year": 2015, "day": 21, "month": 3, "categories": {"15-F50": {"distance": 15, "rank": 5, "pace": 266000000000, "time": 4004.4}}, "weekday": "saturday", "livingplace": "Morges"}, "sam. 16.03.2013": {"year": 2013, "day": 16, "month": 3, "categories": {"15-F50": {"distance": 15, "rank": 3, "pace": 266000000000, "time": 3994.9}}, "weekday": "saturday", "livingplace": "Morges"}}, "location": "Kerzers"}}, "birth": 1963}