{"name": "Junod Kevin", "sex": "M", "races": {"Tour du pays de Vaud #1 - Penthaz": {"latitude": 46.5993131, "longitude": 6.539251200000001, "race": "Tour du pays de Vaud #1 - Penthaz", "date": {"mer. 14.08.2013": {"year": 2013, "day": 14, "month": 8, "categories": {"H-Hom": {"distance": 9, "rank": 80, "pace": 322000000000, "time": 2750.8}}, "weekday": "wednesday", "livingplace": "Morges"}}, "location": "Penthaz"}, "Tour du Pays de Vaud #2 - Mezi\u00e8res": {"latitude": 46.5955273, "longitude": 6.7702883, "race": "Tour du Pays de Vaud #2 - Mezi\u00e8res", "date": {"mer. 21.08.2013": {"year": 2013, "day": 21, "month": 8, "categories": {"H-Hom": {"distance": 8, "rank": 72, "pace": 336000000000, "time": 2726.1}}, "weekday": "wednesday", "livingplace": "Morges"}}, "location": "M\u00e9zi\u00e8res VD"}, "Lausanne Marathon": {"latitude": 46.5196535, "longitude": 6.6322734, "race": "Lausanne Marathon", "date": {"dim. 28.10.2012": {"year": 2012, "day": 28, "month": 10, "categories": {"21-H1": {"distance": 21, "rank": 476, "pace": 361000000000, "time": 7621.6}}, "weekday": "sunday", "livingplace": "Morges"}}, "location": "Lausanne"}, "20km de Lausanne": {"latitude": 46.5196535, "longitude": 6.6322734, "race": "20km de Lausanne", "date": {"sam. 27.04.2013": {"year": 2013, "day": 27, "month": 4, "categories": {"20-H20": {"distance": 20, "rank": 494, "pace": 328000000000, "time": 6577.3}}, "weekday": "saturday", "livingplace": "Run &amp; B'"}}, "location": "Lausanne"}, "Tour du Pays de Vaud #3 - Chavornay": {"latitude": 46.7784736, "longitude": 6.641183, "race": "Tour du Pays de Vaud #3 - Chavornay", "date": {"mer. 28.08.2013": {"year": 2013, "day": 28, "month": 8, "categories": {"H-Hom": {"distance": 9, "rank": 89, "pace": 317000000000, "time": 2824.2}}, "weekday": "wednesday", "livingplace": "Morges"}}, "location": "Yverdon-les-Bains"}, "Kerzerslauf": {"latitude": 46.97488999999999, "longitude": 7.1954365, "race": "Kerzerslauf", "date": {"sam. 16.03.2013": {"year": 2013, "day": 16, "month": 3, "categories": {"15-M20": {"distance": 15, "rank": 502, "pace": 337000000000, "time": 5067.9}}, "weekday": "saturday", "livingplace": "Morges"}}, "location": "Kerzers"}}, "birth": 1986}