{"name": "Kaenel Justin", "sex": "M", "races": {"BCN Tour Les Ponts-de-Martel": {"latitude": 46.999113, "longitude": 6.733554799999999, "race": "BCN Tour Les Ponts-de-Martel", "date": {"mer. 09.05.2012": {"year": 2012, "day": 9, "month": 5, "categories": {"KG1": {"distance": 2, "rank": 113, "pace": 357000000000, "time": 678.4}}, "weekday": "wednesday", "livingplace": "La Chatagne"}}, "location": "Les Ponts-de-Martel"}, "BCN Tour La Br\u00e9vine": {"latitude": 46.999113, "longitude": 6.733554799999999, "race": "BCN Tour La Br\u00e9vine", "date": {"mer. 04.05.2011": {"year": 2011, "day": 4, "month": 5, "categories": {"KG1": {"distance": 2, "rank": 96, "pace": 387000000000, "time": 736.0}}, "weekday": "wednesday", "livingplace": "La Chatagne"}}, "location": "Les Ponts-de-Martel"}, "BCN Tour Neuch\u00e2tel": {"latitude": 46.9899874, "longitude": 6.9292732, "race": "BCN Tour Neuch\u00e2tel", "date": {"mer. 30.05.2012": {"year": 2012, "day": 30, "month": 5, "categories": {"KG1": {"distance": 2, "rank": 135, "pace": 366000000000, "time": 640.6}}, "weekday": "wednesday", "livingplace": "La Chatagne"}, "mer. 25.05.2011": {"year": 2011, "day": 25, "month": 5, "categories": {"KG1": {"distance": 2, "rank": 142, "pace": 363000000000, "time": 727.0}}, "weekday": "wednesday", "livingplace": "La Chatagne"}}, "location": "Neuch\u00e2tel"}, "BCN Tour Les Ponts de Martel": {"latitude": 46.9262933, "longitude": 6.6324944, "race": "BCN Tour Les Ponts de Martel", "date": {"mer. 18.05.2011": {"year": 2011, "day": 18, "month": 5, "categories": {"KG1": {"distance": 2, "rank": 115, "pace": 350000000000, "time": 690.5}}, "weekday": "wednesday", "livingplace": "La Chatagne"}}, "location": "Couvet"}, "BCN Tour Couvet": {"latitude": 47.0624261, "longitude": 6.9175754, "race": "BCN Tour Couvet", "date": {"mer. 02.05.2012": {"year": 2012, "day": 2, "month": 5, "categories": {"KG1": {"distance": 2, "rank": 95, "pace": 374000000000, "time": 673.7}}, "weekday": "wednesday", "livingplace": "La Chatagne"}}, "location": "Ch\u00e9zard-St-Martin"}, "BCN Tour Colombier": {"latitude": 47.1034892, "longitude": 6.832783800000001, "race": "BCN Tour Colombier", "date": {"mer. 16.05.2012": {"year": 2012, "day": 16, "month": 5, "categories": {"KG1": {"distance": 2, "rank": 147, "pace": 427000000000, "time": 641.2}}, "weekday": "wednesday", "livingplace": "La Chatagne"}}, "location": "La Chaux-de-Fonds"}, "BCN Tour #3 Dombresson": {"latitude": 46.999113, "longitude": 6.733554799999999, "race": "BCN Tour #3 Dombresson", "date": {"mer. 08.05.2013": {"year": 2013, "day": 8, "month": 5, "categories": {"KG2": {"distance": 1, "rank": 82, "pace": 307000000000, "time": 400.3}}, "weekday": "wednesday", "livingplace": "La Chatagne"}}, "location": "Les Ponts-de-Martel"}, "BCN Tour Cornaux": {"latitude": 46.9668714, "longitude": 6.8589727, "race": "BCN Tour Cornaux", "date": {"mer. 25.04.2012": {"year": 2012, "day": 25, "month": 4, "categories": {"KG1": {"distance": 2, "rank": 65, "pace": 333000000000, "time": 500.6}}, "weekday": "wednesday", "livingplace": "La Chatagne"}}, "location": "Colombier NE"}}, "birth": 2003}