{"name": "Kaesermann Rapha\u00ebl", "sex": "M", "races": {"Tour du Pays de Vaud printanier #2 Yverdon-les-Bains": {"latitude": 46.6698891, "longitude": 6.7975224, "race": "Tour du Pays de Vaud printanier #2 Yverdon-les-Bains", "date": {"mer. 05.06.2013": {"year": 2013, "day": 5, "month": 6, "categories": {"H-Sen1": {"distance": 9, "rank": 9, "pace": 248000000000, "time": 2259.3}}, "weekday": "wednesday", "livingplace": "Morges"}}, "location": "Moudon"}, "Tour du Pays de Vaud #4, La Sarraz": {"latitude": 46.7088129, "longitude": 6.5707689, "race": "Tour du Pays de Vaud #4, La Sarraz", "date": {"mer. 03.09.2014": {"year": 2014, "day": 3, "month": 9, "categories": {"H-Sen1": {"distance": 9, "rank": 6, "pace": 222000000000, "time": 1889.3}}, "weekday": "wednesday", "livingplace": "Morges"}}, "location": "Chavornay"}, "Tour du Pays de Vaud printanier #3 - Yens": {"latitude": 46.7829756, "longitude": 6.5728678, "race": "Tour du Pays de Vaud printanier #3 - Yens", "date": {"mer. 12.06.2013": {"year": 2013, "day": 12, "month": 6, "categories": {"H-Sen1": {"distance": 9, "rank": 7, "pace": 238000000000, "time": 2173.9}}, "weekday": "wednesday", "livingplace": "Morges"}, "mer. 18.06.2014": {"year": 2014, "day": 18, "month": 6, "categories": {"H-Sen1": {"distance": 9, "rank": 6, "pace": 228000000000, "time": 2076.3}}, "weekday": "wednesday", "livingplace": "Morges"}}, "location": "Champvent"}, "Tour du Pays de Vaud #2 - Mezi\u00e8res": {"latitude": 46.5955273, "longitude": 6.7702883, "race": "Tour du Pays de Vaud #2 - Mezi\u00e8res", "date": {"mer. 21.08.2013": {"year": 2013, "day": 21, "month": 8, "categories": {"H-Sen1": {"distance": 8, "rank": 11, "pace": 246000000000, "time": 2000.3}}, "weekday": "wednesday", "livingplace": "Morges"}}, "location": "M\u00e9zi\u00e8res VD"}, "Tour du Pays de Vaud #3 - Chavornay": {"latitude": 46.7784736, "longitude": 6.641183, "race": "Tour du Pays de Vaud #3 - Chavornay", "date": {"mer. 28.08.2013": {"year": 2013, "day": 28, "month": 8, "categories": {"H-Sen1": {"distance": 9, "rank": 15, "pace": 232000000000, "time": 2070.5}}, "weekday": "wednesday", "livingplace": "Morges"}}, "location": "Yverdon-les-Bains"}, "Montreux - Les Rochers de Naye": {"latitude": 46.4312213, "longitude": 6.9106799, "race": "Montreux - Les Rochers de Naye", "date": {"dim. 08.07.2012": {"year": 2012, "day": 8, "month": 7, "categories": {"C-HElite": {"distance": 10, "rank": 5, "pace": 385000000000, "time": 3664.4}}, "weekday": "sunday", "livingplace": "Morges"}}, "location": "Montreux"}, "Sierre-Zinal, Sierre": {"latitude": 46.29413110000001, "longitude": 7.533536199999999, "race": "Sierre-Zinal, Sierre", "date": {"dim. 10.08.2014": {"year": 2014, "day": 10, "month": 8, "categories": {"ElitesHo": {"distance": 31, "rank": 154, "pace": 423000000000, "time": 13132.5}}, "weekday": "sunday", "livingplace": "Morges"}}, "location": "Sierre"}, "Tour du pays de Vaud #1 - Penthaz": {"latitude": 46.5993131, "longitude": 6.539251200000001, "race": "Tour du pays de Vaud #1 - Penthaz", "date": {"mer. 14.08.2013": {"year": 2013, "day": 14, "month": 8, "categories": {"H-Sen1": {"distance": 9, "rank": 12, "pace": 225000000000, "time": 1923.4}}, "weekday": "wednesday", "livingplace": "Morges"}}, "location": "Penthaz"}, "Tour du Pays de Vaud printanier #1 Moudon": {"latitude": 46.3832683, "longitude": 6.2347852, "race": "Tour du Pays de Vaud printanier #1 Moudon", "date": {"mer. 29.05.2013": {"year": 2013, "day": 29, "month": 5, "categories": {"H-Sen1": {"distance": 8, "rank": 8, "pace": 237000000000, "time": 2028.4}}, "weekday": "wednesday", "livingplace": "Morges"}, "mer. 04.06.2014": {"year": 2014, "day": 4, "month": 6, "categories": {"H-Sen1": {"distance": 8, "rank": 8, "pace": 237000000000, "time": 1992.0}}, "weekday": "wednesday", "livingplace": "Morges"}}, "location": "Nyon"}, "Tour du Pays de Vaud #3, Chavornay": {"latitude": 46.7784736, "longitude": 6.641183, "race": "Tour du Pays de Vaud #3, Chavornay", "date": {"mer. 27.08.2014": {"year": 2014, "day": 27, "month": 8, "categories": {"H-Sen1": {"distance": 9, "rank": 6, "pace": 233000000000, "time": 2008.3}}, "weekday": "wednesday", "livingplace": "Morges"}}, "location": "Yverdon-les-Bains"}}, "birth": 1983}