{"name": "Kaiser Durisch Chris", "sex": "M", "races": {"Lucerne Marathon, Luzern": {"latitude": 47.05016819999999, "longitude": 8.3093072, "race": "Lucerne Marathon, Luzern", "date": {"dim. 25.10.2009": {"year": 2009, "day": 25, "month": 10, "categories": {"H-M50": {"distance": 21, "rank": 264, "pace": 322000000000, "time": 6806.2}}, "weekday": "sunday", "livingplace": "Binningen"}}, "location": "Luzern"}, "Morat-Fribourg": {"latitude": 46.92922110000001, "longitude": 7.120184, "race": "Morat-Fribourg", "date": {"sam. 04.10.2008": {"year": 2008, "day": 4, "month": 10, "categories": {"C-M50": {"distance": 17, "rank": 307, "pace": 323000000000, "time": 5553.7}}, "weekday": "saturday", "livingplace": "Binningen"}}, "location": "Murten"}, "IWB Basel Marathon": {"latitude": 47.5595986, "longitude": 7.5885761, "race": "IWB Basel Marathon", "date": {"dim. 28.09.2014": {"year": 2014, "day": 28, "month": 9, "categories": {"21-M55": {"distance": 21, "rank": 37, "pace": 331000000000, "time": 7000.2}}, "weekday": "sunday", "livingplace": "Binningen"}}, "location": "Basel"}, "Basler Stadtlauf": {"latitude": 47.5595986, "longitude": 7.5885761, "race": "Basler Stadtlauf", "date": {"sam. 28.11.2009": {"year": 2009, "day": 28, "month": 11, "categories": {"X": {"distance": 6, "rank": 226, "pace": 297000000000, "time": 1636.5}}, "weekday": "saturday", "livingplace": "Binningen"}, "sam. 28.11.2015": {"year": 2015, "day": 28, "month": 11, "categories": {"M55": {"distance": 6, "rank": 135, "pace": 313000000000, "time": 1724.6}}, "weekday": "saturday", "livingplace": "Binningen"}, "sam. 24.11.2012": {"year": 2012, "day": 24, "month": 11, "categories": {"M55": {"distance": 6, "rank": 111, "pace": 299000000000, "time": 1649.9}}, "weekday": "saturday", "livingplace": "Binningen"}}, "location": "Basel"}, "Hallwilerseelauf, Beinwil am See": {"latitude": NaN, "longitude": NaN, "race": "Hallwilerseelauf, Beinwil am See", "date": {"sam. 12.10.2013": {"year": 2013, "day": 12, "month": 10, "categories": {"21-M50": {"distance": 21, "rank": 368, "pace": 331000000000, "time": 7004.6}}, "weekday": "saturday", "livingplace": "Binningen"}}, "location": "Beinwil am See"}, "Int Greifenseelauf, Uster": {"latitude": 47.3482747, "longitude": 8.717873899999999, "race": "Int Greifenseelauf, Uster", "date": {"sam. 22.09.2007": {"year": 2007, "day": 22, "month": 9, "categories": {"H/M50": {"distance": 21, "rank": 378, "pace": 339000000000, "time": 7175.4}}, "weekday": "saturday", "livingplace": "Binningen"}}, "location": "Uster"}, "Dreil\u00e4nder-Lauf, Basel": {"latitude": 47.5595986, "longitude": 7.5885761, "race": "Dreil\u00e4nder-Lauf, Basel", "date": {"dim. 20.05.2007": {"year": 2007, "day": 20, "month": 5, "categories": {"21M50": {"distance": 21, "rank": 48, "pace": 334000000000, "time": 7055.9}}, "weekday": "sunday", "livingplace": "Binningen"}}, "location": "Basel"}, "Z\u00fcrich Marathon, Teamrun und Cityrun": {"latitude": 47.3768866, "longitude": 8.541694, "race": "Z\u00fcrich Marathon, Teamrun und Cityrun", "date": {"dim. 20.04.2008": {"year": 2008, "day": 20, "month": 4, "categories": {"M50": {"distance": 42, "rank": 347, "pace": 362000000000, "time": 15315.5}}, "weekday": "sunday", "livingplace": "Binningen"}}, "location": "Z\u00fcrich"}}, "birth": 1956}