{"name": "Kamber Gaelle", "sex": "F", "races": {"Lucerne Marathon, Luzern": {"latitude": 47.05016819999999, "longitude": 8.3093072, "race": "Lucerne Marathon, Luzern", "date": {"dim. 30.10.2011": {"year": 2011, "day": 30, "month": 10, "categories": {"H-F20": {"distance": 21, "rank": 404, "pace": 379000000000, "time": 8016.5}}, "weekday": "sunday", "livingplace": "Courrendlin"}}, "location": "Luzern"}, "20km de Lausanne": {"latitude": 46.5196535, "longitude": 6.6322734, "race": "20km de Lausanne", "date": {"sam. 25.04.2015": {"year": 2015, "day": 25, "month": 4, "categories": {"10-F30": {"distance": 10, "rank": 269, "pace": 333000000000, "time": 3330.2}}, "weekday": "saturday", "livingplace": "Courrendlin"}}, "location": "Lausanne"}, "Morat-Fribourg": {"latitude": 46.92922110000001, "longitude": 7.120184, "race": "Morat-Fribourg", "date": {"sam. 06.10.2012": {"year": 2012, "day": 6, "month": 10, "categories": {"17-W20": {"distance": 17, "rank": 136, "pace": 318000000000, "time": 5555.3}}, "weekday": "saturday", "livingplace": "Courrendlin"}}, "location": "Murten"}, "Corrida Bulloise, Bulle": {"latitude": 46.6154512, "longitude": 7.057726799999999, "race": "Corrida Bulloise, Bulle", "date": {"sam. 16.11.2013": {"year": 2013, "day": 16, "month": 11, "categories": {"F20": {"distance": 6, "rank": 68, "pace": 285000000000, "time": 1756.0}}, "weekday": "saturday", "livingplace": "Courrendlin"}}, "location": "Bulle"}, "Schweizer Frauenlauf Bern": {"latitude": 46.9479739, "longitude": 7.4474468, "race": "Schweizer Frauenlauf Bern", "date": {"dim. 14.06.2015": {"year": 2015, "day": 14, "month": 6, "categories": {"10-W30": {"distance": 10, "rank": 285, "pace": 349000000000, "time": 3495.6}}, "weekday": "sunday", "livingplace": "Courrendlin"}}, "location": "Bern"}}, "birth": 1984}