{"name": "Karcher Manuel", "sex": "M", "races": {"Muttenzer Herbstlauf": {"latitude": 47.5279292, "longitude": 7.6476369, "race": "Muttenzer Herbstlauf", "date": {"dim. 27.10.2013": {"year": 2013, "day": 27, "month": 10, "categories": {"5-Mann": {"distance": 6, "rank": 22, "pace": 334000000000, "time": 1875.1}}, "weekday": "sunday", "livingplace": "Lorrach"}}, "location": "Muttenz"}, "ASICS Bremgarter Reusslauf": {"latitude": 47.34917739999999, "longitude": 8.3397905, "race": "ASICS Bremgarter Reusslauf", "date": {"sam. 22.02.2014": {"year": 2014, "day": 22, "month": 2, "categories": {"11-M30": {"distance": 11, "rank": 384, "pace": 324000000000, "time": 3569.2}}, "weekday": "saturday", "livingplace": "Lorrach"}}, "location": "Bremgarten AG"}, "Basler Stadtlauf": {"latitude": 47.5595986, "longitude": 7.5885761, "race": "Basler Stadtlauf", "date": {"sam. 29.11.2014": {"year": 2014, "day": 29, "month": 11, "categories": {"M30": {"distance": 6, "rank": 303, "pace": 298000000000, "time": 1639.5}}, "weekday": "saturday", "livingplace": "Lorrach"}, "sam. 29.11.2008": {"year": 2008, "day": 29, "month": 11, "categories": {"M": {"distance": 6, "rank": 317, "pace": 285000000000, "time": 1572.7}}, "weekday": "saturday", "livingplace": "Lorrach"}}, "location": "Basel"}, "Gippinger Stauseelauf": {"latitude": 47.5810513, "longitude": 8.2152586, "race": "Gippinger Stauseelauf", "date": {"jeu. 31.12.2015": {"year": 2015, "day": 31, "month": 12, "categories": {"7-JoggM": {"distance": 8, "rank": 122, "pace": 317000000000, "time": 2392.5}}, "weekday": "thursday", "livingplace": "Lorrach"}}, "location": "Leuggern"}, "Liestaler Stadtlauf": {"latitude": 47.4866143, "longitude": 7.7334272, "race": "Liestaler Stadtlauf", "date": {"mer. 28.08.2013": {"year": 2013, "day": 28, "month": 8, "categories": {"St\u00e4M": {"distance": 5, "rank": 35, "pace": 283000000000, "time": 1475.9}}, "weekday": "wednesday", "livingplace": "Lorrach"}}, "location": "Liestal"}, "Augusta Raurica Lauf, Augst BL": {"latitude": NaN, "longitude": NaN, "race": "Augusta Raurica Lauf, Augst BL", "date": {"dim. 10.11.2013": {"year": 2013, "day": 10, "month": 11, "categories": {"5-JogM": {"distance": 6, "rank": 42, "pace": 332000000000, "time": 1828.4}}, "weekday": "sunday", "livingplace": "Lorrach"}, "dim. 09.11.2014": {"year": 2014, "day": 9, "month": 11, "categories": {"5-JogM": {"distance": 6, "rank": 34, "pace": 312000000000, "time": 1719.8}}, "weekday": "sunday", "livingplace": "Lorrach"}}, "location": "Augst BL"}, "Dreil\u00e4nder-Lauf, Basel": {"latitude": 47.5595986, "longitude": 7.5885761, "race": "Dreil\u00e4nder-Lauf, Basel", "date": {"dim. 17.05.2009": {"year": 2009, "day": 17, "month": 5, "categories": {"10M20": {"distance": 10, "rank": 23, "pace": 311000000000, "time": 3143.5}}, "weekday": "sunday", "livingplace": "Lorrach"}}, "location": "Basel"}, "Int Greifenseelauf, Uster": {"latitude": 47.3482747, "longitude": 8.717873899999999, "race": "Int Greifenseelauf, Uster", "date": {"sam. 20.09.2008": {"year": 2008, "day": 20, "month": 9, "categories": {"K-M20": {"distance": 10, "rank": 61, "pace": 311000000000, "time": 3119.4}}, "weekday": "saturday", "livingplace": "Lorrach"}}, "location": "Uster"}}, "birth": 1980}