{"name": "Karlen Beat", "sex": "M", "races": {"Kerzerslauf": {"latitude": 46.97488999999999, "longitude": 7.1954365, "race": "Kerzerslauf", "date": {"sam. 15.03.2008": {"year": 2008, "day": 15, "month": 3, "categories": {"15/M40": {"distance": 15, "rank": 277, "pace": 280000000000, "time": 4208.5}}, "weekday": "saturday", "livingplace": "Riedholz"}}, "location": "Kerzers"}, "Luzerner Stadtlauf": {"latitude": 47.05016819999999, "longitude": 8.3093072, "race": "Luzerner Stadtlauf", "date": {"sam. 26.04.2008": {"year": 2008, "day": 26, "month": 4, "categories": {"K/28": {"distance": 6, "rank": 171, "pace": 266000000000, "time": 1505.0}}, "weekday": "saturday", "livingplace": "Solothurn"}}, "location": "Luzern"}, "Z\u00fcrcher Silvesterlauf, Z\u00fcrich": {"latitude": 47.3768866, "longitude": 8.541694, "race": "Z\u00fcrcher Silvesterlauf, Z\u00fcrich", "date": {"dim. 16.12.2007": {"year": 2007, "day": 16, "month": 12, "categories": {"MenAK2-8": {"distance": 9, "rank": 599, "pace": 283000000000, "time": 2440.6}}, "weekday": "sunday", "livingplace": "Riedholz"}}, "location": "Z\u00fcrich"}, "Bieler Lauftage, Biel Bienne": {"latitude": 47.1367785, "longitude": 7.2467909, "race": "Bieler Lauftage, Biel Bienne", "date": {"ven. 13.06.2008": {"year": 2008, "day": 13, "month": 6, "categories": {"S100/M": {"distance": 100, "rank": 29, "pace": 311000000000, "time": 31183.3}}, "weekday": "friday", "livingplace": "Solothurn"}}, "location": "Biel/Bienne"}, "ASICS Bremgarter Reusslauf": {"latitude": 47.34917739999999, "longitude": 8.3397905, "race": "ASICS Bremgarter Reusslauf", "date": {"sam. 23.02.2008": {"year": 2008, "day": 23, "month": 2, "categories": {"M40": {"distance": 11, "rank": 408, "pace": 281000000000, "time": 3101.1}}, "weekday": "saturday", "livingplace": "Solothurn"}}, "location": "Bremgarten AG"}}, "birth": 1964}