{"name": "Kauer-G\u00e4umann Miriam", "sex": "F", "races": {"IWB Basel Marathon": {"latitude": 47.5595986, "longitude": 7.5885761, "race": "IWB Basel Marathon", "date": {"dim. 28.09.2014": {"year": 2014, "day": 28, "month": 9, "categories": {"21-F30": {"distance": 21, "rank": 10, "pace": 296000000000, "time": 6258.2}}, "weekday": "sunday", "livingplace": "Bern"}}, "location": "Basel"}, "Schweizer Frauenlauf Bern": {"latitude": 46.9479739, "longitude": 7.4474468, "race": "Schweizer Frauenlauf Bern", "date": {"dim. 14.06.2015": {"year": 2015, "day": 14, "month": 6, "categories": {"5-W30": {"distance": 5, "rank": 369, "pace": 382000000000, "time": 1914.7}}, "weekday": "sunday", "livingplace": "Bern"}}, "location": "Bern"}, "Morat-Fribourg": {"latitude": 46.92922110000001, "longitude": 7.120184, "race": "Morat-Fribourg", "date": {"sam. 06.10.2012": {"year": 2012, "day": 6, "month": 10, "categories": {"17-W20": {"distance": 17, "rank": 82, "pace": 299000000000, "time": 5226.4}}, "weekday": "saturday", "livingplace": "Bern"}}, "location": "Murten"}, "SwissCityMarathon - Lucerne, Luzern": {"latitude": 47.05016819999999, "longitude": 8.3093072, "race": "SwissCityMarathon - Lucerne, Luzern", "date": {"dim. 25.10.2015": {"year": 2015, "day": 25, "month": 10, "categories": {"H-W30": {"distance": 21, "rank": 45, "pace": 297000000000, "time": 6277.1}}, "weekday": "sunday", "livingplace": "Bern"}}, "location": "Luzern"}, "Z\u00fcrich Marathon, Teamrun und Cityrun": {"latitude": 47.3768866, "longitude": 8.541694, "race": "Z\u00fcrich Marathon, Teamrun und Cityrun", "date": {"dim. 07.04.2013": {"year": 2013, "day": 7, "month": 4, "categories": {"42-W30": {"distance": 42, "rank": 43, "pace": 320000000000, "time": 13529.3}}, "weekday": "sunday", "livingplace": "Bern"}}, "location": "Z\u00fcrich"}}, "birth": 1982}