{"name": "Kaufmann Raphael", "sex": "M", "races": {"BCN Tour La Chaux-de-Fonds": {"latitude": 47.1034892, "longitude": 6.832783800000001, "race": "BCN Tour La Chaux-de-Fonds", "date": {"mer. 11.05.2011": {"year": 2011, "day": 11, "month": 5, "categories": {"HE": {"distance": 11, "rank": 139, "pace": 360000000000, "time": 3860.8}}, "weekday": "wednesday", "livingplace": "Cormondreche"}}, "location": "La Chaux-de-Fonds"}, "BCN Tour La Br\u00e9vine": {"latitude": 46.999113, "longitude": 6.733554799999999, "race": "BCN Tour La Br\u00e9vine", "date": {"mer. 04.05.2011": {"year": 2011, "day": 4, "month": 5, "categories": {"HE": {"distance": 10, "rank": 124, "pace": 309000000000, "time": 3096.9}}, "weekday": "wednesday", "livingplace": "Cormondreche"}}, "location": "Les Ponts-de-Martel"}, "BCN Tour Fontaine Cernier": {"latitude": 47.0624261, "longitude": 6.9175754, "race": "BCN Tour Fontaine Cernier", "date": {"mer. 27.04.2011": {"year": 2011, "day": 27, "month": 4, "categories": {"HE": {"distance": 10, "rank": 131, "pace": 293000000000, "time": 3027.9}}, "weekday": "wednesday", "livingplace": "Cormondreche"}}, "location": "Ch\u00e9zard-St-Martin"}, "BCN Tour Neuch\u00e2tel": {"latitude": 46.9899874, "longitude": 6.9292732, "race": "BCN Tour Neuch\u00e2tel", "date": {"mer. 25.05.2011": {"year": 2011, "day": 25, "month": 5, "categories": {"HE": {"distance": 11, "rank": 125, "pace": 306000000000, "time": 3491.3}}, "weekday": "wednesday", "livingplace": "Cormondreche"}}, "location": "Neuch\u00e2tel"}, "BCN Tour Les Ponts de Martel": {"latitude": 46.9262933, "longitude": 6.6324944, "race": "BCN Tour Les Ponts de Martel", "date": {"mer. 18.05.2011": {"year": 2011, "day": 18, "month": 5, "categories": {"HE": {"distance": 13, "rank": 113, "pace": 309000000000, "time": 3956.6}}, "weekday": "wednesday", "livingplace": "Cormondreche"}}, "location": "Couvet"}, "SwissCityMarathon - Lucerne, Luzern": {"latitude": 47.05016819999999, "longitude": 8.3093072, "race": "SwissCityMarathon - Lucerne, Luzern", "date": {"dim. 26.10.2014": {"year": 2014, "day": 26, "month": 10, "categories": {"M-M20": {"distance": 42, "rank": 56, "pace": 316000000000, "time": 13334.9}}, "weekday": "sunday", "livingplace": "Peseux"}, "dim. 25.10.2015": {"year": 2015, "day": 25, "month": 10, "categories": {"M-M30": {"distance": 42, "rank": 86, "pace": 323000000000, "time": 13650.4}}, "weekday": "sunday", "livingplace": "Neuchatel"}}, "location": "Luzern"}, "Aletsch-Halbmarathon, Bettmeralp": {"latitude": NaN, "longitude": NaN, "race": "Aletsch-Halbmarathon, Bettmeralp", "date": {"dim. 28.06.2015": {"year": 2015, "day": 28, "month": 6, "categories": {"M20": {"distance": 21, "rank": 223, "pace": 440000000000, "time": 9289.6}}, "weekday": "sunday", "livingplace": "Neuchatel"}}, "location": "Bettmeralp"}, "BCN Tour Auvernier": {"latitude": 46.9668714, "longitude": 6.8589727, "race": "BCN Tour Auvernier", "date": {"mer. 20.04.2011": {"year": 2011, "day": 20, "month": 4, "categories": {"HE": {"distance": 11, "rank": 138, "pace": 330000000000, "time": 3566.4}}, "weekday": "wednesday", "livingplace": "Cormondreche"}}, "location": "Colombier NE"}, "Kerzerslauf": {"latitude": 46.97488999999999, "longitude": 7.1954365, "race": "Kerzerslauf", "date": {"sam. 21.03.2015": {"year": 2015, "day": 21, "month": 3, "categories": {"15-M20": {"distance": 15, "rank": 201, "pace": 263000000000, "time": 3953.0}}, "weekday": "saturday", "livingplace": "Peseux"}, "sam. 15.03.2014": {"year": 2014, "day": 15, "month": 3, "categories": {"15-M20": {"distance": 15, "rank": 406, "pace": 295000000000, "time": 4437.9}}, "weekday": "saturday", "livingplace": "Peseux"}}, "location": "Kerzers"}}, "birth": 1985}