{"name": "Kaufmann Valentin", "sex": "M", "races": {"Groupe E Tour Fribourg #1 Gurmels": {"latitude": 46.81832, "longitude": 6.977279999999999, "race": "Groupe E Tour Fribourg #1 Gurmels", "date": {"mer. 29.08.2012": {"year": 2012, "day": 29, "month": 8, "categories": {"HS2": {"distance": 8, "rank": 31, "pace": 309000000000, "time": 2601.2}}, "weekday": "wednesday", "livingplace": "Neuchatel"}}, "location": "Cousset"}, "Thuner Stadtlauf, Thun": {"latitude": 46.7579868, "longitude": 7.6279881, "race": "Thuner Stadtlauf, Thun", "date": {"dim. 25.08.2013": {"year": 2013, "day": 25, "month": 8, "categories": {"10-M40": {"distance": 10, "rank": 62, "pace": 261000000000, "time": 2613.1}}, "weekday": "sunday", "livingplace": "Ostermundigen"}}, "location": "Thun"}, "Morat-Fribourg": {"latitude": 46.92922110000001, "longitude": 7.120184, "race": "Morat-Fribourg", "date": {"sam. 05.10.2013": {"year": 2013, "day": 5, "month": 10, "categories": {"17-M40": {"distance": 17, "rank": 334, "pace": 294000000000, "time": 5142.0}}, "weekday": "saturday", "livingplace": "Ostermundigen"}, "sam. 06.10.2012": {"year": 2012, "day": 6, "month": 10, "categories": {"17-M40": {"distance": 17, "rank": 281, "pace": 295000000000, "time": 5148.9}}, "weekday": "saturday", "livingplace": "Neuchatel"}, "sam. 06.10.2007": {"year": 2007, "day": 6, "month": 10, "categories": {"C/M20": {"distance": 17, "rank": 907, "pace": 300000000000, "time": 5156.8}}, "weekday": "saturday", "livingplace": "Groupe E 2"}}, "location": "Murten"}, "Groupe E Tour Fribourg #3 Estavayer-le-Lac": {"latitude": 46.97488999999999, "longitude": 7.1954365, "race": "Groupe E Tour Fribourg #3 Estavayer-le-Lac", "date": {"mer. 12.09.2012": {"year": 2012, "day": 12, "month": 9, "categories": {"HS2": {"distance": 10, "rank": 25, "pace": 272000000000, "time": 2689.9}}, "weekday": "wednesday", "livingplace": "Neuchatel"}}, "location": "Kerzers"}, "BCN Tour #1 Corcelles": {"latitude": 46.9668714, "longitude": 6.8589727, "race": "BCN Tour #1 Corcelles", "date": {"mer. 24.04.2013": {"year": 2013, "day": 24, "month": 4, "categories": {"HS2": {"distance": 10, "rank": 134, "pace": 295000000000, "time": 2896.5}}, "weekday": "wednesday", "livingplace": "Neuchatel"}}, "location": "Colombier NE"}, "Groupe E Tour Fribourg #4 Siviriez": {"latitude": 46.6585092, "longitude": 6.877722, "race": "Groupe E Tour Fribourg #4 Siviriez", "date": {"mer. 19.09.2012": {"year": 2012, "day": 19, "month": 9, "categories": {"HS2": {"distance": 9, "rank": 33, "pace": 310000000000, "time": 2914.8}}, "weekday": "wednesday", "livingplace": "Neuchatel"}}, "location": "Siviriez"}, "BCN Tour #2 La Chaux-de-Fonds": {"latitude": 47.0624261, "longitude": 6.9175754, "race": "BCN Tour #2 La Chaux-de-Fonds", "date": {"mer. 01.05.2013": {"year": 2013, "day": 1, "month": 5, "categories": {"HS2": {"distance": 11, "rank": 121, "pace": 284000000000, "time": 3042.8}}, "weekday": "wednesday", "livingplace": "Neuchatel"}}, "location": "Ch\u00e9zard-St-Martin"}, "Groupe E Tour Fribourg #5 Fribourg": {"latitude": 46.8128615, "longitude": 7.131657799999999, "race": "Groupe E Tour Fribourg #5 Fribourg", "date": {"mer. 18.09.2013": {"year": 2013, "day": 18, "month": 9, "categories": {"HS2": {"distance": 10, "rank": 31, "pace": 275000000000, "time": 2758.6}}, "weekday": "wednesday", "livingplace": "Ostermundigen"}, "mer. 26.09.2012": {"year": 2012, "day": 26, "month": 9, "categories": {"HS2": {"distance": 11, "rank": 33, "pace": 298000000000, "time": 3192.6}}, "weekday": "wednesday", "livingplace": "Neuchatel"}}, "location": "Givisiez"}, "BCN Tour #5 Colombier": {"latitude": 46.9262933, "longitude": 6.6324944, "race": "BCN Tour #5 Colombier", "date": {"mer. 22.05.2013": {"year": 2013, "day": 22, "month": 5, "categories": {"HS2": {"distance": 11, "rank": 95, "pace": 261000000000, "time": 2750.7}}, "weekday": "wednesday", "livingplace": "Neuchatel"}}, "location": "Couvet"}, "Groupe E Tour Fribourg #2 Plafayon": {"latitude": 46.6175845, "longitude": 7.1654493, "race": "Groupe E Tour Fribourg #2 Plafayon", "date": {"mer. 05.09.2012": {"year": 2012, "day": 5, "month": 9, "categories": {"HS2": {"distance": 9, "rank": 33, "pace": 282000000000, "time": 2636.8}}, "weekday": "wednesday", "livingplace": "Neuchatel"}}, "location": "Charmey (Gruy\u00e8re)"}, "Kerzerslauf": {"latitude": 46.97488999999999, "longitude": 7.1954365, "race": "Kerzerslauf", "date": {"sam. 16.03.2013": {"year": 2013, "day": 16, "month": 3, "categories": {"15-M40": {"distance": 15, "rank": 186, "pace": 276000000000, "time": 4150.9}}, "weekday": "saturday", "livingplace": "Neuchatel"}}, "location": "Kerzers"}, "BCN Tour #3 Dombresson": {"latitude": 46.999113, "longitude": 6.733554799999999, "race": "BCN Tour #3 Dombresson", "date": {"mer. 08.05.2013": {"year": 2013, "day": 8, "month": 5, "categories": {"HS2": {"distance": 10, "rank": 102, "pace": 275000000000, "time": 2725.0}}, "weekday": "wednesday", "livingplace": "Neuchatel"}}, "location": "Les Ponts-de-Martel"}}, "birth": 1970}