{"name": "Keller Marvin", "sex": "M", "races": {"R\u00fctilauf, R\u00fcti ZH": {"latitude": 47.2566995, "longitude": 8.854421, "race": "R\u00fctilauf, R\u00fcti ZH", "date": {"sam. 13.09.2014": {"year": 2014, "day": 13, "month": 9, "categories": {"U": {"distance": 1, "rank": 7, "pace": 243000000000, "time": 340.7}}, "weekday": "saturday", "livingplace": "Wattwil"}}, "location": "R\u00fcti ZH"}, "ASICS Bremgarter Reusslauf": {"latitude": 47.34917739999999, "longitude": 8.3397905, "race": "ASICS Bremgarter Reusslauf", "date": {"sam. 28.02.2015": {"year": 2015, "day": 28, "month": 2, "categories": {"1-U12m": {"distance": 1, "rank": 5, "pace": 237000000000, "time": 308.3}}, "weekday": "saturday", "livingplace": "Wattwil"}}, "location": "Bremgarten AG"}, "GP der Stadt D\u00fcbendorf": {"latitude": 47.3971476, "longitude": 8.618012799999999, "race": "GP der Stadt D\u00fcbendorf", "date": {"sam. 12.04.2014": {"year": 2014, "day": 12, "month": 4, "categories": {"U": {"distance": 2, "rank": 12, "pace": 242000000000, "time": 323.1}}, "weekday": "saturday", "livingplace": "Wattwil"}}, "location": "D\u00fcbendorf"}, "M\u00e4nned\u00f6rfler Waldlauf": {"latitude": 47.2574625, "longitude": 8.6946733, "race": "M\u00e4nned\u00f6rfler Waldlauf", "date": {"sam. 29.03.2014": {"year": 2014, "day": 29, "month": 3, "categories": {"U": {"distance": 1, "rank": 21, "pace": 287000000000, "time": 344.6}}, "weekday": "saturday", "livingplace": "Wattwil"}}, "location": "M\u00e4nnedorf"}, "Laufsporttag Winterthur": {"latitude": 39.8088766, "longitude": -75.6037351, "race": "Laufsporttag Winterthur", "date": {"sam. 01.03.2014": {"year": 2014, "day": 1, "month": 3, "categories": {"U": {"distance": 2, "rank": 12, "pace": 252000000000, "time": 480.2}}, "weekday": "saturday", "livingplace": "Wattwil"}}, "location": "Winterthur"}, "Rheinfall-Lauf, Neuhausen": {"latitude": 47.6837423, "longitude": 8.6126098, "race": "Rheinfall-Lauf, Neuhausen", "date": {"dim. 24.08.2014": {"year": 2014, "day": 24, "month": 8, "categories": {"U": {"distance": 2, "rank": 10, "pace": 200000000000, "time": 462.2}}, "weekday": "sunday", "livingplace": "Wattwil"}}, "location": "Neuhausen am Rheinfall"}, "Zumiker-Lauf": {"latitude": NaN, "longitude": NaN, "race": "Zumiker-Lauf", "date": {"sam. 10.05.2014": {"year": 2014, "day": 10, "month": 5, "categories": {"U": {"distance": 1, "rank": 8, "pace": 187000000000, "time": 224.9}}, "weekday": "saturday", "livingplace": "Wattwil"}}, "location": "Zumikon"}, "Dietiker Neujahrslauf, Dietikon": {"latitude": 47.4053885, "longitude": 8.39977, "race": "Dietiker Neujahrslauf, Dietikon", "date": {"sam. 10.01.2015": {"year": 2015, "day": 10, "month": 1, "categories": {"U": {"distance": 2, "rank": 8, "pace": 253000000000, "time": 456.9}}, "weekday": "saturday", "livingplace": "Wattwil"}}, "location": "Dietikon"}, "Pf\u00e4ffikerseelauf, Wetzikon": {"latitude": NaN, "longitude": NaN, "race": "Pf\u00e4ffikerseelauf, Wetzikon", "date": {"dim. 28.09.2014": {"year": 2014, "day": 28, "month": 9, "categories": {"U": {"distance": 2, "rank": 10, "pace": 217000000000, "time": 412.4}}, "weekday": "sunday", "livingplace": "Wattwil"}}, "location": "Wetzikon ZH"}, "Z\u00fcrcher Silvesterlauf, Z\u00fcrich": {"latitude": 47.3768866, "longitude": 8.541694, "race": "Z\u00fcrcher Silvesterlauf, Z\u00fcrich", "date": {"dim. 14.12.2014": {"year": 2014, "day": 14, "month": 12, "categories": {"U12M": {"distance": 1, "rank": 77, "pace": 262000000000, "time": 419.6}}, "weekday": "sunday", "livingplace": "Wattwil"}}, "location": "Z\u00fcrich"}, "Kyburglauf, Kyburg": {"latitude": NaN, "longitude": NaN, "race": "Kyburglauf, Kyburg", "date": {"sam. 08.11.2014": {"year": 2014, "day": 8, "month": 11, "categories": {"K-KnaB": {"distance": 2, "rank": 7, "pace": 236000000000, "time": 472.9}}, "weekday": "saturday", "livingplace": "Wattwil"}}, "location": "Kyburg"}}, "birth": 2004}