{"name": "Keller Adrian", "sex": "M", "races": {"ASICS Bremgarter Reusslauf": {"latitude": 47.34917739999999, "longitude": 8.3397905, "race": "ASICS Bremgarter Reusslauf", "date": {"sam. 17.02.2007": {"year": 2007, "day": 17, "month": 2, "categories": {"M40": {"distance": 11, "rank": 632, "pace": 347000000000, "time": 3645.9}}, "weekday": "saturday", "livingplace": "Winznau"}}, "location": "Bremgarten AG"}, "Luzerner Stadtlauf": {"latitude": 47.05016819999999, "longitude": 8.3093072, "race": "Luzerner Stadtlauf", "date": {"sam. 24.04.2004": {"year": 2004, "day": 24, "month": 4, "categories": {"K/29": {"distance": 6, "rank": 352, "pace": 326000000000, "time": 1798.3}}, "weekday": "saturday", "livingplace": "Winznau"}}, "location": "Luzern"}, "Z\u00fcrich Marathon, Teamrun und Cityrun": {"latitude": 47.3768866, "longitude": 8.541694, "race": "Z\u00fcrich Marathon, Teamrun und Cityrun", "date": {"dim. 03.04.2005": {"year": 2005, "day": 3, "month": 4, "categories": {"M45": {"distance": 42, "rank": 696, "pace": 415000000000, "time": 17551.6}}, "weekday": "sunday", "livingplace": "Winznau"}}, "location": "Z\u00fcrich"}, "Basler Stadtlauf": {"latitude": 47.5595986, "longitude": 7.5885761, "race": "Basler Stadtlauf", "date": {"sam. 26.11.2005": {"year": 2005, "day": 26, "month": 11, "categories": {"U": {"distance": 6, "rank": 431, "pace": 333000000000, "time": 1834.0}}, "weekday": "saturday", "livingplace": "Winznau"}}, "location": "Basel"}, "Int Greifenseelauf, Uster": {"latitude": 47.3482747, "longitude": 8.717873899999999, "race": "Int Greifenseelauf, Uster", "date": {"sam. 20.09.2003": {"year": 2003, "day": 20, "month": 9, "categories": {"H/M40": {"distance": 21, "rank": 923, "pace": 422000000000, "time": 8907.9}}, "weekday": "saturday", "livingplace": "Winznau"}}, "location": "Uster"}}, "birth": 1959}