{"name": "Keller Arlette", "sex": "F", "races": {"ASICS Bremgarter Reusslauf": {"latitude": 47.34917739999999, "longitude": 8.3397905, "race": "ASICS Bremgarter Reusslauf", "date": {"sam. 28.02.2015": {"year": 2015, "day": 28, "month": 2, "categories": {"11-F20": {"distance": 11, "rank": 119, "pace": 400000000000, "time": 4406.4}}, "weekday": "saturday", "livingplace": "Ecublens"}}, "location": "Bremgarten AG"}, "Basler Stadtlauf": {"latitude": 47.5595986, "longitude": 7.5885761, "race": "Basler Stadtlauf", "date": {"sam. 29.11.2014": {"year": 2014, "day": 29, "month": 11, "categories": {"F20": {"distance": 6, "rank": 615, "pace": 370000000000, "time": 2036.8}}, "weekday": "saturday", "livingplace": "Ecublens"}}, "location": "Basel"}, "Schweizer Frauenlauf Bern": {"latitude": 46.9479739, "longitude": 7.4474468, "race": "Schweizer Frauenlauf Bern", "date": {"dim. 15.06.2014": {"year": 2014, "day": 15, "month": 6, "categories": {"10-W20": {"distance": 10, "rank": 861, "pace": 445000000000, "time": 4453.2}}, "weekday": "sunday", "livingplace": "Ecublens"}, "dim. 14.06.2015": {"year": 2015, "day": 14, "month": 6, "categories": {"10-W20": {"distance": 10, "rank": 951, "pace": 408000000000, "time": 4083.4}}, "weekday": "sunday", "livingplace": "Ecublens"}}, "location": "Bern"}, "Badener Limmat-Lauf, Baden": {"latitude": 48.5699281, "longitude": 8.5303972, "race": "Badener Limmat-Lauf, Baden", "date": {"sam. 28.03.2015": {"year": 2015, "day": 28, "month": 3, "categories": {"F20": {"distance": 13, "rank": 62, "pace": 439000000000, "time": 5793.9}}, "weekday": "saturday", "livingplace": "Ecublens"}}, "location": "Baden"}, "20km de Lausanne": {"latitude": 46.5196535, "longitude": 6.6322734, "race": "20km de Lausanne", "date": {"sam. 25.04.2015": {"year": 2015, "day": 25, "month": 4, "categories": {"10-F20": {"distance": 10, "rank": 1372, "pace": 434000000000, "time": 4340.5}}, "weekday": "saturday", "livingplace": "Partner Up"}}, "location": "Lausanne"}, "Winterthur Marathon": {"latitude": 39.8088766, "longitude": -75.6037351, "race": "Winterthur Marathon", "date": {"dim. 31.05.2015": {"year": 2015, "day": 31, "month": 5, "categories": {"10-F20": {"distance": 10, "rank": 98, "pace": 420000000000, "time": 4200.0}}, "weekday": "sunday", "livingplace": "Ecublens"}}, "location": "Winterthur"}}, "birth": 1991}