{"name": "Keller Roland", "sex": "M", "races": {"Lucerne Marathon, Luzern": {"latitude": 47.05016819999999, "longitude": 8.3093072, "race": "Lucerne Marathon, Luzern", "date": {"dim. 28.10.2012": {"year": 2012, "day": 28, "month": 10, "categories": {"H-M40": {"distance": 21, "rank": 872, "pace": 326000000000, "time": 6893.6}}, "weekday": "sunday", "livingplace": "Bern"}}, "location": "Luzern"}, "Stralugano, Lugano": {"latitude": 46.0036778, "longitude": 8.951051999999999, "race": "Stralugano, Lugano", "date": {"dim. 28.09.2014": {"year": 2014, "day": 28, "month": 9, "categories": {"10-M40": {"distance": 10, "rank": 197, "pace": 274000000000, "time": 2743.5}}, "weekday": "sunday", "livingplace": "Bern"}, "dim. 30.09.2012": {"year": 2012, "day": 30, "month": 9, "categories": {"10-M40": {"distance": 10, "rank": 192, "pace": 289000000000, "time": 2892.2}}, "weekday": "sunday", "livingplace": "Bern"}}, "location": "Lugano"}, "SwissCityMarathon - Lucerne, Luzern": {"latitude": 47.05016819999999, "longitude": 8.3093072, "race": "SwissCityMarathon - Lucerne, Luzern", "date": {"dim. 26.10.2014": {"year": 2014, "day": 26, "month": 10, "categories": {"H-M40": {"distance": 21, "rank": 660, "pace": 307000000000, "time": 6497.2}}, "weekday": "sunday", "livingplace": "Bern"}}, "location": "Luzern"}, "Basler Stadtlauf": {"latitude": 47.5595986, "longitude": 7.5885761, "race": "Basler Stadtlauf", "date": {"sam. 24.11.2012": {"year": 2012, "day": 24, "month": 11, "categories": {"M40": {"distance": 6, "rank": 212, "pace": 273000000000, "time": 1502.7}}, "weekday": "saturday", "livingplace": "Bern"}}, "location": "Basel"}, "Ch\u00e4sitzerlouf, Kehrsatz": {"latitude": NaN, "longitude": NaN, "race": "Ch\u00e4sitzerlouf, Kehrsatz", "date": {"sam. 04.05.2013": {"year": 2013, "day": 4, "month": 5, "categories": {"12-M40": {"distance": 12, "rank": 114, "pace": 291000000000, "time": 3501.1}}, "weekday": "saturday", "livingplace": "Bern"}, "sam. 25.04.2015": {"year": 2015, "day": 25, "month": 4, "categories": {"12-M40": {"distance": 12, "rank": 115, "pace": 293000000000, "time": 3525.4}}, "weekday": "saturday", "livingplace": "Bern"}}, "location": "Kehrsatz"}, "Z\u00fcrcher Silvesterlauf, Z\u00fcrich": {"latitude": 47.3768866, "longitude": 8.541694, "race": "Z\u00fcrcher Silvesterlauf, Z\u00fcrich", "date": {"dim. 11.12.2011": {"year": 2011, "day": 11, "month": 12, "categories": {"8-MenAK2": {"distance": 9, "rank": 819, "pace": 309000000000, "time": 2660.1}}, "weekday": "sunday", "livingplace": "Bern"}}, "location": "Z\u00fcrich"}, "Kerzerslauf": {"latitude": 46.97488999999999, "longitude": 7.1954365, "race": "Kerzerslauf", "date": {"sam. 17.03.2012": {"year": 2012, "day": 17, "month": 3, "categories": {"15-M40": {"distance": 15, "rank": 450, "pace": 317000000000, "time": 4759.9}}, "weekday": "saturday", "livingplace": "Bern"}}, "location": "Kerzers"}}, "birth": 1971}