{"name": "Kempter Kevin", "sex": "M", "races": {"Tour du Pays de Vaud printanier #2 Yverdon-les-Bains": {"latitude": 46.6698891, "longitude": 6.7975224, "race": "Tour du Pays de Vaud printanier #2 Yverdon-les-Bains", "date": {"mer. 05.06.2013": {"year": 2013, "day": 5, "month": 6, "categories": {"H-Jun": {"distance": 9, "rank": 6, "pace": 277000000000, "time": 2529.6}}, "weekday": "wednesday", "livingplace": "Vufflens la Ville"}}, "location": "Moudon"}, "Humani'Trail, Les Diablerets": {"latitude": 46.351389, "longitude": 7.158055999999999, "race": "Humani'Trail, Les Diablerets", "date": {"sam. 21.09.2013": {"year": 2013, "day": 21, "month": 9, "categories": {"25-HE": {"distance": 25, "rank": 10, "pace": 628000000000, "time": 15710.5}}, "weekday": "saturday", "livingplace": "Vufflens la Ville"}}, "location": "Les Diablerets"}, "Tour du Pays de Vaud printanier #1 Chavornay": {"latitude": 46.3832683, "longitude": 6.2347852, "race": "Tour du Pays de Vaud printanier #1 Chavornay", "date": {"mer. 30.05.2012": {"year": 2012, "day": 30, "month": 5, "categories": {"H-Jun": {"distance": 9, "rank": 6, "pace": 295000000000, "time": 2644.6}}, "weekday": "wednesday", "livingplace": "Vufflens la Ville"}}, "location": "Nyon"}, "20km de Lausanne": {"latitude": 46.5196535, "longitude": 6.6322734, "race": "20km de Lausanne", "date": {"sam. 30.04.2011": {"year": 2011, "day": 30, "month": 4, "categories": {"10-Hesp": {"distance": 10, "rank": 204, "pace": 332000000000, "time": 3320.6}}, "weekday": "saturday", "livingplace": "Vufflens la Ville"}, "sam. 27.04.2013": {"year": 2013, "day": 27, "month": 4, "categories": {"10-Hesp": {"distance": 10, "rank": 45, "pace": 255000000000, "time": 2558.6}}, "weekday": "saturday", "livingplace": "Vufflens la Ville"}, "sam. 28.04.2012": {"year": 2012, "day": 28, "month": 4, "categories": {"10-Hesp": {"distance": 10, "rank": 209, "pace": 328000000000, "time": 3282.5}}, "weekday": "saturday", "livingplace": "Vufflens la Ville"}, "sam. 22.04.2006": {"year": 2006, "day": 22, "month": 4, "categories": {"4/EcolB": {"distance": 4, "rank": 159, "pace": 316000000000, "time": 1265.2}}, "weekday": "saturday", "livingplace": "Vufflens la Ville"}}, "location": "Lausanne"}, "Tour du Pays de Vaud printanier #1 Moudon": {"latitude": 46.3832683, "longitude": 6.2347852, "race": "Tour du Pays de Vaud printanier #1 Moudon", "date": {"mer. 29.05.2013": {"year": 2013, "day": 29, "month": 5, "categories": {"H-Jun": {"distance": 8, "rank": 6, "pace": 266000000000, "time": 2278.9}}, "weekday": "wednesday", "livingplace": "Vufflens la Ville"}}, "location": "Nyon"}, "Tour du Pays de Vaud #2 - Genolier": {"latitude": 46.5955273, "longitude": 6.7702883, "race": "Tour du Pays de Vaud #2 - Genolier", "date": {"mer. 15.08.2012": {"year": 2012, "day": 15, "month": 8, "categories": {"H-Jun": {"distance": 9, "rank": 14, "pace": 282000000000, "time": 2399.4}}, "weekday": "wednesday", "livingplace": "Vufflens la Ville"}}, "location": "M\u00e9zi\u00e8res VD"}, "Tour du Pays de Vaud printanier #3 - Yens": {"latitude": 46.7829756, "longitude": 6.5728678, "race": "Tour du Pays de Vaud printanier #3 - Yens", "date": {"mer. 12.06.2013": {"year": 2013, "day": 12, "month": 6, "categories": {"H-Jun": {"distance": 9, "rank": 7, "pace": 281000000000, "time": 2564.0}}, "weekday": "wednesday", "livingplace": "Vufflens la Ville"}}, "location": "Champvent"}, "Tour du Pays de Vaud #2 - Mezi\u00e8res": {"latitude": 46.5955273, "longitude": 6.7702883, "race": "Tour du Pays de Vaud #2 - Mezi\u00e8res", "date": {"mer. 21.08.2013": {"year": 2013, "day": 21, "month": 8, "categories": {"H-Jun": {"distance": 8, "rank": 3, "pace": 278000000000, "time": 2253.5}}, "weekday": "wednesday", "livingplace": "Vufflens la Ville"}}, "location": "M\u00e9zi\u00e8res VD"}, "Lausanne Marathon": {"latitude": 46.5196535, "longitude": 6.6322734, "race": "Lausanne Marathon", "date": {"dim. 28.10.2012": {"year": 2012, "day": 28, "month": 10, "categories": {"10-JG": {"distance": 10, "rank": 73, "pace": 278000000000, "time": 2784.6}}, "weekday": "sunday", "livingplace": "Vufflens la Ville"}}, "location": "Lausanne"}, "Tour du Pays de Vaud #4 - La Sarraz": {"latitude": 46.7088129, "longitude": 6.5707689, "race": "Tour du Pays de Vaud #4 - La Sarraz", "date": {"mer. 29.08.2012": {"year": 2012, "day": 29, "month": 8, "categories": {"H-Jun": {"distance": 9, "rank": 12, "pace": 293000000000, "time": 2493.1}}, "weekday": "wednesday", "livingplace": "Vufflens la Ville"}, "mer. 04.09.2013": {"year": 2013, "day": 4, "month": 9, "categories": {"H-Jun": {"distance": 9, "rank": 9, "pace": 265000000000, "time": 2260.2}}, "weekday": "wednesday", "livingplace": "Vufflens la Ville"}}, "location": "Chavornay"}, "Tour du pays de Vaud #1 - Penthaz": {"latitude": 46.5993131, "longitude": 6.539251200000001, "race": "Tour du pays de Vaud #1 - Penthaz", "date": {"mer. 14.08.2013": {"year": 2013, "day": 14, "month": 8, "categories": {"H-Jun": {"distance": 9, "rank": 6, "pace": 262000000000, "time": 2241.1}}, "weekday": "wednesday", "livingplace": "Vufflens la Ville"}, "mer. 08.08.2012": {"year": 2012, "day": 8, "month": 8, "categories": {"H-Jun": {"distance": 9, "rank": 15, "pace": 294000000000, "time": 2514.9}}, "weekday": "wednesday", "livingplace": "Vufflens la Ville"}}, "location": "Penthaz"}, "Tour du Pays de Vaud printanier #2 Yens": {"latitude": 46.6698891, "longitude": 6.7975224, "race": "Tour du Pays de Vaud printanier #2 Yens", "date": {"mer. 06.06.2012": {"year": 2012, "day": 6, "month": 6, "categories": {"H-Jun": {"distance": 9, "rank": 6, "pace": 289000000000, "time": 2635.8}}, "weekday": "wednesday", "livingplace": "Vufflens la Ville"}}, "location": "Moudon"}}, "birth": 1994}