{"name": "Kerr Andrew", "sex": "M", "races": {"Tour du Chablais #1 Roche": {"latitude": 46.2957462, "longitude": 6.9916269, "race": "Tour du Chablais #1 Roche", "date": {"mer. 07.04.2010": {"year": 2010, "day": 7, "month": 4, "categories": {"M-M40": {"distance": 9, "rank": 157, "pace": 313000000000, "time": 2804.9}}, "weekday": "wednesday", "livingplace": "Val d'Illiez"}, "mer. 03.04.2013": {"year": 2013, "day": 3, "month": 4, "categories": {"M-M40": {"distance": 9, "rank": 82, "pace": 281000000000, "time": 2493.5}}, "weekday": "wednesday", "livingplace": "Val d'Illiez"}}, "location": "Ollon VD"}, "Tour du Chablais #6 Monthey": {"latitude": 46.3190253, "longitude": 6.970566, "race": "Tour du Chablais #6 Monthey", "date": {"mer. 08.05.2013": {"year": 2013, "day": 8, "month": 5, "categories": {"M-M40": {"distance": 9, "rank": 88, "pace": 280000000000, "time": 2617.5}}, "weekday": "wednesday", "livingplace": "Val d'Illiez"}}, "location": "Aigle"}, "Tour du Chablais #4 St  Maurice": {"latitude": NaN, "longitude": NaN, "race": "Tour du Chablais #4 St  Maurice", "date": {"mer. 24.04.2013": {"year": 2013, "day": 24, "month": 4, "categories": {"M-M40": {"distance": 10, "rank": 96, "pace": 293000000000, "time": 2934.8}}, "weekday": "wednesday", "livingplace": "Val d'Illiez"}}, "location": "Les Mosses"}, "Morat-Fribourg": {"latitude": 46.92922110000001, "longitude": 7.120184, "race": "Morat-Fribourg", "date": {"dim. 06.10.2002": {"year": 2002, "day": 6, "month": 10, "categories": {"M20": {"distance": 17, "rank": 1180, "pace": 295000000000, "time": 5074.1}}, "weekday": "sunday", "livingplace": "Val d'Illiez"}}, "location": "Murten"}, "Tour du Chablais #5 Morgins": {"latitude": 46.3603257, "longitude": 6.931504599999999, "race": "Tour du Chablais #5 Morgins", "date": {"mer. 01.05.2013": {"year": 2013, "day": 1, "month": 5, "categories": {"M-M40": {"distance": 8, "rank": 81, "pace": 304000000000, "time": 2313.2}}, "weekday": "wednesday", "livingplace": "Val d'Illiez"}}, "location": "Roche VD"}, "20km de Lausanne": {"latitude": 46.5196535, "longitude": 6.6322734, "race": "20km de Lausanne", "date": {"sam. 28.04.2012": {"year": 2012, "day": 28, "month": 4, "categories": {"20-H45": {"distance": 20, "rank": 164, "pace": 303000000000, "time": 6068.9}}, "weekday": "saturday", "livingplace": "API team 3"}, "sam. 25.04.2015": {"year": 2015, "day": 25, "month": 4, "categories": {"20-H50": {"distance": 20, "rank": 184, "pace": 317000000000, "time": 6356.6}}, "weekday": "saturday", "livingplace": "API Team 3"}}, "location": "Lausanne"}, "Tour du Chablais #1 Lavey": {"latitude": 46.2957462, "longitude": 6.9916269, "race": "Tour du Chablais #1 Lavey", "date": {"mer. 27.04.2011": {"year": 2011, "day": 27, "month": 4, "categories": {"M-M40": {"distance": 9, "rank": 122, "pace": 306000000000, "time": 2759.6}}, "weekday": "wednesday", "livingplace": "Val d'Illiez"}}, "location": "Ollon VD"}, "Tour du Chablais #4 Champ\u00e9ry": {"latitude": NaN, "longitude": NaN, "race": "Tour du Chablais #4 Champ\u00e9ry", "date": {"mer. 02.05.2012": {"year": 2012, "day": 2, "month": 5, "categories": {"M-M40": {"distance": 8, "rank": 81, "pace": 284000000000, "time": 2363.3}}, "weekday": "wednesday", "livingplace": "Val d'Illiez"}}, "location": "Les Mosses"}, "Tour du Chablais #5 Leysin": {"latitude": 46.3603257, "longitude": 6.931504599999999, "race": "Tour du Chablais #5 Leysin", "date": {"mer. 05.05.2010": {"year": 2010, "day": 5, "month": 5, "categories": {"M-M40": {"distance": 8, "rank": 108, "pace": 344000000000, "time": 2913.2}}, "weekday": "wednesday", "livingplace": "Val d'Illiez"}}, "location": "Roche VD"}, "Tour du Chablais #6 Mouthey": {"latitude": 46.3190253, "longitude": 6.970566, "race": "Tour du Chablais #6 Mouthey", "date": {"mer. 12.05.2010": {"year": 2010, "day": 12, "month": 5, "categories": {"M-M40": {"distance": 9, "rank": 168, "pace": 322000000000, "time": 2962.3}}, "weekday": "wednesday", "livingplace": "Val d'Illiez"}}, "location": "Aigle"}, "Tour du Chablais #1 Montreux": {"latitude": 46.2957462, "longitude": 6.9916269, "race": "Tour du Chablais #1 Montreux", "date": {"mer. 11.04.2012": {"year": 2012, "day": 11, "month": 4, "categories": {"M-M40": {"distance": 8, "rank": 115, "pace": 304000000000, "time": 2313.7}}, "weekday": "wednesday", "livingplace": "Val d'Illiez"}}, "location": "Ollon VD"}, "Tour du Chablais #6 Aigle": {"latitude": 46.3190253, "longitude": 6.970566, "race": "Tour du Chablais #6 Aigle", "date": {"mer. 01.06.2011": {"year": 2011, "day": 1, "month": 6, "categories": {"M-M40": {"distance": 10, "rank": 97, "pace": 283000000000, "time": 2894.3}}, "weekday": "wednesday", "livingplace": "Val d'Illiez"}}, "location": "Aigle"}, "Tour du Chablais #2 St-Gingolph": {"latitude": 46.3835529, "longitude": 6.854975199999999, "race": "Tour du Chablais #2 St-Gingolph", "date": {"mer. 14.04.2010": {"year": 2010, "day": 14, "month": 4, "categories": {"M-M40": {"distance": 8, "rank": 171, "pace": 364000000000, "time": 3044.3}}, "weekday": "wednesday", "livingplace": "Val d'Illiez"}}, "location": "Bouveret"}, "Tour du Chablais #4 Yvorne": {"latitude": NaN, "longitude": NaN, "race": "Tour du Chablais #4 Yvorne", "date": {"mer. 28.04.2010": {"year": 2010, "day": 28, "month": 4, "categories": {"M-M40": {"distance": 8, "rank": 167, "pace": 359000000000, "time": 2977.9}}, "weekday": "wednesday", "livingplace": "Val d'Illiez"}}, "location": "Les Mosses"}, "Tour du Chablais #2 Bex": {"latitude": 46.3835529, "longitude": 6.854975199999999, "race": "Tour du Chablais #2 Bex", "date": {"mer. 18.04.2012": {"year": 2012, "day": 18, "month": 4, "categories": {"M-M40": {"distance": 8, "rank": 92, "pace": 285000000000, "time": 2286.4}}, "weekday": "wednesday", "livingplace": "Val d'Illiez"}}, "location": "Bouveret"}, "Tour du Chablais #6 Montreux": {"latitude": 46.3190253, "longitude": 6.970566, "race": "Tour du Chablais #6 Montreux", "date": {"mer. 16.05.2012": {"year": 2012, "day": 16, "month": 5, "categories": {"M-M40": {"distance": 9, "rank": 87, "pace": 272000000000, "time": 2523.1}}, "weekday": "wednesday", "livingplace": "Val d'Illiez"}}, "location": "Aigle"}}, "birth": 1964}