{"name": "Kesper Andr\u00e9", "sex": "M", "races": {"Gippinger Stauseelauf": {"latitude": 47.5810513, "longitude": 8.2152586, "race": "Gippinger Stauseelauf", "date": {"ven. 31.12.2004": {"year": 2004, "day": 31, "month": 12, "categories": {"M30": {"distance": 8, "rank": 86, "pace": 264000000000, "time": 1980.1}}, "weekday": "friday", "livingplace": "Winterthur"}}, "location": "Leuggern"}, "ASICS Bremgarter Reusslauf": {"latitude": 47.34917739999999, "longitude": 8.3397905, "race": "ASICS Bremgarter Reusslauf", "date": {"sam. 23.02.2008": {"year": 2008, "day": 23, "month": 2, "categories": {"31": {"distance": 7, "rank": 44, "pace": 307000000000, "time": 1998.8}}, "weekday": "saturday", "livingplace": "Winterthur"}}, "location": "Bremgarten AG"}, "Laufsporttag Winterthur": {"latitude": 39.8088766, "longitude": -75.6037351, "race": "Laufsporttag Winterthur", "date": {"sam. 01.03.2008": {"year": 2008, "day": 1, "month": 3, "categories": {"C": {"distance": 11, "rank": 168, "pace": 318000000000, "time": 3498.7}}, "weekday": "saturday", "livingplace": "Winterthur"}}, "location": "Winterthur"}, "Dietiker Neujahrslauf, Dietikon": {"latitude": 47.4053885, "longitude": 8.39977, "race": "Dietiker Neujahrslauf, Dietikon", "date": {"sam. 08.01.2005": {"year": 2005, "day": 8, "month": 1, "categories": {"C": {"distance": 12, "rank": 148, "pace": 272000000000, "time": 3295.1}}, "weekday": "saturday", "livingplace": "Winterthur"}}, "location": "Dietikon"}, "Winterthur Marathon": {"latitude": 39.8088766, "longitude": -75.6037351, "race": "Winterthur Marathon", "date": {"dim. 25.05.2003": {"year": 2003, "day": 25, "month": 5, "categories": {"HM35": {"distance": 21, "rank": 42, "pace": 260000000000, "time": 5468.4}}, "weekday": "sunday", "livingplace": "Winterthur"}}, "location": "Winterthur"}, "Z\u00fcrcher Silvesterlauf, Z\u00fcrich": {"latitude": 47.3768866, "longitude": 8.541694, "race": "Z\u00fcrcher Silvesterlauf, Z\u00fcrich", "date": {"dim. 14.12.2008": {"year": 2008, "day": 14, "month": 12, "categories": {"MenAK2-8": {"distance": 9, "rank": 1182, "pace": 343000000000, "time": 2952.8}}, "weekday": "sunday", "livingplace": "Winterthur"}}, "location": "Z\u00fcrich"}}, "birth": 1965}