{"name": "Kieffer Florence", "sex": "F", "races": {"Tour du Chablais #2 Rennaz": {"latitude": 46.3835529, "longitude": 6.854975199999999, "race": "Tour du Chablais #2 Rennaz", "date": {"mer. 04.05.2011": {"year": 2011, "day": 4, "month": 5, "categories": {"F-F20": {"distance": 9, "rank": 90, "pace": 346000000000, "time": 3241.3}}, "weekday": "wednesday", "livingplace": "Fully"}}, "location": "Bouveret"}, "Tour du Chablais #5 Les Mosses": {"latitude": 46.3603257, "longitude": 6.931504599999999, "race": "Tour du Chablais #5 Les Mosses", "date": {"mer. 25.05.2011": {"year": 2011, "day": 25, "month": 5, "categories": {"F-F20": {"distance": 8, "rank": 82, "pace": 375000000000, "time": 3000.6}}, "weekday": "wednesday", "livingplace": "Fully"}}, "location": "Roche VD"}, "Tour du Chablais #3 Le Bouveret": {"latitude": 46.1782231, "longitude": 7.0223787, "race": "Tour du Chablais #3 Le Bouveret", "date": {"mer. 11.05.2011": {"year": 2011, "day": 11, "month": 5, "categories": {"F-F20": {"distance": 10, "rank": 93, "pace": 346000000000, "time": 3461.7}}, "weekday": "wednesday", "livingplace": "Fully"}}, "location": "Evionnaz"}, "Tour du Chablais #4 Morgins": {"latitude": NaN, "longitude": NaN, "race": "Tour du Chablais #4 Morgins", "date": {"mer. 18.05.2011": {"year": 2011, "day": 18, "month": 5, "categories": {"F-F20": {"distance": 8, "rank": 86, "pace": 366000000000, "time": 3057.0}}, "weekday": "wednesday", "livingplace": "Fully"}}, "location": "Les Mosses"}, "Tour du Chablais #6 Aigle": {"latitude": 46.3190253, "longitude": 6.970566, "race": "Tour du Chablais #6 Aigle", "date": {"mer. 01.06.2011": {"year": 2011, "day": 1, "month": 6, "categories": {"F-F20": {"distance": 10, "rank": 101, "pace": 336000000000, "time": 3430.6}}, "weekday": "wednesday", "livingplace": "Fully"}}, "location": "Aigle"}, "Tour du Chablais #1 Lavey": {"latitude": 46.2957462, "longitude": 6.9916269, "race": "Tour du Chablais #1 Lavey", "date": {"mer. 27.04.2011": {"year": 2011, "day": 27, "month": 4, "categories": {"F-F20": {"distance": 9, "rank": 99, "pace": 367000000000, "time": 3310.4}}, "weekday": "wednesday", "livingplace": "Fully"}}, "location": "Ollon VD"}, "Tour du Chablais #6 Montreux": {"latitude": 46.3190253, "longitude": 6.970566, "race": "Tour du Chablais #6 Montreux", "date": {"mer. 16.05.2012": {"year": 2012, "day": 16, "month": 5, "categories": {"F-F40": {"distance": 9, "rank": 71, "pace": 355000000000, "time": 3285.3}}, "weekday": "wednesday", "livingplace": "Fully"}}, "location": "Aigle"}}, "birth": 1972}