{"name": "Kilchenmann Stefan", "sex": "M", "races": {"Lucerne Marathon, Luzern": {"latitude": 47.05016819999999, "longitude": 8.3093072, "race": "Lucerne Marathon, Luzern", "date": {"dim. 28.10.2012": {"year": 2012, "day": 28, "month": 10, "categories": {"H-M50": {"distance": 21, "rank": 464, "pace": 338000000000, "time": 7146.1}}, "weekday": "sunday", "livingplace": "Koniz"}}, "location": "Luzern"}, "Glacier 3000 Run, Gstaad": {"latitude": 46.4717588, "longitude": 7.2865728, "race": "Glacier 3000 Run, Gstaad", "date": {"sam. 10.08.2013": {"year": 2013, "day": 10, "month": 8, "categories": {"M50": {"distance": 26, "rank": 54, "pace": 734000000000, "time": 19092.4}}, "weekday": "saturday", "livingplace": "Deportivo Quito"}}, "location": "Gstaad"}, "Morat-Fribourg": {"latitude": 46.92922110000001, "longitude": 7.120184, "race": "Morat-Fribourg", "date": {"sam. 01.10.2011": {"year": 2011, "day": 1, "month": 10, "categories": {"17-M50": {"distance": 17, "rank": 408, "pace": 356000000000, "time": 6122.1}}, "weekday": "saturday", "livingplace": "Schliern b. Koniz"}, "sam. 04.10.2014": {"year": 2014, "day": 4, "month": 10, "categories": {"17-M55": {"distance": 17, "rank": 267, "pace": 371000000000, "time": 6370.2}}, "weekday": "saturday", "livingplace": "Schliern b. Koniz"}}, "location": "Murten"}, "ASICS Bremgarter Reusslauf": {"latitude": 47.34917739999999, "longitude": 8.3397905, "race": "ASICS Bremgarter Reusslauf", "date": {"sam. 23.02.2013": {"year": 2013, "day": 23, "month": 2, "categories": {"11-M50": {"distance": 11, "rank": 331, "pace": 327000000000, "time": 3601.9}}, "weekday": "saturday", "livingplace": "Deportivo Quito"}}, "location": "Bremgarten AG"}, "Basler Stadtlauf": {"latitude": 47.5595986, "longitude": 7.5885761, "race": "Basler Stadtlauf", "date": {"sam. 28.11.2009": {"year": 2009, "day": 28, "month": 11, "categories": {"X": {"distance": 6, "rank": 291, "pace": 324000000000, "time": 1784.3}}, "weekday": "saturday", "livingplace": "Schliern b. Koniz"}}, "location": "Basel"}, "20km de Lausanne": {"latitude": 46.5196535, "longitude": 6.6322734, "race": "20km de Lausanne", "date": {"sam. 26.04.2014": {"year": 2014, "day": 26, "month": 4, "categories": {"20-H55": {"distance": 20, "rank": 114, "pace": 352000000000, "time": 7058.0}}, "weekday": "saturday", "livingplace": "Deportivo Quito"}}, "location": "Lausanne"}, "Aletsch-Halbmarathon, Bettmeralp": {"latitude": NaN, "longitude": NaN, "race": "Aletsch-Halbmarathon, Bettmeralp", "date": {"dim. 24.06.2012": {"year": 2012, "day": 24, "month": 6, "categories": {"M55": {"distance": 21, "rank": 98, "pace": 627000000000, "time": 13303.6}}, "weekday": "sunday", "livingplace": "Deportivo Quito"}}, "location": "Bettmeralp"}, "Bieler Lauftage, Biel Bienne": {"latitude": 47.1367785, "longitude": 7.2467909, "race": "Bieler Lauftage, Biel Bienne", "date": {"ven. 12.06.2009": {"year": 2009, "day": 12, "month": 6, "categories": {"H/M50": {"distance": 21, "rank": 50, "pace": 410000000000, "time": 8666.5}}, "weekday": "friday", "livingplace": "Koniz"}}, "location": "Biel/Bienne"}, "Int Greifenseelauf, Uster": {"latitude": 47.3482747, "longitude": 8.717873899999999, "race": "Int Greifenseelauf, Uster", "date": {"sam. 19.09.2009": {"year": 2009, "day": 19, "month": 9, "categories": {"H-M50": {"distance": 21, "rank": 625, "pace": 396000000000, "time": 8371.1}}, "weekday": "saturday", "livingplace": "Koniz"}}, "location": "Uster"}, "IWB Basel Marathon": {"latitude": 47.5595986, "longitude": 7.5885761, "race": "IWB Basel Marathon", "date": {"dim. 11.09.2011": {"year": 2011, "day": 11, "month": 9, "categories": {"H-21-M50": {"distance": 21, "rank": 47, "pace": 362000000000, "time": 7651.4}}, "weekday": "sunday", "livingplace": "Schliern b. Koniz"}}, "location": "Basel"}, "Ch\u00e4sitzerlouf, Kehrsatz": {"latitude": NaN, "longitude": NaN, "race": "Ch\u00e4sitzerlouf, Kehrsatz", "date": {"sam. 28.04.2012": {"year": 2012, "day": 28, "month": 4, "categories": {"12-M50": {"distance": 12, "rank": 83, "pace": 360000000000, "time": 4329.4}}, "weekday": "saturday", "livingplace": "Schliern b. Koniz"}}, "location": "Kehrsatz"}, "SwissCityMarathon - Lucerne, Luzern": {"latitude": 47.05016819999999, "longitude": 8.3093072, "race": "SwissCityMarathon - Lucerne, Luzern", "date": {"dim. 27.10.2013": {"year": 2013, "day": 27, "month": 10, "categories": {"H-M50": {"distance": 21, "rank": 399, "pace": 325000000000, "time": 6868.1}}, "weekday": "sunday", "livingplace": "Schliern b. Koniz"}}, "location": "Luzern"}, "Z\u00fcrich Marathon, Teamrun und Cityrun": {"latitude": 47.3768866, "longitude": 8.541694, "race": "Z\u00fcrich Marathon, Teamrun und Cityrun", "date": {"dim. 19.04.2015": {"year": 2015, "day": 19, "month": 4, "categories": {"10-M50": {"distance": 10, "rank": 145, "pace": 345000000000, "time": 3385.1}}, "weekday": "sunday", "livingplace": "Bern"}}, "location": "Z\u00fcrich"}, "Kerzerslauf": {"latitude": 46.97488999999999, "longitude": 7.1954365, "race": "Kerzerslauf", "date": {"sam. 19.03.2011": {"year": 2011, "day": 19, "month": 3, "categories": {"15-M50": {"distance": 15, "rank": 445, "pace": 365000000000, "time": 5489.1}}, "weekday": "saturday", "livingplace": "Schliern b. Koniz"}, "sam. 15.03.2014": {"year": 2014, "day": 15, "month": 3, "categories": {"15-M55": {"distance": 15, "rank": 272, "pace": 349000000000, "time": 5235.7}}, "weekday": "saturday", "livingplace": "Schliern b. Koniz"}, "sam. 17.03.2012": {"year": 2012, "day": 17, "month": 3, "categories": {"15-M55": {"distance": 15, "rank": 253, "pace": 357000000000, "time": 5369.6}}, "weekday": "saturday", "livingplace": "Schliern b. Koniz"}, "sam. 16.03.2013": {"year": 2013, "day": 16, "month": 3, "categories": {"15-M55": {"distance": 15, "rank": 241, "pace": 345000000000, "time": 5182.5}}, "weekday": "saturday", "livingplace": "Schliern b. Koniz"}}, "location": "Kerzers"}}, "birth": 1957}