{"name": "Kipfer Tristan", "sex": "M", "races": {"BCN Tour #1 Corcelles": {"latitude": 46.9668714, "longitude": 6.8589727, "race": "BCN Tour #1 Corcelles", "date": {"mer. 24.04.2013": {"year": 2013, "day": 24, "month": 4, "categories": {"HJ": {"distance": 10, "rank": 3, "pace": 217000000000, "time": 2129.8}}, "weekday": "wednesday", "livingplace": "Chaumont"}}, "location": "Colombier NE"}, "Morat-Fribourg": {"latitude": 46.92922110000001, "longitude": 7.120184, "race": "Morat-Fribourg", "date": {"sam. 05.10.2013": {"year": 2013, "day": 5, "month": 10, "categories": {"17-CadH": {"distance": 17, "rank": 1, "pace": 227000000000, "time": 3977.9}}, "weekday": "saturday", "livingplace": "Chaumont"}, "sam. 06.10.2012": {"year": 2012, "day": 6, "month": 10, "categories": {"17-CadH": {"distance": 17, "rank": 1, "pace": 233000000000, "time": 4082.9}}, "weekday": "saturday", "livingplace": "Chaumont"}, "sam. 03.10.2015": {"year": 2015, "day": 3, "month": 10, "categories": {"17-JunH": {"distance": 17, "rank": 1, "pace": 212000000000, "time": 3652.0}}, "weekday": "saturday", "livingplace": "Chaumont"}}, "location": "Murten"}, "D\u00e9fi Val-de-Travers, Couvet": {"latitude": 46.9262933, "longitude": 6.6324944, "race": "D\u00e9fi Val-de-Travers, Couvet", "date": {"sam. 21.06.2008": {"year": 2008, "day": 21, "month": 6, "categories": {"GA": {"distance": 3, "rank": 4, "pace": 243000000000, "time": 621.8}}, "weekday": "saturday", "livingplace": "Chaumont"}}, "location": "Couvet"}, "BCN Tour Le Landeron": {"latitude": 46.9668714, "longitude": 6.8589727, "race": "BCN Tour Le Landeron", "date": {"mer. 22.04.2009": {"year": 2009, "day": 22, "month": 4, "categories": {"KG3": {"distance": 4, "rank": 2, "pace": 221000000000, "time": 886.1}}, "weekday": "wednesday", "livingplace": "Corcelles"}}, "location": "Colombier NE"}, "Course p\u00e9destre Thyon-Dixence, Thyon": {"latitude": NaN, "longitude": NaN, "race": "Course p\u00e9destre Thyon-Dixence, Thyon", "date": {"dim. 03.08.2014": {"year": 2014, "day": 3, "month": 8, "categories": {"JunHom": {"distance": 16, "rank": 7, "pace": 342000000000, "time": 5603.6}}, "weekday": "sunday", "livingplace": "Chaumont"}}, "location": "Thyon-Les Collons"}, "BCN Tour Ponts-de-Martel": {"latitude": 47.0624261, "longitude": 6.9175754, "race": "BCN Tour Ponts-de-Martel", "date": {"mer. 28.04.2010": {"year": 2010, "day": 28, "month": 4, "categories": {"KG4": {"distance": 4, "rank": 3, "pace": 193000000000, "time": 812.4}}, "weekday": "wednesday", "livingplace": "Chaumont"}}, "location": "Ch\u00e9zard-St-Martin"}, "BCN Tour Auvernier": {"latitude": 46.9668714, "longitude": 6.8589727, "race": "BCN Tour Auvernier", "date": {"mer. 20.04.2011": {"year": 2011, "day": 20, "month": 4, "categories": {"HJ": {"distance": 11, "rank": 4, "pace": 253000000000, "time": 2736.2}}, "weekday": "wednesday", "livingplace": "Chaumont"}}, "location": "Colombier NE"}, "BCN Tour #4 Fleurier": {"latitude": 47.1034892, "longitude": 6.832783800000001, "race": "BCN Tour #4 Fleurier", "date": {"mer. 15.05.2013": {"year": 2013, "day": 15, "month": 5, "categories": {"HJ": {"distance": 9, "rank": 3, "pace": 217000000000, "time": 1877.7}}, "weekday": "wednesday", "livingplace": "Chaumont"}}, "location": "La Chaux-de-Fonds"}, "BCN Tour #2 La Chaux-de-Fonds": {"latitude": 47.0624261, "longitude": 6.9175754, "race": "BCN Tour #2 La Chaux-de-Fonds", "date": {"mer. 01.05.2013": {"year": 2013, "day": 1, "month": 5, "categories": {"HJ": {"distance": 11, "rank": 3, "pace": 219000000000, "time": 2350.7}}, "weekday": "wednesday", "livingplace": "Chaumont"}}, "location": "Ch\u00e9zard-St-Martin"}, "BCN Tour La Chaux-de-Fonds": {"latitude": 47.1034892, "longitude": 6.832783800000001, "race": "BCN Tour La Chaux-de-Fonds", "date": {"mer. 23.05.2012": {"year": 2012, "day": 23, "month": 5, "categories": {"HJ": {"distance": 11, "rank": 2, "pace": 227000000000, "time": 2458.4}}, "weekday": "wednesday", "livingplace": "Chaumont"}, "mer. 11.05.2011": {"year": 2011, "day": 11, "month": 5, "categories": {"KG4": {"distance": 4, "rank": 1, "pace": 164000000000, "time": 639.7}}, "weekday": "wednesday", "livingplace": "Chaumont"}}, "location": "La Chaux-de-Fonds"}, "BCN Tour Les Ponts-de-Martel": {"latitude": 46.999113, "longitude": 6.733554799999999, "race": "BCN Tour Les Ponts-de-Martel", "date": {"mer. 09.05.2012": {"year": 2012, "day": 9, "month": 5, "categories": {"HJ": {"distance": 10, "rank": 5, "pace": 239000000000, "time": 2464.5}}, "weekday": "wednesday", "livingplace": "Chaumont"}}, "location": "Les Ponts-de-Martel"}, "BCN Tour Neuch\u00e2tel": {"latitude": 46.9899874, "longitude": 6.9292732, "race": "BCN Tour Neuch\u00e2tel", "date": {"mer. 26.05.2010": {"year": 2010, "day": 26, "month": 5, "categories": {"KG4": {"distance": 3, "rank": 5, "pace": 182000000000, "time": 621.8}}, "weekday": "wednesday", "livingplace": "Chaumont"}, "mer. 30.05.2012": {"year": 2012, "day": 30, "month": 5, "categories": {"HJ": {"distance": 11, "rank": 2, "pace": 239000000000, "time": 2681.7}}, "weekday": "wednesday", "livingplace": "Chaumont"}, "mer. 25.05.2011": {"year": 2011, "day": 25, "month": 5, "categories": {"KG4": {"distance": 4, "rank": 2, "pace": 200000000000, "time": 727.8}}, "weekday": "wednesday", "livingplace": "Chaumont"}}, "location": "Neuch\u00e2tel"}, "BCN Tour #5 Colombier": {"latitude": 46.9262933, "longitude": 6.6324944, "race": "BCN Tour #5 Colombier", "date": {"mer. 22.05.2013": {"year": 2013, "day": 22, "month": 5, "categories": {"HJ": {"distance": 11, "rank": 2, "pace": 210000000000, "time": 2209.7}}, "weekday": "wednesday", "livingplace": "Chaumont"}}, "location": "Couvet"}, "BCN Tour Cornaux": {"latitude": 46.9668714, "longitude": 6.8589727, "race": "BCN Tour Cornaux", "date": {"mer. 25.04.2012": {"year": 2012, "day": 25, "month": 4, "categories": {"HJ": {"distance": 11, "rank": 2, "pace": 253000000000, "time": 2786.9}}, "weekday": "wednesday", "livingplace": "Chaumont"}}, "location": "Colombier NE"}, "BCN Tour #3 Dombresson": {"latitude": 46.999113, "longitude": 6.733554799999999, "race": "BCN Tour #3 Dombresson", "date": {"mer. 08.05.2013": {"year": 2013, "day": 8, "month": 5, "categories": {"HJ": {"distance": 10, "rank": 2, "pace": 216000000000, "time": 2142.4}}, "weekday": "wednesday", "livingplace": "Chaumont"}}, "location": "Les Ponts-de-Martel"}, "BCN Tour M\u00f4tier": {"latitude": 46.9262933, "longitude": 6.6324944, "race": "BCN Tour M\u00f4tier", "date": {"mer. 19.05.2010": {"year": 2010, "day": 19, "month": 5, "categories": {"KG4": {"distance": 4, "rank": 3, "pace": 228000000000, "time": 868.0}}, "weekday": "wednesday", "livingplace": "Chaumont"}}, "location": "Couvet"}, "BCN Tour Fontaine Cernier": {"latitude": 47.0624261, "longitude": 6.9175754, "race": "BCN Tour Fontaine Cernier", "date": {"mer. 27.04.2011": {"year": 2011, "day": 27, "month": 4, "categories": {"KG4": {"distance": 3, "rank": 1, "pace": 233000000000, "time": 700.7}}, "weekday": "wednesday", "livingplace": "Chaumont"}}, "location": "Ch\u00e9zard-St-Martin"}, "Sierre-Zinal, Sierre": {"latitude": 46.29413110000001, "longitude": 7.533536199999999, "race": "Sierre-Zinal, Sierre", "date": {"dim. 12.08.2012": {"year": 2012, "day": 12, "month": 8, "categories": {"Jun_Homm": {"distance": 19, "rank": 7, "pace": 310000000000, "time": 5904.9}}, "weekday": "sunday", "livingplace": "Chaumont"}}, "location": "Sierre"}, "BCN Tour Le Locle": {"latitude": 46.999113, "longitude": 6.733554799999999, "race": "BCN Tour Le Locle", "date": {"mer. 05.05.2010": {"year": 2010, "day": 5, "month": 5, "categories": {"KG4": {"distance": 4, "rank": 3, "pace": 210000000000, "time": 779.0}}, "weekday": "wednesday", "livingplace": "Chaumont"}}, "location": "Les Ponts-de-Martel"}, "BCN Tour Couvet": {"latitude": 47.0624261, "longitude": 6.9175754, "race": "BCN Tour Couvet", "date": {"mer. 02.05.2012": {"year": 2012, "day": 2, "month": 5, "categories": {"HJ": {"distance": 11, "rank": 2, "pace": 235000000000, "time": 2625.5}}, "weekday": "wednesday", "livingplace": "Chaumont"}}, "location": "Ch\u00e9zard-St-Martin"}, "Aletsch-Halbmarathon, Bettmeralp": {"latitude": NaN, "longitude": NaN, "race": "Aletsch-Halbmarathon, Bettmeralp", "date": {"dim. 29.06.2014": {"year": 2014, "day": 29, "month": 6, "categories": {"MU20": {"distance": 13, "rank": 1, "pace": 260000000000, "time": 3464.4}}, "weekday": "sunday", "livingplace": "Chaumont"}}, "location": "Bettmeralp"}, "Kerzerslauf": {"latitude": 46.97488999999999, "longitude": 7.1954365, "race": "Kerzerslauf", "date": {"sam. 15.03.2008": {"year": 2008, "day": 15, "month": 3, "categories": {"2/M13": {"distance": 1, "rank": 16, "pace": 208000000000, "time": 291.7}}, "weekday": "saturday", "livingplace": "Chaumont"}}, "location": "Kerzers"}, "BCN Tour #6 Neuch\u00e2tel": {"latitude": 46.9899874, "longitude": 6.9292732, "race": "BCN Tour #6 Neuch\u00e2tel", "date": {"mer. 29.05.2013": {"year": 2013, "day": 29, "month": 5, "categories": {"HJ": {"distance": 11, "rank": 1, "pace": 226000000000, "time": 2489.9}}, "weekday": "wednesday", "livingplace": "Chaumont"}}, "location": "Neuch\u00e2tel"}, "BCN Tour La Br\u00e9vine": {"latitude": 46.999113, "longitude": 6.733554799999999, "race": "BCN Tour La Br\u00e9vine", "date": {"mer. 04.05.2011": {"year": 2011, "day": 4, "month": 5, "categories": {"KG4": {"distance": 4, "rank": 1, "pace": 215000000000, "time": 818.8}}, "weekday": "wednesday", "livingplace": "Chaumont"}}, "location": "Les Ponts-de-Martel"}, "Groupe E Tour Fribourg #3, Kerzers": {"latitude": 46.97488999999999, "longitude": 7.1954365, "race": "Groupe E Tour Fribourg #3, Kerzers", "date": {"mer. 03.09.2014": {"year": 2014, "day": 3, "month": 9, "categories": {"H-Jun": {"distance": 10, "rank": 1, "pace": 215000000000, "time": 2187.7}}, "weekday": "wednesday", "livingplace": "Chaumont"}}, "location": "Kerzers"}, "BCN Tour Les Ponts de Martel": {"latitude": 46.9262933, "longitude": 6.6324944, "race": "BCN Tour Les Ponts de Martel", "date": {"mer. 18.05.2011": {"year": 2011, "day": 18, "month": 5, "categories": {"KG4": {"distance": 4, "rank": 2, "pace": 203000000000, "time": 793.8}}, "weekday": "wednesday", "livingplace": "Chaumont"}}, "location": "Couvet"}, "BCN Tour Boudry": {"latitude": 46.9668714, "longitude": 6.8589727, "race": "BCN Tour Boudry", "date": {"mer. 26.04.2006": {"year": 2006, "day": 26, "month": 4, "categories": {"KG2": {"distance": 2, "rank": 14, "pace": 266000000000, "time": 506.0}}, "weekday": "wednesday", "livingplace": "Chaumont"}}, "location": "Colombier NE"}, "BCN Tour La Chaux-de-fonds": {"latitude": 47.1034892, "longitude": 6.832783800000001, "race": "BCN Tour La Chaux-de-fonds", "date": {"mer. 12.05.2010": {"year": 2010, "day": 12, "month": 5, "categories": {"KG4": {"distance": 4, "rank": 3, "pace": 208000000000, "time": 813.0}}, "weekday": "wednesday", "livingplace": "Chaumont"}}, "location": "La Chaux-de-Fonds"}, "BCN Tour Colombier": {"latitude": 46.9668714, "longitude": 6.8589727, "race": "BCN Tour Colombier", "date": {"mer. 16.05.2012": {"year": 2012, "day": 16, "month": 5, "categories": {"HJ": {"distance": 11, "rank": 1, "pace": 227000000000, "time": 2453.9}}, "weekday": "wednesday", "livingplace": "Chaumont"}, "mer. 23.04.2008": {"year": 2008, "day": 23, "month": 4, "categories": {"KG3": {"distance": 4, "rank": 9, "pace": 261000000000, "time": 1046.1}}, "weekday": "wednesday", "livingplace": "Corcelles"}, "mer. 21.04.2010": {"year": 2010, "day": 21, "month": 4, "categories": {"KG4": {"distance": 4, "rank": 2, "pace": 219000000000, "time": 878.9}}, "weekday": "wednesday", "livingplace": "Chaumont"}}, "location": "Colombier NE"}}, "birth": 1996}