{"name": "Kipfer Robin", "sex": "M", "races": {"BCN Tour Couvet": {"latitude": 47.0624261, "longitude": 6.9175754, "race": "BCN Tour Couvet", "date": {"mer. 02.05.2012": {"year": 2012, "day": 2, "month": 5, "categories": {"HJ": {"distance": 11, "rank": 14, "pace": 276000000000, "time": 3082.4}}, "weekday": "wednesday", "livingplace": "Chaumont"}}, "location": "Ch\u00e9zard-St-Martin"}, "Morat-Fribourg": {"latitude": 46.92922110000001, "longitude": 7.120184, "race": "Morat-Fribourg", "date": {"sam. 05.10.2013": {"year": 2013, "day": 5, "month": 10, "categories": {"17-JunH": {"distance": 17, "rank": 5, "pace": 246000000000, "time": 4308.3}}, "weekday": "saturday", "livingplace": "Chaumont"}}, "location": "Murten"}, "BCN Tour #1 Corcelles": {"latitude": 46.9668714, "longitude": 6.8589727, "race": "BCN Tour #1 Corcelles", "date": {"mer. 24.04.2013": {"year": 2013, "day": 24, "month": 4, "categories": {"HJ": {"distance": 10, "rank": 7, "pace": 244000000000, "time": 2398.8}}, "weekday": "wednesday", "livingplace": "Chaumont"}}, "location": "Colombier NE"}, "BCN Tour #4 Fleurier": {"latitude": 47.1034892, "longitude": 6.832783800000001, "race": "BCN Tour #4 Fleurier", "date": {"mer. 15.05.2013": {"year": 2013, "day": 15, "month": 5, "categories": {"HJ": {"distance": 9, "rank": 10, "pace": 245000000000, "time": 2124.7}}, "weekday": "wednesday", "livingplace": "Chaumont"}}, "location": "La Chaux-de-Fonds"}, "BCN Tour Colombier": {"latitude": 46.9668714, "longitude": 6.8589727, "race": "BCN Tour Colombier", "date": {"mer. 16.05.2012": {"year": 2012, "day": 16, "month": 5, "categories": {"HJ": {"distance": 11, "rank": 35, "pace": 289000000000, "time": 3130.0}}, "weekday": "wednesday", "livingplace": "Chaumont"}, "mer. 23.04.2008": {"year": 2008, "day": 23, "month": 4, "categories": {"KG4": {"distance": 4, "rank": 8, "pace": 257000000000, "time": 1031.0}}, "weekday": "wednesday", "livingplace": "Chaumont"}}, "location": "Colombier NE"}, "BCN Tour La Chaux-de-Fonds": {"latitude": 46.9262933, "longitude": 6.6324944, "race": "BCN Tour La Chaux-de-Fonds", "date": {"mer. 23.05.2012": {"year": 2012, "day": 23, "month": 5, "categories": {"HJ": {"distance": 11, "rank": 17, "pace": 272000000000, "time": 2944.3}}, "weekday": "wednesday", "livingplace": "Chaumont"}}, "location": "Couvet"}, "BCN Tour #6 Neuch\u00e2tel": {"latitude": 46.9899874, "longitude": 6.9292732, "race": "BCN Tour #6 Neuch\u00e2tel", "date": {"mer. 29.05.2013": {"year": 2013, "day": 29, "month": 5, "categories": {"HJ": {"distance": 11, "rank": 5, "pace": 244000000000, "time": 2688.0}}, "weekday": "wednesday", "livingplace": "Chaumont"}}, "location": "Neuch\u00e2tel"}, "BCN Tour Les Ponts-de-Martel": {"latitude": 46.999113, "longitude": 6.733554799999999, "race": "BCN Tour Les Ponts-de-Martel", "date": {"mer. 09.05.2012": {"year": 2012, "day": 9, "month": 5, "categories": {"HJ": {"distance": 10, "rank": 14, "pace": 268000000000, "time": 2770.6}}, "weekday": "wednesday", "livingplace": "Chaumont"}}, "location": "Les Ponts-de-Martel"}, "BCN Tour Neuch\u00e2tel": {"latitude": 46.9899874, "longitude": 6.9292732, "race": "BCN Tour Neuch\u00e2tel", "date": {"mer. 26.05.2010": {"year": 2010, "day": 26, "month": 5, "categories": {"HJ": {"distance": 10, "rank": 33, "pace": 315000000000, "time": 3061.2}}, "weekday": "wednesday", "livingplace": "Chaumont"}, "mer. 30.05.2012": {"year": 2012, "day": 30, "month": 5, "categories": {"HJ": {"distance": 11, "rank": 21, "pace": 289000000000, "time": 3243.3}}, "weekday": "wednesday", "livingplace": "Chaumont"}}, "location": "Neuch\u00e2tel"}, "BCN Tour #5 Colombier": {"latitude": 46.9262933, "longitude": 6.6324944, "race": "BCN Tour #5 Colombier", "date": {"mer. 22.05.2013": {"year": 2013, "day": 22, "month": 5, "categories": {"HJ": {"distance": 11, "rank": 7, "pace": 228000000000, "time": 2394.1}}, "weekday": "wednesday", "livingplace": "Chaumont"}}, "location": "Couvet"}, "BCN Tour Boudry": {"latitude": 46.9668714, "longitude": 6.8589727, "race": "BCN Tour Boudry", "date": {"mer. 26.04.2006": {"year": 2006, "day": 26, "month": 4, "categories": {"KG3": {"distance": 3, "rank": 23, "pace": 253000000000, "time": 835.1}}, "weekday": "wednesday", "livingplace": "Chaumont"}}, "location": "Colombier NE"}, "BCN Tour #2 La Chaux-de-Fonds": {"latitude": 47.0624261, "longitude": 6.9175754, "race": "BCN Tour #2 La Chaux-de-Fonds", "date": {"mer. 01.05.2013": {"year": 2013, "day": 1, "month": 5, "categories": {"HJ": {"distance": 11, "rank": 7, "pace": 239000000000, "time": 2559.0}}, "weekday": "wednesday", "livingplace": "Chaumont"}}, "location": "Ch\u00e9zard-St-Martin"}, "BCN Tour Cornaux": {"latitude": 46.9668714, "longitude": 6.8589727, "race": "BCN Tour Cornaux", "date": {"mer. 25.04.2012": {"year": 2012, "day": 25, "month": 4, "categories": {"HJ": {"distance": 11, "rank": 10, "pace": 285000000000, "time": 3142.3}}, "weekday": "wednesday", "livingplace": "Chaumont"}}, "location": "Colombier NE"}, "BCN Tour #3 Dombresson": {"latitude": 46.999113, "longitude": 6.733554799999999, "race": "BCN Tour #3 Dombresson", "date": {"mer. 08.05.2013": {"year": 2013, "day": 8, "month": 5, "categories": {"HJ": {"distance": 10, "rank": 6, "pace": 241000000000, "time": 2393.0}}, "weekday": "wednesday", "livingplace": "Chaumont"}}, "location": "Les Ponts-de-Martel"}}, "birth": 1994}