{"name": "Kirsch Sophia", "sex": "F", "races": {"Derendinger Abendlauf, Derendingen": {"latitude": 47.1952433, "longitude": 7.585593099999999, "race": "Derendinger Abendlauf, Derendingen", "date": {"ven. 29.06.2012": {"year": 2012, "day": 29, "month": 6, "categories": {"F40": {"distance": 10, "rank": 15, "pace": 333000000000, "time": 3396.6}}, "weekday": "friday", "livingplace": "Bettlach"}}, "location": "Derendingen"}, "Gurtenclassic, Wabern": {"latitude": 46.92901639999999, "longitude": 7.448973199999999, "race": "Gurtenclassic, Wabern", "date": {"dim. 02.11.2014": {"year": 2014, "day": 2, "month": 11, "categories": {"DW": {"distance": 22, "rank": 13, "pace": 429000000000, "time": 9366.1}}, "weekday": "sunday", "livingplace": "Bettlach"}}, "location": "Wabern"}, "Gempenlauf, Dornach": {"latitude": 47.4790491, "longitude": 7.6170412, "race": "Gempenlauf, Dornach", "date": {"mer. 02.06.2010": {"year": 2010, "day": 2, "month": 6, "categories": {"F35": {"distance": 8, "rank": 3, "pace": 338000000000, "time": 2639.6}}, "weekday": "wednesday", "livingplace": "Bettlach"}, "mer. 06.06.2012": {"year": 2012, "day": 6, "month": 6, "categories": {"F40": {"distance": 8, "rank": 6, "pace": 341000000000, "time": 2666.7}}, "weekday": "wednesday", "livingplace": "Bettlach"}}, "location": "Dornach"}, "Schweizer Frauenlauf Bern": {"latitude": 46.9479739, "longitude": 7.4474468, "race": "Schweizer Frauenlauf Bern", "date": {"dim. 14.06.2009": {"year": 2009, "day": 14, "month": 6, "categories": {"10-W35": {"distance": 10, "rank": 47, "pace": 293000000000, "time": 2938.9}}, "weekday": "sunday", "livingplace": "Bettlach"}}, "location": "Bern"}, "Hallwilerseelauf, Beinwil am See": {"latitude": NaN, "longitude": NaN, "race": "Hallwilerseelauf, Beinwil am See", "date": {"sam. 11.10.2014": {"year": 2014, "day": 11, "month": 10, "categories": {"10-Frau": {"distance": 10, "rank": 42, "pace": 278000000000, "time": 2783.5}}, "weekday": "saturday", "livingplace": "Bettlach"}}, "location": "Beinwil am See"}, "Kerzerslauf": {"latitude": 46.97488999999999, "longitude": 7.1954365, "race": "Kerzerslauf", "date": {"sam. 21.03.2015": {"year": 2015, "day": 21, "month": 3, "categories": {"15-F40": {"distance": 15, "rank": 32, "pace": 284000000000, "time": 4271.7}}, "weekday": "saturday", "livingplace": "Bettlach"}}, "location": "Kerzers"}}, "birth": 1972}