{"name": "Kissinger-Matray Dana", "sex": "F", "races": {"Morat-Fribourg": {"latitude": 46.92922110000001, "longitude": 7.120184, "race": "Morat-Fribourg", "date": {"dim. 05.10.2003": {"year": 2003, "day": 5, "month": 10, "categories": {"W35": {"distance": 17, "rank": 62, "pace": 315000000000, "time": 5412.5}}, "weekday": "sunday", "livingplace": "Villars sous Yens"}}, "location": "Murten"}, "Semi-Marathon de la C\u00f4te, Allaman-Nyon": {"latitude": 46.3832683, "longitude": 6.2347852, "race": "Semi-Marathon de la C\u00f4te, Allaman-Nyon", "date": {"dim. 14.09.2014": {"year": 2014, "day": 14, "month": 9, "categories": {"21-F50": {"distance": 21, "rank": 24, "pace": 343000000000, "time": 7254.2}}, "weekday": "sunday", "livingplace": "Villars sous Yens"}}, "location": "Nyon"}, "Tour du Pays de Vaud etape 3 - Aubonne": {"latitude": 46.7829756, "longitude": 6.5728678, "race": "Tour du Pays de Vaud etape 3 - Aubonne", "date": {"mer. 27.08.2008": {"year": 2008, "day": 27, "month": 8, "categories": {"DamSen2": {"distance": 8, "rank": 14, "pace": 338000000000, "time": 2639.8}}, "weekday": "wednesday", "livingplace": "Villars sous Yens"}}, "location": "Champvent"}, "Tour du Pays de Vaud etape 1 - Le Mont sur Lausanne": {"latitude": 46.7784736, "longitude": 6.641183, "race": "Tour du Pays de Vaud etape 1 - Le Mont sur Lausanne", "date": {"mer. 13.08.2008": {"year": 2008, "day": 13, "month": 8, "categories": {"DamSen2": {"distance": 8, "rank": 19, "pace": 306000000000, "time": 2578.0}}, "weekday": "wednesday", "livingplace": "Villars sous Yens"}}, "location": "Yverdon-les-Bains"}, "20km de Lausanne": {"latitude": 46.5196535, "longitude": 6.6322734, "race": "20km de Lausanne", "date": {"sam. 30.04.2011": {"year": 2011, "day": 30, "month": 4, "categories": {"10-F45": {"distance": 10, "rank": 21, "pace": 308000000000, "time": 3083.0}}, "weekday": "saturday", "livingplace": "Villars sous Yens"}, "sam. 25.04.2015": {"year": 2015, "day": 25, "month": 4, "categories": {"20-F50": {"distance": 20, "rank": 25, "pace": 327000000000, "time": 6556.9}}, "weekday": "saturday", "livingplace": "Villars sous Yens"}, "sam. 22.04.2006": {"year": 2006, "day": 22, "month": 4, "categories": {"20/F40": {"distance": 20, "rank": 28, "pace": 321000000000, "time": 6437.6}}, "weekday": "saturday", "livingplace": "Villars sous Yens"}}, "location": "Lausanne"}, "Schweizer Frauenlauf Bern": {"latitude": 46.9479739, "longitude": 7.4474468, "race": "Schweizer Frauenlauf Bern", "date": {"dim. 15.06.2003": {"year": 2003, "day": 15, "month": 6, "categories": {"W35": {"distance": 5, "rank": 50, "pace": 266000000000, "time": 1333.6}}, "weekday": "sunday", "livingplace": "Villars sous Yens"}}, "location": "Bern"}, "Int Greifenseelauf, Uster": {"latitude": 47.3482747, "longitude": 8.717873899999999, "race": "Int Greifenseelauf, Uster", "date": {"sam. 20.09.2003": {"year": 2003, "day": 20, "month": 9, "categories": {"H/W35": {"distance": 21, "rank": 89, "pace": 333000000000, "time": 7037.7}}, "weekday": "saturday", "livingplace": "Villars sous Yens"}}, "location": "Uster"}}, "birth": 1964}