{"name": "Kn\u00f6ll Ingo", "sex": "M", "races": {"Tour du pays de Vaud #1 \u2013 St  Prex": {"latitude": 46.7784736, "longitude": 6.641183, "race": "Tour du pays de Vaud #1 \u2013 St  Prex", "date": {"mer. 11.08.2010": {"year": 2010, "day": 11, "month": 8, "categories": {"HSen2": {"distance": 8, "rank": 92, "pace": 309000000000, "time": 2601.9}}, "weekday": "wednesday", "livingplace": "Nyon"}}, "location": "Yverdon-les-Bains"}, "20km de Lausanne": {"latitude": 46.5196535, "longitude": 6.6322734, "race": "20km de Lausanne", "date": {"sam. 28.04.2012": {"year": 2012, "day": 28, "month": 4, "categories": {"10-H45": {"distance": 10, "rank": 41, "pace": 271000000000, "time": 2714.1}}, "weekday": "saturday", "livingplace": "Nyon"}, "sam. 26.04.2014": {"year": 2014, "day": 26, "month": 4, "categories": {"20-H45": {"distance": 20, "rank": 89, "pace": 276000000000, "time": 5527.5}}, "weekday": "saturday", "livingplace": "Nyon"}}, "location": "Lausanne"}, "Morat-Fribourg": {"latitude": 46.92922110000001, "longitude": 7.120184, "race": "Morat-Fribourg", "date": {"dim. 05.10.2003": {"year": 2003, "day": 5, "month": 10, "categories": {"M20": {"distance": 17, "rank": 999, "pace": 288000000000, "time": 4949.8}}, "weekday": "sunday", "livingplace": "Nyon"}}, "location": "Murten"}, "Tour du pays de Vaud #1 - Mezi\u00e8res": {"latitude": 46.7784736, "longitude": 6.641183, "race": "Tour du pays de Vaud #1 - Mezi\u00e8res", "date": {"mer. 10.08.2011": {"year": 2011, "day": 10, "month": 8, "categories": {"H-Sen2": {"distance": 9, "rank": 74, "pace": 271000000000, "time": 2307.1}}, "weekday": "wednesday", "livingplace": "Nyon"}}, "location": "Yverdon-les-Bains"}, "Tour du pays de Vaud #1 - Penthaz": {"latitude": 46.5993131, "longitude": 6.539251200000001, "race": "Tour du pays de Vaud #1 - Penthaz", "date": {"mer. 08.08.2012": {"year": 2012, "day": 8, "month": 8, "categories": {"H-Sen2": {"distance": 9, "rank": 44, "pace": 270000000000, "time": 2308.4}}, "weekday": "wednesday", "livingplace": "Nyon"}}, "location": "Penthaz"}, "Noviodurun, Nyon": {"latitude": 46.3832683, "longitude": 6.2347852, "race": "Noviodurun, Nyon", "date": {"sam. 01.11.2014": {"year": 2014, "day": 1, "month": 11, "categories": {"Hom3": {"distance": 6, "rank": 19, "pace": 249000000000, "time": 1614.6}}, "weekday": "saturday", "livingplace": "Nyon"}}, "location": "Nyon"}, "Tour du Pays de Vaud #4, La Sarraz": {"latitude": 46.7088129, "longitude": 6.5707689, "race": "Tour du Pays de Vaud #4, La Sarraz", "date": {"mer. 03.09.2014": {"year": 2014, "day": 3, "month": 9, "categories": {"H-Sen2": {"distance": 9, "rank": 31, "pace": 264000000000, "time": 2249.1}}, "weekday": "wednesday", "livingplace": "Nyon"}}, "location": "Chavornay"}, "Tour du Pays de Vaud #3, Chavornay": {"latitude": 46.7784736, "longitude": 6.641183, "race": "Tour du Pays de Vaud #3, Chavornay", "date": {"mer. 27.08.2014": {"year": 2014, "day": 27, "month": 8, "categories": {"H-Sen2": {"distance": 9, "rank": 35, "pace": 275000000000, "time": 2366.2}}, "weekday": "wednesday", "livingplace": "Nyon"}}, "location": "Yverdon-les-Bains"}, "Tour du Pays de Vaud #2 - Genolier": {"latitude": 46.5955273, "longitude": 6.7702883, "race": "Tour du Pays de Vaud #2 - Genolier", "date": {"mer. 15.08.2012": {"year": 2012, "day": 15, "month": 8, "categories": {"H-Sen2": {"distance": 9, "rank": 40, "pace": 264000000000, "time": 2252.4}}, "weekday": "wednesday", "livingplace": "Nyon"}, "mer. 17.08.2011": {"year": 2011, "day": 17, "month": 8, "categories": {"H-Sen2": {"distance": 9, "rank": 59, "pace": 278000000000, "time": 2368.7}}, "weekday": "wednesday", "livingplace": "Nyon"}}, "location": "M\u00e9zi\u00e8res VD"}, "Lausanne Marathon": {"latitude": 46.5196535, "longitude": 6.6322734, "race": "Lausanne Marathon", "date": {"dim. 26.10.2014": {"year": 2014, "day": 26, "month": 10, "categories": {"21-H40": {"distance": 21, "rank": 191, "pace": 283000000000, "time": 5975.2}}, "weekday": "sunday", "livingplace": "Nyon"}}, "location": "Lausanne"}, "Tour du Pays de Vaud #1, Penthaz": {"latitude": 46.5993131, "longitude": 6.539251200000001, "race": "Tour du Pays de Vaud #1, Penthaz", "date": {"mer. 13.08.2014": {"year": 2014, "day": 13, "month": 8, "categories": {"H-Sen2": {"distance": 9, "rank": 38, "pace": 260000000000, "time": 2220.3}}, "weekday": "wednesday", "livingplace": "Nyon"}}, "location": "Penthaz"}, "Tour du pays de Vaud #5 - Penthaz": {"latitude": 46.5993131, "longitude": 6.539251200000001, "race": "Tour du pays de Vaud #5 - Penthaz", "date": {"mer. 07.09.2011": {"year": 2011, "day": 7, "month": 9, "categories": {"H-Sen2": {"distance": 8, "rank": 72, "pace": 309000000000, "time": 2585.0}}, "weekday": "wednesday", "livingplace": "Nyon"}}, "location": "Penthaz"}, "Tour du pays de Vaud #6 - St  Prex": {"latitude": 46.4829113, "longitude": 6.458343500000001, "race": "Tour du pays de Vaud #6 - St  Prex", "date": {"mer. 14.09.2011": {"year": 2011, "day": 14, "month": 9, "categories": {"H-Sen2": {"distance": 9, "rank": 90, "pace": 273000000000, "time": 2355.3}}, "weekday": "wednesday", "livingplace": "Nyon"}}, "location": "St-Prex"}, "Tour du Pays de Vaud #4 - La Sarraz": {"latitude": 46.7088129, "longitude": 6.5707689, "race": "Tour du Pays de Vaud #4 - La Sarraz", "date": {"mer. 29.08.2012": {"year": 2012, "day": 29, "month": 8, "categories": {"H-Sen2": {"distance": 9, "rank": 35, "pace": 258000000000, "time": 2198.9}}, "weekday": "wednesday", "livingplace": "Nyon"}}, "location": "Chavornay"}, "Tour du Pays de Vaud #5 - La Sarraz": {"latitude": 46.5993131, "longitude": 6.539251200000001, "race": "Tour du Pays de Vaud #5 - La Sarraz", "date": {"mer. 08.09.2010": {"year": 2010, "day": 8, "month": 9, "categories": {"HSen2": {"distance": 9, "rank": 62, "pace": 286000000000, "time": 2607.7}}, "weekday": "wednesday", "livingplace": "Nyon"}}, "location": "Penthaz"}}, "birth": 1965}