{"name": "Koch Lukas", "sex": "M", "races": {"20km de Lausanne": {"latitude": 46.5196535, "longitude": 6.6322734, "race": "20km de Lausanne", "date": {"sam. 25.04.2015": {"year": 2015, "day": 25, "month": 4, "categories": {"20-H20": {"distance": 20, "rank": 239, "pace": 272000000000, "time": 5441.7}}, "weekday": "saturday", "livingplace": "Eglisau"}}, "location": "Lausanne"}, "SwissCityMarathon - Lucerne, Luzern": {"latitude": 47.05016819999999, "longitude": 8.3093072, "race": "SwissCityMarathon - Lucerne, Luzern", "date": {"dim. 26.10.2014": {"year": 2014, "day": 26, "month": 10, "categories": {"H-M20": {"distance": 21, "rank": 502, "pace": 317000000000, "time": 6700.9}}, "weekday": "sunday", "livingplace": "Eglisau"}}, "location": "Luzern"}, "ASICS Bremgarter Reusslauf": {"latitude": 47.34917739999999, "longitude": 8.3397905, "race": "ASICS Bremgarter Reusslauf", "date": {"sam. 28.02.2015": {"year": 2015, "day": 28, "month": 2, "categories": {"11-M20": {"distance": 11, "rank": 109, "pace": 289000000000, "time": 3189.9}}, "weekday": "saturday", "livingplace": "Regensdorf"}}, "location": "Bremgarten AG"}, "Rheinfall-Lauf, Neuhausen": {"latitude": 47.6837423, "longitude": 8.6126098, "race": "Rheinfall-Lauf, Neuhausen", "date": {"dim. 24.08.2014": {"year": 2014, "day": 24, "month": 8, "categories": {"A": {"distance": 20, "rank": 27, "pace": 295000000000, "time": 5978.3}}, "weekday": "sunday", "livingplace": "Eglisau"}}, "location": "Neuhausen am Rheinfall"}, "Flughafenlauf, Kloten": {"latitude": NaN, "longitude": NaN, "race": "Flughafenlauf, Kloten", "date": {"jeu. 29.05.2014": {"year": 2014, "day": 29, "month": 5, "categories": {"A": {"distance": 17, "rank": 44, "pace": 279000000000, "time": 4750.8}}, "weekday": "thursday", "livingplace": "Eglisau"}}, "location": "Kloten"}, "Kerzerslauf": {"latitude": 46.97488999999999, "longitude": 7.1954365, "race": "Kerzerslauf", "date": {"sam. 21.03.2015": {"year": 2015, "day": 21, "month": 3, "categories": {"15-M20": {"distance": 15, "rank": 278, "pace": 277000000000, "time": 4164.8}}, "weekday": "saturday", "livingplace": "Eglisau"}}, "location": "Kerzers"}}, "birth": 1992}