{"name": "Kohli Eliot", "sex": "M", "races": {"Basler Stadtlauf": {"latitude": 47.5595986, "longitude": 7.5885761, "race": "Basler Stadtlauf", "date": {"sam. 28.11.2015": {"year": 2015, "day": 28, "month": 11, "categories": {"U14m": {"distance": 3, "rank": 143, "pace": 291000000000, "time": 947.8}}, "weekday": "saturday", "livingplace": "Fontaines"}}, "location": "Basel"}, "BCN Tour Les Ponts-de-Martel": {"latitude": 46.999113, "longitude": 6.733554799999999, "race": "BCN Tour Les Ponts-de-Martel", "date": {"mer. 09.05.2012": {"year": 2012, "day": 9, "month": 5, "categories": {"KG1": {"distance": 2, "rank": 21, "pace": 276000000000, "time": 525.4}}, "weekday": "wednesday", "livingplace": "Fontaines"}}, "location": "Les Ponts-de-Martel"}, "BCN Tour Fontaine Cernier": {"latitude": 47.0624261, "longitude": 6.9175754, "race": "BCN Tour Fontaine Cernier", "date": {"mer. 27.04.2011": {"year": 2011, "day": 27, "month": 4, "categories": {"KG1": {"distance": 2, "rank": 39, "pace": 343000000000, "time": 584.7}}, "weekday": "wednesday", "livingplace": "Fontaines"}}, "location": "Ch\u00e9zard-St-Martin"}, "BCN Tour Le Landeron": {"latitude": 46.9668714, "longitude": 6.8589727, "race": "BCN Tour Le Landeron", "date": {"mer. 22.04.2009": {"year": 2009, "day": 22, "month": 4, "categories": {"KG1": {"distance": 2, "rank": 61, "pace": 330000000000, "time": 661.1}}, "weekday": "wednesday", "livingplace": "Fontaines"}}, "location": "Colombier NE"}, "BCN Tour Le Locle": {"latitude": 46.999113, "longitude": 6.733554799999999, "race": "BCN Tour Le Locle", "date": {"mer. 05.05.2010": {"year": 2010, "day": 5, "month": 5, "categories": {"KG1": {"distance": 2, "rank": 29, "pace": 313000000000, "time": 564.3}}, "weekday": "wednesday", "livingplace": "Fontaines"}}, "location": "Les Ponts-de-Martel"}, "BCN Tour Couvet": {"latitude": 47.0624261, "longitude": 6.9175754, "race": "BCN Tour Couvet", "date": {"mer. 02.05.2012": {"year": 2012, "day": 2, "month": 5, "categories": {"KG1": {"distance": 2, "rank": 20, "pace": 287000000000, "time": 517.1}}, "weekday": "wednesday", "livingplace": "Fontaines"}}, "location": "Ch\u00e9zard-St-Martin"}, "BCN Tour Auvernier": {"latitude": 46.9668714, "longitude": 6.8589727, "race": "BCN Tour Auvernier", "date": {"mer. 20.04.2011": {"year": 2011, "day": 20, "month": 4, "categories": {"KG1": {"distance": 1, "rank": 12, "pace": 257000000000, "time": 348.2}}, "weekday": "wednesday", "livingplace": "Fontaines"}}, "location": "Colombier NE"}, "BCN Tour Colombier": {"latitude": 47.1034892, "longitude": 6.832783800000001, "race": "BCN Tour Colombier", "date": {"mer. 16.05.2012": {"year": 2012, "day": 16, "month": 5, "categories": {"KG1": {"distance": 2, "rank": 15, "pace": 326000000000, "time": 489.4}}, "weekday": "wednesday", "livingplace": "Fontaines"}}, "location": "La Chaux-de-Fonds"}, "BCN Tour La Chaux-de-Fonds": {"latitude": 46.9262933, "longitude": 6.6324944, "race": "BCN Tour La Chaux-de-Fonds", "date": {"mer. 23.05.2012": {"year": 2012, "day": 23, "month": 5, "categories": {"KG1": {"distance": 2, "rank": 21, "pace": 336000000000, "time": 740.4}}, "weekday": "wednesday", "livingplace": "Fontaines"}}, "location": "Couvet"}, "BCN Tour #6 Neuch\u00e2tel": {"latitude": 46.9899874, "longitude": 6.9292732, "race": "BCN Tour #6 Neuch\u00e2tel", "date": {"mer. 29.05.2013": {"year": 2013, "day": 29, "month": 5, "categories": {"KG2": {"distance": 1, "rank": 38, "pace": 242000000000, "time": 315.8}}, "weekday": "wednesday", "livingplace": "Fontaines"}}, "location": "Neuch\u00e2tel"}, "BCN Tour La Br\u00e9vine": {"latitude": 46.999113, "longitude": 6.733554799999999, "race": "BCN Tour La Br\u00e9vine", "date": {"mer. 04.05.2011": {"year": 2011, "day": 4, "month": 5, "categories": {"KG1": {"distance": 2, "rank": 30, "pace": 298000000000, "time": 568.0}}, "weekday": "wednesday", "livingplace": "Fontaines"}}, "location": "Les Ponts-de-Martel"}, "BCN Tour Neuch\u00e2tel": {"latitude": 46.9899874, "longitude": 6.9292732, "race": "BCN Tour Neuch\u00e2tel", "date": {"mer. 30.05.2012": {"year": 2012, "day": 30, "month": 5, "categories": {"KG1": {"distance": 2, "rank": 23, "pace": 277000000000, "time": 484.8}}, "weekday": "wednesday", "livingplace": "Fontaines"}, "mer. 25.05.2011": {"year": 2011, "day": 25, "month": 5, "categories": {"KG1": {"distance": 2, "rank": 32, "pace": 279000000000, "time": 558.2}}, "weekday": "wednesday", "livingplace": "Fontaines"}}, "location": "Neuch\u00e2tel"}, "BCN Tour Les Ponts de Martel": {"latitude": 46.9262933, "longitude": 6.6324944, "race": "BCN Tour Les Ponts de Martel", "date": {"mer. 18.05.2011": {"year": 2011, "day": 18, "month": 5, "categories": {"KG1": {"distance": 2, "rank": 40, "pace": 279000000000, "time": 550.2}}, "weekday": "wednesday", "livingplace": "Fontaines"}}, "location": "Couvet"}, "BCN Tour #2 La Chaux-de-Fonds": {"latitude": 47.0624261, "longitude": 6.9175754, "race": "BCN Tour #2 La Chaux-de-Fonds", "date": {"mer. 01.05.2013": {"year": 2013, "day": 1, "month": 5, "categories": {"KG2": {"distance": 1, "rank": 37, "pace": 259000000000, "time": 337.0}}, "weekday": "wednesday", "livingplace": "Fontaines"}}, "location": "Ch\u00e9zard-St-Martin"}, "BCN Tour La Chaux-de-fonds": {"latitude": 47.1034892, "longitude": 6.832783800000001, "race": "BCN Tour La Chaux-de-fonds", "date": {"mer. 12.05.2010": {"year": 2010, "day": 12, "month": 5, "categories": {"KG1": {"distance": 1, "rank": 36, "pace": 823000000000, "time": 799.1}}, "weekday": "wednesday", "livingplace": "Fontaines"}}, "location": "La Chaux-de-Fonds"}, "BCN Tour Cornaux": {"latitude": 46.9668714, "longitude": 6.8589727, "race": "BCN Tour Cornaux", "date": {"mer. 25.04.2012": {"year": 2012, "day": 25, "month": 4, "categories": {"KG1": {"distance": 2, "rank": 11, "pace": 272000000000, "time": 408.1}}, "weekday": "wednesday", "livingplace": "Fontaines"}}, "location": "Colombier NE"}, "BCN Tour #3 Dombresson": {"latitude": 46.999113, "longitude": 6.733554799999999, "race": "BCN Tour #3 Dombresson", "date": {"mer. 08.05.2013": {"year": 2013, "day": 8, "month": 5, "categories": {"KG2": {"distance": 1, "rank": 24, "pace": 260000000000, "time": 338.7}}, "weekday": "wednesday", "livingplace": "Fontaines"}}, "location": "Les Ponts-de-Martel"}}, "birth": 2003}