{"name": "Kohli Noa", "sex": "M", "races": {"Basler Stadtlauf": {"latitude": 47.5595986, "longitude": 7.5885761, "race": "Basler Stadtlauf", "date": {"sam. 28.11.2015": {"year": 2015, "day": 28, "month": 11, "categories": {"U16m": {"distance": 3, "rank": 65, "pace": 254000000000, "time": 828.3}}, "weekday": "saturday", "livingplace": "Fontaines"}}, "location": "Basel"}, "BCN Tour Couvet": {"latitude": 47.0624261, "longitude": 6.9175754, "race": "BCN Tour Couvet", "date": {"mer. 02.05.2012": {"year": 2012, "day": 2, "month": 5, "categories": {"KG3": {"distance": 4, "rank": 22, "pace": 282000000000, "time": 1044.5}}, "weekday": "wednesday", "livingplace": "Fontaines"}}, "location": "Ch\u00e9zard-St-Martin"}, "BCN Tour La Br\u00e9vine": {"latitude": 46.999113, "longitude": 6.733554799999999, "race": "BCN Tour La Br\u00e9vine", "date": {"mer. 04.05.2011": {"year": 2011, "day": 4, "month": 5, "categories": {"KG2": {"distance": 2, "rank": 25, "pace": 267000000000, "time": 507.7}}, "weekday": "wednesday", "livingplace": "Fontaines"}}, "location": "Les Ponts-de-Martel"}, "BCN Tour Fontaine Cernier": {"latitude": 47.0624261, "longitude": 6.9175754, "race": "BCN Tour Fontaine Cernier", "date": {"mer. 27.04.2011": {"year": 2011, "day": 27, "month": 4, "categories": {"KG2": {"distance": 2, "rank": 10, "pace": 290000000000, "time": 493.7}}, "weekday": "wednesday", "livingplace": "Fontaines"}}, "location": "Ch\u00e9zard-St-Martin"}, "BCN Tour Le Landeron": {"latitude": 46.9668714, "longitude": 6.8589727, "race": "BCN Tour Le Landeron", "date": {"mer. 22.04.2009": {"year": 2009, "day": 22, "month": 4, "categories": {"KG1": {"distance": 2, "rank": 29, "pace": 282000000000, "time": 564.9}}, "weekday": "wednesday", "livingplace": "Fontaines"}}, "location": "Colombier NE"}, "BCN Tour Neuch\u00e2tel": {"latitude": 46.9899874, "longitude": 6.9292732, "race": "BCN Tour Neuch\u00e2tel", "date": {"mer. 26.05.2010": {"year": 2010, "day": 26, "month": 5, "categories": {"KG2": {"distance": 2, "rank": 17, "pace": 216000000000, "time": 324.2}}, "weekday": "wednesday", "livingplace": "Fontaines"}, "mer. 30.05.2012": {"year": 2012, "day": 30, "month": 5, "categories": {"KG3": {"distance": 3, "rank": 20, "pace": 258000000000, "time": 800.6}}, "weekday": "wednesday", "livingplace": "Fontaines"}, "mer. 25.05.2011": {"year": 2011, "day": 25, "month": 5, "categories": {"KG2": {"distance": 2, "rank": 19, "pace": 252000000000, "time": 504.0}}, "weekday": "wednesday", "livingplace": "Fontaines"}}, "location": "Neuch\u00e2tel"}, "BCN Tour Auvernier": {"latitude": 46.9668714, "longitude": 6.8589727, "race": "BCN Tour Auvernier", "date": {"mer. 20.04.2011": {"year": 2011, "day": 20, "month": 4, "categories": {"KG2": {"distance": 1, "rank": 11, "pace": 228000000000, "time": 308.3}}, "weekday": "wednesday", "livingplace": "Fontaines"}}, "location": "Colombier NE"}, "BCN Tour #2 La Chaux-de-Fonds": {"latitude": 47.0624261, "longitude": 6.9175754, "race": "BCN Tour #2 La Chaux-de-Fonds", "date": {"mer. 01.05.2013": {"year": 2013, "day": 1, "month": 5, "categories": {"KG3": {"distance": 2, "rank": 26, "pace": 245000000000, "time": 588.7}}, "weekday": "wednesday", "livingplace": "Fontaines"}}, "location": "Ch\u00e9zard-St-Martin"}, "BCN Tour La Chaux-de-Fonds": {"latitude": 47.1034892, "longitude": 6.832783800000001, "race": "BCN Tour La Chaux-de-Fonds", "date": {"mer. 23.05.2012": {"year": 2012, "day": 23, "month": 5, "categories": {"KG3": {"distance": 4, "rank": 15, "pace": 277000000000, "time": 999.3}}, "weekday": "wednesday", "livingplace": "Fontaines"}, "mer. 11.05.2011": {"year": 2011, "day": 11, "month": 5, "categories": {"KG2": {"distance": 1, "rank": 26, "pace": 442000000000, "time": 428.9}}, "weekday": "wednesday", "livingplace": "Fontaines"}}, "location": "La Chaux-de-Fonds"}, "BCN Tour #6 Neuch\u00e2tel": {"latitude": 46.9899874, "longitude": 6.9292732, "race": "BCN Tour #6 Neuch\u00e2tel", "date": {"mer. 29.05.2013": {"year": 2013, "day": 29, "month": 5, "categories": {"KG3": {"distance": 2, "rank": 21, "pace": 224000000000, "time": 494.7}}, "weekday": "wednesday", "livingplace": "Fontaines"}}, "location": "Neuch\u00e2tel"}, "BCN Tour Les Ponts-de-Martel": {"latitude": 46.999113, "longitude": 6.733554799999999, "race": "BCN Tour Les Ponts-de-Martel", "date": {"mer. 09.05.2012": {"year": 2012, "day": 9, "month": 5, "categories": {"KG3": {"distance": 4, "rank": 19, "pace": 272000000000, "time": 1036.0}}, "weekday": "wednesday", "livingplace": "Fontaines"}}, "location": "Les Ponts-de-Martel"}, "BCN Tour Ponts-de-Martel": {"latitude": 47.0624261, "longitude": 6.9175754, "race": "BCN Tour Ponts-de-Martel", "date": {"mer. 28.04.2010": {"year": 2010, "day": 28, "month": 4, "categories": {"KG2": {"distance": 2, "rank": 19, "pace": 212000000000, "time": 466.8}}, "weekday": "wednesday", "livingplace": "Fontaines"}}, "location": "Ch\u00e9zard-St-Martin"}, "BCN Tour Les Ponts de Martel": {"latitude": 46.9262933, "longitude": 6.6324944, "race": "BCN Tour Les Ponts de Martel", "date": {"mer. 18.05.2011": {"year": 2011, "day": 18, "month": 5, "categories": {"KG2": {"distance": 2, "rank": 16, "pace": 238000000000, "time": 469.4}}, "weekday": "wednesday", "livingplace": "Fontaines"}}, "location": "Couvet"}, "BCN Tour #5 Colombier": {"latitude": 46.9262933, "longitude": 6.6324944, "race": "BCN Tour #5 Colombier", "date": {"mer. 22.05.2013": {"year": 2013, "day": 22, "month": 5, "categories": {"KG3": {"distance": 2, "rank": 27, "pace": 255000000000, "time": 587.2}}, "weekday": "wednesday", "livingplace": "Fontaines"}}, "location": "Couvet"}, "BCN Tour La Chaux-de-fonds": {"latitude": 47.1034892, "longitude": 6.832783800000001, "race": "BCN Tour La Chaux-de-fonds", "date": {"mer. 12.05.2010": {"year": 2010, "day": 12, "month": 5, "categories": {"KG2": {"distance": 1, "rank": 18, "pace": 717000000000, "time": 696.3}}, "weekday": "wednesday", "livingplace": "Fontaines"}}, "location": "La Chaux-de-Fonds"}, "BCN Tour Cornaux": {"latitude": 46.9668714, "longitude": 6.8589727, "race": "BCN Tour Cornaux", "date": {"mer. 25.04.2012": {"year": 2012, "day": 25, "month": 4, "categories": {"KG3": {"distance": 3, "rank": 15, "pace": 255000000000, "time": 716.3}}, "weekday": "wednesday", "livingplace": "Fontaines"}}, "location": "Colombier NE"}, "BCN Tour #3 Dombresson": {"latitude": 46.999113, "longitude": 6.733554799999999, "race": "BCN Tour #3 Dombresson", "date": {"mer. 08.05.2013": {"year": 2013, "day": 8, "month": 5, "categories": {"HJ": {"distance": 10, "rank": 75, "pace": 319000000000, "time": 3161.9}}, "weekday": "wednesday", "livingplace": "Fontaines"}}, "location": "Les Ponts-de-Martel"}}, "birth": 2000}