{"name": "Kolb Daniel", "sex": "M", "races": {"Lucerne Marathon, Luzern": {"latitude": 47.05016819999999, "longitude": 8.3093072, "race": "Lucerne Marathon, Luzern", "date": {"dim. 30.10.2011": {"year": 2011, "day": 30, "month": 10, "categories": {"H-M40": {"distance": 21, "rank": 1416, "pace": 418000000000, "time": 8821.5}}, "weekday": "sunday", "livingplace": "Rumlang"}}, "location": "Luzern"}, "Lausanne Marathon": {"latitude": 46.5196535, "longitude": 6.6322734, "race": "Lausanne Marathon", "date": {"dim. 27.10.2013": {"year": 2013, "day": 27, "month": 10, "categories": {"21-H3": {"distance": 21, "rank": 886, "pace": 412000000000, "time": 8699.4}}, "weekday": "sunday", "livingplace": "Moosseedorf"}}, "location": "Lausanne"}, "Eiger Ultra Trail, Grindelwald": {"latitude": 46.624164, "longitude": 8.0413962, "race": "Eiger Ultra Trail, Grindelwald", "date": {"sam. 19.07.2014": {"year": 2014, "day": 19, "month": 7, "categories": {"C-HS1": {"distance": 16, "rank": 35, "pace": 590000000000, "time": 9451.9}}, "weekday": "saturday", "livingplace": "Moosseedorf"}}, "location": "Grindelwald"}, "ASICS Bremgarter Reusslauf": {"latitude": 47.34917739999999, "longitude": 8.3397905, "race": "ASICS Bremgarter Reusslauf", "date": {"sam. 25.02.2012": {"year": 2012, "day": 25, "month": 2, "categories": {"M40": {"distance": 11, "rank": 631, "pace": 390000000000, "time": 4290.2}}, "weekday": "saturday", "livingplace": "Rumlang"}, "sam. 27.02.2010": {"year": 2010, "day": 27, "month": 2, "categories": {"31": {"distance": 7, "rank": 127, "pace": 388000000000, "time": 2522.5}}, "weekday": "saturday", "livingplace": "Rumlang"}, "sam. 26.02.2011": {"year": 2011, "day": 26, "month": 2, "categories": {"31": {"distance": 7, "rank": 115, "pace": 376000000000, "time": 2444.9}}, "weekday": "saturday", "livingplace": "Rumlang"}}, "location": "Bremgarten AG"}, "Kerzerslauf": {"latitude": 46.97488999999999, "longitude": 7.1954365, "race": "Kerzerslauf", "date": {"sam. 17.03.2012": {"year": 2012, "day": 17, "month": 3, "categories": {"15-M40": {"distance": 15, "rank": 573, "pace": 395000000000, "time": 5932.8}}, "weekday": "saturday", "livingplace": "Rumlang"}}, "location": "Kerzers"}, "20km de Lausanne": {"latitude": 46.5196535, "longitude": 6.6322734, "race": "20km de Lausanne", "date": {"sam. 25.04.2009": {"year": 2009, "day": 25, "month": 4, "categories": {"10-H40": {"distance": 10, "rank": 415, "pace": 408000000000, "time": 4086.0}}, "weekday": "saturday", "livingplace": "Treycovagnes"}}, "location": "Lausanne"}, "Z\u00fcrcher Silvesterlauf, Z\u00fcrich": {"latitude": 47.3768866, "longitude": 8.541694, "race": "Z\u00fcrcher Silvesterlauf, Z\u00fcrich", "date": {"dim. 11.12.2011": {"year": 2011, "day": 11, "month": 12, "categories": {"8-MenAK2": {"distance": 9, "rank": 1106, "pace": 338000000000, "time": 2913.0}}, "weekday": "sunday", "livingplace": "Rumlang"}}, "location": "Z\u00fcrich"}, "Int Greifenseelauf, Uster": {"latitude": 47.3482747, "longitude": 8.717873899999999, "race": "Int Greifenseelauf, Uster", "date": {"sam. 19.09.2009": {"year": 2009, "day": 19, "month": 9, "categories": {"K-M40": {"distance": 10, "rank": 196, "pace": 411000000000, "time": 4117.5}}, "weekday": "saturday", "livingplace": "Rumlang"}}, "location": "Uster"}}, "birth": 1969}