{"name": "Konya Viktor", "sex": "M", "races": {"Lucerne Marathon, Luzern": {"latitude": 47.05016819999999, "longitude": 8.3093072, "race": "Lucerne Marathon, Luzern", "date": {"dim. 30.10.2011": {"year": 2011, "day": 30, "month": 10, "categories": {"H-M30": {"distance": 21, "rank": 1012, "pace": 359000000000, "time": 7576.6}}, "weekday": "sunday", "livingplace": "Bachenbulach"}}, "location": "Luzern"}, "Morat-Fribourg": {"latitude": 46.92922110000001, "longitude": 7.120184, "race": "Morat-Fribourg", "date": {"sam. 01.10.2011": {"year": 2011, "day": 1, "month": 10, "categories": {"17-M20": {"distance": 17, "rank": 1840, "pace": 403000000000, "time": 6925.0}}, "weekday": "saturday", "livingplace": "Bachenbulach"}}, "location": "Murten"}, "ASICS Bremgarter Reusslauf": {"latitude": 47.34917739999999, "longitude": 8.3397905, "race": "ASICS Bremgarter Reusslauf", "date": {"sam. 25.02.2012": {"year": 2012, "day": 25, "month": 2, "categories": {"M30": {"distance": 11, "rank": 341, "pace": 308000000000, "time": 3391.3}}, "weekday": "saturday", "livingplace": "Bachenbulach"}}, "location": "Bremgarten AG"}, "Dietiker Neujahrslauf, Dietikon": {"latitude": 47.4053885, "longitude": 8.39977, "race": "Dietiker Neujahrslauf, Dietikon", "date": {"sam. 10.01.2015": {"year": 2015, "day": 10, "month": 1, "categories": {"C": {"distance": 12, "rank": 155, "pace": 308000000000, "time": 3738.8}}, "weekday": "saturday", "livingplace": "Bachenbulach"}}, "location": "Dietikon"}, "Badener Limmat-Lauf, Baden": {"latitude": 48.5699281, "longitude": 8.5303972, "race": "Badener Limmat-Lauf, Baden", "date": {"sam. 26.03.2011": {"year": 2011, "day": 26, "month": 3, "categories": {"M30": {"distance": 13, "rank": 111, "pace": 366000000000, "time": 4831.3}}, "weekday": "saturday", "livingplace": "Lausanne"}}, "location": "Baden"}, "Les Traine-Savates, Cheseaux-sur-Lausanne": {"latitude": 46.585452, "longitude": 6.6047712, "race": "Les Traine-Savates, Cheseaux-sur-Lausanne", "date": {"sam. 10.04.2010": {"year": 2010, "day": 10, "month": 4, "categories": {"Hom Sen": {"distance": 10, "rank": 225, "pace": 330000000000, "time": 3436.5}}, "weekday": "saturday", "livingplace": "Lausanne"}}, "location": "Cheseaux-sur-Lausanne"}, "Aletsch-Halbmarathon, Bettmeralp": {"latitude": NaN, "longitude": NaN, "race": "Aletsch-Halbmarathon, Bettmeralp", "date": {"dim. 24.06.2012": {"year": 2012, "day": 24, "month": 6, "categories": {"M30": {"distance": 21, "rank": 364, "pace": 565000000000, "time": 11994.9}}, "weekday": "sunday", "livingplace": "Bachenbulach"}}, "location": "Bettmeralp"}, "Z\u00fcrcher Silvesterlauf, Z\u00fcrich": {"latitude": 47.3768866, "longitude": 8.541694, "race": "Z\u00fcrcher Silvesterlauf, Z\u00fcrich", "date": {"dim. 11.12.2011": {"year": 2011, "day": 11, "month": 12, "categories": {"8-MenAK1": {"distance": 9, "rank": 727, "pace": 306000000000, "time": 2631.9}}, "weekday": "sunday", "livingplace": "Bachenbulach"}}, "location": "Z\u00fcrich"}, "Kerzerslauf": {"latitude": 46.97488999999999, "longitude": 7.1954365, "race": "Kerzerslauf", "date": {"sam. 20.03.2010": {"year": 2010, "day": 20, "month": 3, "categories": {"15-M35": {"distance": 15, "rank": 399, "pace": 346000000000, "time": 5197.4}}, "weekday": "saturday", "livingplace": "Lausanne"}, "sam. 15.03.2014": {"year": 2014, "day": 15, "month": 3, "categories": {"15-M35": {"distance": 15, "rank": 414, "pace": 371000000000, "time": 5570.1}}, "weekday": "saturday", "livingplace": "Bachenbulach"}}, "location": "Kerzers"}, "Montreux - Les Rochers de Naye": {"latitude": 46.4312213, "longitude": 6.9106799, "race": "Montreux - Les Rochers de Naye", "date": {"dim. 08.07.2012": {"year": 2012, "day": 8, "month": 7, "categories": {"M-HElite": {"distance": 19, "rank": 189, "pace": 586000000000, "time": 11018.3}}, "weekday": "sunday", "livingplace": "Bachenbulach"}}, "location": "Montreux"}, "Lausanne Marathon": {"latitude": 46.5196535, "longitude": 6.6322734, "race": "Lausanne Marathon", "date": {"dim. 31.10.2010": {"year": 2010, "day": 31, "month": 10, "categories": {"21-H2": {"distance": 21, "rank": 790, "pace": 351000000000, "time": 7408.5}}, "weekday": "sunday", "livingplace": "Lausanne"}, "dim. 28.10.2012": {"year": 2012, "day": 28, "month": 10, "categories": {"21-H2": {"distance": 21, "rank": 735, "pace": 338000000000, "time": 7142.3}}, "weekday": "sunday", "livingplace": "Bachenbulach"}}, "location": "Lausanne"}, "SwissCityMarathon - Lucerne, Luzern": {"latitude": 47.05016819999999, "longitude": 8.3093072, "race": "SwissCityMarathon - Lucerne, Luzern", "date": {"dim. 26.10.2014": {"year": 2014, "day": 26, "month": 10, "categories": {"H-M30": {"distance": 21, "rank": 1079, "pace": 356000000000, "time": 7520.9}}, "weekday": "sunday", "livingplace": "Bachenbulach"}}, "location": "Luzern"}, "Kyburglauf, Kyburg": {"latitude": NaN, "longitude": NaN, "race": "Kyburglauf, Kyburg", "date": {"sam. 12.11.2011": {"year": 2011, "day": 12, "month": 11, "categories": {"10-HM30": {"distance": 10, "rank": 71, "pace": 378000000000, "time": 3785.8}}, "weekday": "saturday", "livingplace": "Bachenbulach"}}, "location": "Kyburg"}, "20km de Lausanne": {"latitude": 46.5196535, "longitude": 6.6322734, "race": "20km de Lausanne", "date": {"sam. 24.04.2010": {"year": 2010, "day": 24, "month": 4, "categories": {"20-H30": {"distance": 20, "rank": 694, "pace": 365000000000, "time": 7313.2}}, "weekday": "saturday", "livingplace": "Lausanne"}}, "location": "Lausanne"}}, "birth": 1975}