{"name": "Koster Jo", "sex": "M", "races": {"A travers Carouge - Run to Run": {"latitude": 46.1829674, "longitude": 6.1378539, "race": "A travers Carouge - Run to Run", "date": {"sam. 20.09.2008": {"year": 2008, "day": 20, "month": 9, "categories": {"M40/10": {"distance": 10, "rank": 7, "pace": 214000000000, "time": 2140.9}}, "weekday": "saturday", "livingplace": "Grand Lancy"}}, "location": "Carouge GE"}, "Lucerne Marathon, Luzern": {"latitude": 47.05016819999999, "longitude": 8.3093072, "race": "Lucerne Marathon, Luzern", "date": {"dim. 25.10.2009": {"year": 2009, "day": 25, "month": 10, "categories": {"M-M40": {"distance": 42, "rank": 1, "pace": 217000000000, "time": 9187.6}}, "weekday": "sunday", "livingplace": "Grand Lancy"}}, "location": "Luzern"}, "Tour de Presinge": {"latitude": 46.21860299999999, "longitude": 6.2535283, "race": "Tour de Presinge", "date": {"dim. 15.03.2015": {"year": 2015, "day": 15, "month": 3, "categories": {"10-Hom2": {"distance": 10, "rank": 12, "pace": 235000000000, "time": 2354.5}}, "weekday": "sunday", "livingplace": "Grand Lancy"}}, "location": "Presinge"}, "Course de l'Escalade, Gen\u00e8ve": {"latitude": 46.2043907, "longitude": 6.1431577, "race": "Course de l'Escalade, Gen\u00e8ve", "date": {"sam. 05.12.2009": {"year": 2009, "day": 5, "month": 12, "categories": {"Elite H": {"distance": 7, "rank": 81, "pace": 207000000000, "time": 1503.7}}, "weekday": "saturday", "livingplace": "Grand Lancy"}, "sam. 04.12.2010": {"year": 2010, "day": 4, "month": 12, "categories": {"H-H3": {"distance": 7, "rank": 7, "pace": 192000000000, "time": 1398.5}}, "weekday": "saturday", "livingplace": "Grand Lancy"}}, "location": "Gen\u00e8ve"}, "Bieler Lauftage, Biel Bienne": {"latitude": 47.1367785, "longitude": 7.2467909, "race": "Bieler Lauftage, Biel Bienne", "date": {"ven. 12.06.2009": {"year": 2009, "day": 12, "month": 6, "categories": {"100/M40": {"distance": 100, "rank": 3, "pace": 275000000000, "time": 27569.1}}, "weekday": "friday", "livingplace": "Grand Lancy"}}, "location": "Biel/Bienne"}, "Z\u00fcrich Marathon, Teamrun und Cityrun": {"latitude": 47.3768866, "longitude": 8.541694, "race": "Z\u00fcrich Marathon, Teamrun und Cityrun", "date": {"dim. 11.04.2010": {"year": 2010, "day": 11, "month": 4, "categories": {"EliteM": {"distance": 42, "rank": 26, "pace": 216000000000, "time": 9118.1}}, "weekday": "sunday", "livingplace": "Grand Lancy"}}, "location": "Z\u00fcrich"}}, "birth": 1966}