{"name": "Kottmann Nartano", "sex": "F", "races": {"Pfingstlauf Wohlen AG": {"latitude": 47.3493653, "longitude": 8.2768762, "race": "Pfingstlauf Wohlen AG", "date": {"sam. 03.06.2006": {"year": 2006, "day": 3, "month": 6, "categories": {"F50": {"distance": 8, "rank": 4, "pace": 262000000000, "time": 2149.7}}, "weekday": "saturday", "livingplace": "Slvs"}}, "location": "Wohlen AG"}, "Rotseelauf, Ebikon": {"latitude": NaN, "longitude": NaN, "race": "Rotseelauf, Ebikon", "date": {"sam. 01.04.2006": {"year": 2006, "day": 1, "month": 4, "categories": {"F50": {"distance": 10, "rank": 2, "pace": 285000000000, "time": 2853.1}}, "weekday": "saturday", "livingplace": "Slvs"}}, "location": "Ebikon"}, "Herbstlauf Muri AG": {"latitude": NaN, "longitude": NaN, "race": "Herbstlauf Muri AG", "date": {"sam. 26.08.2006": {"year": 2006, "day": 26, "month": 8, "categories": {"F50": {"distance": 10, "rank": 2, "pace": 257000000000, "time": 2572.4}}, "weekday": "saturday", "livingplace": "Slvs"}}, "location": "Muri AG"}, "Schlosslauf Rapperswil-Jona": {"latitude": 47.2266239, "longitude": 8.818437399999999, "race": "Schlosslauf Rapperswil-Jona", "date": {"dim. 07.10.2007": {"year": 2007, "day": 7, "month": 10, "categories": {"F4": {"distance": 5, "rank": 1, "pace": 260000000000, "time": 1409.7}}, "weekday": "sunday", "livingplace": "Baar"}}, "location": "Rapperswil SG"}, "Gurtenclassic, Wabern": {"latitude": 46.92901639999999, "longitude": 7.448973199999999, "race": "Gurtenclassic, Wabern", "date": {"dim. 02.11.2003": {"year": 2003, "day": 2, "month": 11, "categories": {"W40": {"distance": 15, "rank": 6, "pace": 312000000000, "time": 4722.0}}, "weekday": "sunday", "livingplace": "Slvs"}}, "location": "Wabern"}, "Sihltaler Fr\u00fchlingslauf, Gattikon": {"latitude": 47.2949282, "longitude": 8.5644799, "race": "Sihltaler Fr\u00fchlingslauf, Gattikon", "date": {"lun. 01.05.2006": {"year": 2006, "day": 1, "month": 5, "categories": {"F50": {"distance": 10, "rank": 4, "pace": 274000000000, "time": 2743.9}}, "weekday": "monday", "livingplace": "Slvs"}}, "location": "Gattikon"}, "ASICS Bremgarter Reusslauf": {"latitude": 47.34917739999999, "longitude": 8.3397905, "race": "ASICS Bremgarter Reusslauf", "date": {"sam. 17.02.2007": {"year": 2007, "day": 17, "month": 2, "categories": {"F50": {"distance": 11, "rank": 5, "pace": 261000000000, "time": 2741.1}}, "weekday": "saturday", "livingplace": "Slvs"}}, "location": "Bremgarten AG"}}, "birth": 0}