{"name": "Kr\u00e4henb\u00fchl Julien", "sex": "M", "races": {"Lucerne Marathon, Luzern": {"latitude": 47.05016819999999, "longitude": 8.3093072, "race": "Lucerne Marathon, Luzern", "date": {"dim. 30.10.2011": {"year": 2011, "day": 30, "month": 10, "categories": {"M-M20": {"distance": 42, "rank": 77, "pace": 320000000000, "time": 13532.4}}, "weekday": "sunday", "livingplace": "Winterthur"}}, "location": "Luzern"}, "Gippinger Stauseelauf": {"latitude": 47.5810513, "longitude": 8.2152586, "race": "Gippinger Stauseelauf", "date": {"lun. 31.12.2007": {"year": 2007, "day": 31, "month": 12, "categories": {"M20": {"distance": 8, "rank": 36, "pace": 240000000000, "time": 1810.2}}, "weekday": "monday", "livingplace": "Winterthur"}}, "location": "Leuggern"}, "ASICS Bremgarter Reusslauf": {"latitude": 47.34917739999999, "longitude": 8.3397905, "race": "ASICS Bremgarter Reusslauf", "date": {"sam. 23.02.2008": {"year": 2008, "day": 23, "month": 2, "categories": {"M20": {"distance": 11, "rank": 83, "pace": 262000000000, "time": 2889.7}}, "weekday": "saturday", "livingplace": "Winterthur"}}, "location": "Bremgarten AG"}, "Z\u00fcrcher Silvesterlauf, Z\u00fcrich": {"latitude": 47.3768866, "longitude": 8.541694, "race": "Z\u00fcrcher Silvesterlauf, Z\u00fcrich", "date": {"dim. 16.12.2007": {"year": 2007, "day": 16, "month": 12, "categories": {"MenHK-8": {"distance": 9, "rank": 185, "pace": 255000000000, "time": 2196.2}}, "weekday": "sunday", "livingplace": "Winterthur"}}, "location": "Z\u00fcrich"}, "Int Greifenseelauf, Uster": {"latitude": 47.3482747, "longitude": 8.717873899999999, "race": "Int Greifenseelauf, Uster", "date": {"sam. 19.09.2009": {"year": 2009, "day": 19, "month": 9, "categories": {"H-M20": {"distance": 21, "rank": 369, "pace": 313000000000, "time": 6622.7}}, "weekday": "saturday", "livingplace": "Winterthur"}, "sam. 20.09.2008": {"year": 2008, "day": 20, "month": 9, "categories": {"H-M20": {"distance": 21, "rank": 655, "pace": 403000000000, "time": 8520.3}}, "weekday": "saturday", "livingplace": "Winterthur"}}, "location": "Uster"}, "Frauenfelder": {"latitude": NaN, "longitude": NaN, "race": "Frauenfelder", "date": {"dim. 18.11.2007": {"year": 2007, "day": 18, "month": 11, "categories": {"HMM20": {"distance": 21, "rank": 46, "pace": 273000000000, "time": 5766.7}}, "weekday": "sunday", "livingplace": "Winterthur"}}, "location": "Frauenfeld"}, "Jungfrau-Marathon, Interlaken": {"latitude": NaN, "longitude": NaN, "race": "Jungfrau-Marathon, Interlaken", "date": {"sam. 08.09.2012": {"year": 2012, "day": 8, "month": 9, "categories": {"SO-M20": {"distance": 42, "rank": 982, "pace": 492000000000, "time": 20776.5}}, "weekday": "saturday", "livingplace": "Winterthur"}}, "location": "Interlaken"}, "Laufsporttag Winterthur": {"latitude": 39.8088766, "longitude": -75.6037351, "race": "Laufsporttag Winterthur", "date": {"sam. 01.03.2008": {"year": 2008, "day": 1, "month": 3, "categories": {"A": {"distance": 11, "rank": 34, "pace": 266000000000, "time": 2927.0}}, "weekday": "saturday", "livingplace": "Winterthur"}}, "location": "Winterthur"}, "Winterthur Marathon": {"latitude": 39.8088766, "longitude": -75.6037351, "race": "Winterthur Marathon", "date": {"dim. 01.06.2014": {"year": 2014, "day": 1, "month": 6, "categories": {"H-M30": {"distance": 21, "rank": 74, "pace": 277000000000, "time": 5825.2}}, "weekday": "sunday", "livingplace": "Winterthur"}}, "location": "Winterthur"}, "Flughafenlauf, Kloten": {"latitude": NaN, "longitude": NaN, "race": "Flughafenlauf, Kloten", "date": {"jeu. 09.05.2013": {"year": 2013, "day": 9, "month": 5, "categories": {"A": {"distance": 17, "rank": 114, "pace": 352000000000, "time": 6000.8}}, "weekday": "thursday", "livingplace": "Winterthur"}}, "location": "Kloten"}, "Z\u00fcrich Marathon, Teamrun und Cityrun": {"latitude": 47.3768866, "longitude": 8.541694, "race": "Z\u00fcrich Marathon, Teamrun und Cityrun", "date": {"dim. 20.04.2008": {"year": 2008, "day": 20, "month": 4, "categories": {"M20": {"distance": 42, "rank": 182, "pace": 320000000000, "time": 13529.9}}, "weekday": "sunday", "livingplace": "Winterthur"}}, "location": "Z\u00fcrich"}, "Kerzerslauf": {"latitude": 46.97488999999999, "longitude": 7.1954365, "race": "Kerzerslauf", "date": {"sam. 15.03.2008": {"year": 2008, "day": 15, "month": 3, "categories": {"15/M20": {"distance": 15, "rank": 548, "pace": 343000000000, "time": 5146.3}}, "weekday": "saturday", "livingplace": "Winterthur"}}, "location": "Kerzers"}}, "birth": 1984}