{"name": "Krogner Kerstin", "sex": "F", "races": {"Lucerne Marathon, Luzern": {"latitude": 47.05016819999999, "longitude": 8.3093072, "race": "Lucerne Marathon, Luzern", "date": {"dim. 25.10.2009": {"year": 2009, "day": 25, "month": 10, "categories": {"H-F40": {"distance": 21, "rank": 103, "pace": 310000000000, "time": 6554.8}}, "weekday": "sunday", "livingplace": "Munchen"}}, "location": "Luzern"}, "Basel City Marathon": {"latitude": 47.5595986, "longitude": 7.5885761, "race": "Basel City Marathon", "date": {"dim. 28.08.2005": {"year": 2005, "day": 28, "month": 8, "categories": {"F30": {"distance": 42, "rank": 16, "pace": 318000000000, "time": 13436.4}}, "weekday": "sunday", "livingplace": "Tubingen"}}, "location": "Basel"}, "Int Greifenseelauf, Uster": {"latitude": 47.3482747, "longitude": 8.717873899999999, "race": "Int Greifenseelauf, Uster", "date": {"sam. 22.09.2007": {"year": 2007, "day": 22, "month": 9, "categories": {"K/W35": {"distance": 21, "rank": 344, "pace": 381000000000, "time": 8053.6}}, "weekday": "saturday", "livingplace": "Munchen"}}, "location": "Uster"}, "Z\u00fcrich Marathon, Teamrun und Cityrun": {"latitude": 47.3768866, "longitude": 8.541694, "race": "Z\u00fcrich Marathon, Teamrun und Cityrun", "date": {"dim. 26.04.2009": {"year": 2009, "day": 26, "month": 4, "categories": {"W40": {"distance": 42, "rank": 67, "pace": 327000000000, "time": 13836.1}}, "weekday": "sunday", "livingplace": "Munchen"}}, "location": "Z\u00fcrich"}, "Schweizer Frauenlauf Bern": {"latitude": 46.9479739, "longitude": 7.4474468, "race": "Schweizer Frauenlauf Bern", "date": {"dim. 12.06.2005": {"year": 2005, "day": 12, "month": 6, "categories": {"10-W35": {"distance": 10, "rank": 36, "pace": 275000000000, "time": 2757.7}}, "weekday": "sunday", "livingplace": "Tuebingen"}}, "location": "Bern"}}, "birth": 1969}