{"name": "K\u00fcffer Nicolas", "sex": "M", "races": {"Tour du pays de Vaud #1 \u2013 St  Prex": {"latitude": 46.7784736, "longitude": 6.641183, "race": "Tour du pays de Vaud #1 \u2013 St  Prex", "date": {"mer. 11.08.2010": {"year": 2010, "day": 11, "month": 8, "categories": {"HSen1": {"distance": 8, "rank": 16, "pace": 256000000000, "time": 2154.9}}, "weekday": "wednesday", "livingplace": "Vulliens"}}, "location": "Yverdon-les-Bains"}, "Tour du Pays de Vaud #3 - Mezi\u00e8res": {"latitude": 46.7784736, "longitude": 6.641183, "race": "Tour du Pays de Vaud #3 - Mezi\u00e8res", "date": {"mer. 22.08.2012": {"year": 2012, "day": 22, "month": 8, "categories": {"H-Sen2": {"distance": 8, "rank": 18, "pace": 255000000000, "time": 2148.1}}, "weekday": "wednesday", "livingplace": "Vulliens"}}, "location": "Yverdon-les-Bains"}, "Tour du pays de Vaud #6 - St  Prex": {"latitude": 46.4829113, "longitude": 6.458343500000001, "race": "Tour du pays de Vaud #6 - St  Prex", "date": {"mer. 14.09.2011": {"year": 2011, "day": 14, "month": 9, "categories": {"H-Sen1": {"distance": 9, "rank": 22, "pace": 237000000000, "time": 2041.3}}, "weekday": "wednesday", "livingplace": "Vulliens"}}, "location": "St-Prex"}, "Tour du Pays de Vaud printanier #1 Moudon": {"latitude": 46.3832683, "longitude": 6.2347852, "race": "Tour du Pays de Vaud printanier #1 Moudon", "date": {"mer. 29.05.2013": {"year": 2013, "day": 29, "month": 5, "categories": {"H-Sen2": {"distance": 8, "rank": 6, "pace": 236000000000, "time": 2019.1}}, "weekday": "wednesday", "livingplace": "Vulliens"}}, "location": "Nyon"}, "Tour du pays de Vaud #5 - Penthaz": {"latitude": 46.5993131, "longitude": 6.539251200000001, "race": "Tour du pays de Vaud #5 - Penthaz", "date": {"mer. 07.09.2011": {"year": 2011, "day": 7, "month": 9, "categories": {"H-Sen1": {"distance": 8, "rank": 14, "pace": 257000000000, "time": 2152.4}}, "weekday": "wednesday", "livingplace": "Vulliens"}}, "location": "Penthaz"}, "D\u00e9fi du vignoble, Cully": {"latitude": 45.565921, "longitude": -122.6066627, "race": "D\u00e9fi du vignoble, Cully", "date": {"mer. 14.05.2014": {"year": 2014, "day": 14, "month": 5, "categories": {"M40": {"distance": 4, "rank": 2, "pace": 416000000000, "time": 1516.3}}, "weekday": "wednesday", "livingplace": "Vulliens"}}, "location": "Cully"}}, "birth": 1972}