{"name": "Kuhn Georgette", "sex": "F", "races": {"Int Greifenseelauf, Uster": {"latitude": 47.3482747, "longitude": 8.717873899999999, "race": "Int Greifenseelauf, Uster", "date": {"sam. 17.09.2005": {"year": 2005, "day": 17, "month": 9, "categories": {"H/W55": {"distance": 21, "rank": 2, "pace": 278000000000, "time": 5882.0}}, "weekday": "saturday", "livingplace": "Nesslau"}}, "location": "Uster"}, "SM 10km Strasse, Biel": {"latitude": 47.1367785, "longitude": 7.2467909, "race": "SM 10km Strasse, Biel", "date": {"sam. 24.09.2005": {"year": 2005, "day": 24, "month": 9, "categories": {"F55": {"distance": 10, "rank": 2, "pace": 265000000000, "time": 2658.2}}, "weekday": "saturday", "livingplace": "Nesslau"}}, "location": "Biel/Bienne"}, "Z\u00fcrich Marathon, Teamrun und Cityrun": {"latitude": 47.3768866, "longitude": 8.541694, "race": "Z\u00fcrich Marathon, Teamrun und Cityrun", "date": {"dim. 09.04.2006": {"year": 2006, "day": 9, "month": 4, "categories": {"W55": {"distance": 42, "rank": 3, "pace": 296000000000, "time": 12491.4}}, "weekday": "sunday", "livingplace": "Nesslau"}, "dim. 04.04.2004": {"year": 2004, "day": 4, "month": 4, "categories": {"W55": {"distance": 42, "rank": 3, "pace": 303000000000, "time": 12808.6}}, "weekday": "sunday", "livingplace": "Nesslau"}}, "location": "Z\u00fcrich"}, "Winterthur Marathon": {"latitude": 39.8088766, "longitude": -75.6037351, "race": "Winterthur Marathon", "date": {"dim. 25.05.2003": {"year": 2003, "day": 25, "month": 5, "categories": {"HW55": {"distance": 21, "rank": 1, "pace": 273000000000, "time": 5746.8}}, "weekday": "sunday", "livingplace": "Nesslau"}}, "location": "Winterthur"}, "Schweizer Frauenlauf Bern": {"latitude": 46.9479739, "longitude": 7.4474468, "race": "Schweizer Frauenlauf Bern", "date": {"dim. 15.06.2003": {"year": 2003, "day": 15, "month": 6, "categories": {"W55": {"distance": 5, "rank": 3, "pace": 262000000000, "time": 1313.1}}, "weekday": "sunday", "livingplace": "Nesslau"}, "dim. 13.06.2004": {"year": 2004, "day": 13, "month": 6, "categories": {"W55": {"distance": 5, "rank": 3, "pace": 242000000000, "time": 1214.6}}, "weekday": "sunday", "livingplace": "Nesslau"}}, "location": "Bern"}}, "birth": 1948}