{"name": "Kuhn Christian", "sex": "M", "races": {"crossrun, Therwil": {"latitude": 47.4990611, "longitude": 7.5532808, "race": "crossrun, Therwil", "date": {"dim. 02.09.2012": {"year": 2012, "day": 2, "month": 9, "categories": {"M20": {"distance": 10, "rank": 5, "pace": 285000000000, "time": 2859.2}}, "weekday": "sunday", "livingplace": "Oberwil"}}, "location": "Therwil"}, "IWB Basel Marathon": {"latitude": 47.5595986, "longitude": 7.5885761, "race": "IWB Basel Marathon", "date": {"dim. 23.09.2012": {"year": 2012, "day": 23, "month": 9, "categories": {"H-21-M20": {"distance": 21, "rank": 39, "pace": 284000000000, "time": 6001.3}}, "weekday": "sunday", "livingplace": "Oberwil"}, "dim. 28.09.2014": {"year": 2014, "day": 28, "month": 9, "categories": {"21-M30": {"distance": 21, "rank": 77, "pace": 284000000000, "time": 6003.9}}, "weekday": "sunday", "livingplace": "Oberwil"}}, "location": "Basel"}, "Basler Stadtlauf": {"latitude": 47.5595986, "longitude": 7.5885761, "race": "Basler Stadtlauf", "date": {"sam. 29.11.2014": {"year": 2014, "day": 29, "month": 11, "categories": {"M30": {"distance": 6, "rank": 123, "pace": 253000000000, "time": 1396.6}}, "weekday": "saturday", "livingplace": "Oberwil"}, "sam. 26.11.2011": {"year": 2011, "day": 26, "month": 11, "categories": {"M": {"distance": 6, "rank": 202, "pace": 254000000000, "time": 1400.7}}, "weekday": "saturday", "livingplace": "Oberwil"}, "sam. 24.11.2012": {"year": 2012, "day": 24, "month": 11, "categories": {"M20": {"distance": 6, "rank": 252, "pace": 262000000000, "time": 1441.8}}, "weekday": "saturday", "livingplace": "Oberwil"}}, "location": "Basel"}, "Birslauf Basel": {"latitude": 47.5595986, "longitude": 7.5885761, "race": "Birslauf Basel", "date": {"sam. 05.04.2008": {"year": 2008, "day": 5, "month": 4, "categories": {"M": {"distance": 10, "rank": 442, "pace": 303000000000, "time": 3038.2}}, "weekday": "saturday", "livingplace": "Oberwil"}}, "location": "Basel"}, "Liestaler Stadtlauf": {"latitude": 47.4866143, "longitude": 7.7334272, "race": "Liestaler Stadtlauf", "date": {"mer. 29.08.2012": {"year": 2012, "day": 29, "month": 8, "categories": {"M20": {"distance": 12, "rank": 37, "pace": 339000000000, "time": 4074.4}}, "weekday": "wednesday", "livingplace": "Oberwil"}}, "location": "Liestal"}, "Dreil\u00e4nder-Lauf, Basel": {"latitude": 47.5595986, "longitude": 7.5885761, "race": "Dreil\u00e4nder-Lauf, Basel", "date": {"dim. 20.05.2012": {"year": 2012, "day": 20, "month": 5, "categories": {"10M20": {"distance": 10, "rank": 18, "pace": 282000000000, "time": 2848.9}}, "weekday": "sunday", "livingplace": "Oberwil"}}, "location": "Basel"}, "Gempenlauf, Dornach": {"latitude": 47.4790491, "longitude": 7.6170412, "race": "Gempenlauf, Dornach", "date": {"mer. 06.06.2012": {"year": 2012, "day": 6, "month": 6, "categories": {"M20": {"distance": 8, "rank": 80, "pace": 349000000000, "time": 2722.2}}, "weekday": "wednesday", "livingplace": "Oberwil"}}, "location": "Dornach"}, "Kerzerslauf": {"latitude": 46.97488999999999, "longitude": 7.1954365, "race": "Kerzerslauf", "date": {"sam. 17.03.2012": {"year": 2012, "day": 17, "month": 3, "categories": {"15-M20": {"distance": 15, "rank": 283, "pace": 277000000000, "time": 4169.4}}, "weekday": "saturday", "livingplace": "Oberwil"}}, "location": "Kerzers"}}, "birth": 1983}