{"name": "K\u00fcnzler Tonja", "sex": "F", "races": {"Schweizer Frauenlauf Bern": {"latitude": 46.9479739, "longitude": 7.4474468, "race": "Schweizer Frauenlauf Bern", "date": {"dim. 09.06.2013": {"year": 2013, "day": 9, "month": 6, "categories": {"10-Jun": {"distance": 10, "rank": 29, "pace": 317000000000, "time": 3178.9}}, "weekday": "sunday", "livingplace": "Matzingen"}}, "location": "Bern"}, "Int Greifenseelauf, Uster": {"latitude": 47.3482747, "longitude": 8.717873899999999, "race": "Int Greifenseelauf, Uster", "date": {"sam. 16.09.2006": {"year": 2006, "day": 16, "month": 9, "categories": {"M/MC": {"distance": 3, "rank": 2, "pace": 239000000000, "time": 838.2}}, "weekday": "saturday", "livingplace": "Matzingen"}}, "location": "Uster"}, "Z\u00fcrcher Silvesterlauf, Z\u00fcrich": {"latitude": 47.3768866, "longitude": 8.541694, "race": "Z\u00fcrcher Silvesterlauf, Z\u00fcrich", "date": {"dim. 14.12.2008": {"year": 2008, "day": 14, "month": 12, "categories": {"M\u00e4dch A": {"distance": 3, "rank": 2, "pace": 223000000000, "time": 579.9}}, "weekday": "sunday", "livingplace": "Matzingen"}, "dim. 10.12.2006": {"year": 2006, "day": 10, "month": 12, "categories": {"Sch\u00fcA-F": {"distance": 1, "rank": 3, "pace": 198000000000, "time": 278.4}}, "weekday": "sunday", "livingplace": "Matzingen"}, "dim. 13.12.2009": {"year": 2009, "day": 13, "month": 12, "categories": {"M\u00e4dch A": {"distance": 3, "rank": 6, "pace": 222000000000, "time": 578.0}}, "weekday": "sunday", "livingplace": "Matzingen"}}, "location": "Z\u00fcrich"}, "Luzerner Stadtlauf": {"latitude": 47.05016819999999, "longitude": 8.3093072, "race": "Luzerner Stadtlauf", "date": {"sam. 28.04.2007": {"year": 2007, "day": 28, "month": 4, "categories": {"K/15": {"distance": 2, "rank": 1, "pace": 218000000000, "time": 458.9}}, "weekday": "saturday", "livingplace": "Matzingen"}}, "location": "Luzern"}, "St  Galler Altstadtlauf": {"latitude": 47.4244818, "longitude": 9.3767173, "race": "St  Galler Altstadtlauf", "date": {"sam. 23.09.2006": {"year": 2006, "day": 23, "month": 9, "categories": {"SCF": {"distance": 2, "rank": 1, "pace": 218000000000, "time": 403.5}}, "weekday": "saturday", "livingplace": "Matzingen"}, "sam. 17.09.2005": {"year": 2005, "day": 17, "month": 9, "categories": {"SCF": {"distance": 2, "rank": 5, "pace": 242000000000, "time": 363.6}}, "weekday": "saturday", "livingplace": "Matzingen"}}, "location": "St. Gallen"}}, "birth": 1994}