{"name": "K\u00fcnzi Sylvain", "sex": "M", "races": {"Tour du Pays de Vaud printanier #2 Yverdon-les-Bains": {"latitude": 46.6698891, "longitude": 6.7975224, "race": "Tour du Pays de Vaud printanier #2 Yverdon-les-Bains", "date": {"mer. 05.06.2013": {"year": 2013, "day": 5, "month": 6, "categories": {"H-Sen1": {"distance": 9, "rank": 47, "pace": 293000000000, "time": 2668.7}}, "weekday": "wednesday", "livingplace": "Bassins"}}, "location": "Moudon"}, "Tour du Pays de Vaud printanier #3 - Yens": {"latitude": 46.7829756, "longitude": 6.5728678, "race": "Tour du Pays de Vaud printanier #3 - Yens", "date": {"mer. 12.06.2013": {"year": 2013, "day": 12, "month": 6, "categories": {"H-Sen1": {"distance": 9, "rank": 29, "pace": 274000000000, "time": 2498.6}}, "weekday": "wednesday", "livingplace": "Bassins"}}, "location": "Champvent"}, "Tour du Pays de Vaud #2 - Mezi\u00e8res": {"latitude": 46.5955273, "longitude": 6.7702883, "race": "Tour du Pays de Vaud #2 - Mezi\u00e8res", "date": {"mer. 21.08.2013": {"year": 2013, "day": 21, "month": 8, "categories": {"H-Sen1": {"distance": 8, "rank": 41, "pace": 283000000000, "time": 2296.8}}, "weekday": "wednesday", "livingplace": "Bassins"}}, "location": "M\u00e9zi\u00e8res VD"}, "Tour du Pays de Vaud printanier #1 Moudon": {"latitude": 46.3832683, "longitude": 6.2347852, "race": "Tour du Pays de Vaud printanier #1 Moudon", "date": {"mer. 29.05.2013": {"year": 2013, "day": 29, "month": 5, "categories": {"H-Sen1": {"distance": 8, "rank": 35, "pace": 277000000000, "time": 2375.7}}, "weekday": "wednesday", "livingplace": "Bassins"}}, "location": "Nyon"}, "Lausanne Marathon": {"latitude": 46.5196535, "longitude": 6.6322734, "race": "Lausanne Marathon", "date": {"dim. 30.10.2011": {"year": 2011, "day": 30, "month": 10, "categories": {"10-H1": {"distance": 10, "rank": 169, "pace": 281000000000, "time": 2814.8}}, "weekday": "sunday", "livingplace": "Bassins"}, "dim. 27.10.2013": {"year": 2013, "day": 27, "month": 10, "categories": {"21-H2": {"distance": 21, "rank": 203, "pace": 279000000000, "time": 5890.3}}, "weekday": "sunday", "livingplace": "L'Abbaye"}, "dim. 26.10.2014": {"year": 2014, "day": 26, "month": 10, "categories": {"21-H30": {"distance": 21, "rank": 381, "pace": 296000000000, "time": 6259.2}}, "weekday": "sunday", "livingplace": "L'Abbaye"}, "dim. 28.10.2012": {"year": 2012, "day": 28, "month": 10, "categories": {"10-H1": {"distance": 10, "rank": 110, "pace": 268000000000, "time": 2687.2}}, "weekday": "sunday", "livingplace": "Bassins"}}, "location": "Lausanne"}, "20km de Lausanne": {"latitude": 46.5196535, "longitude": 6.6322734, "race": "20km de Lausanne", "date": {"sam. 27.04.2013": {"year": 2013, "day": 27, "month": 4, "categories": {"10-H30": {"distance": 10, "rank": 222, "pace": 270000000000, "time": 2700.9}}, "weekday": "saturday", "livingplace": "Icf"}}, "location": "Lausanne"}, "Tour du Pays de Vaud #3 - Chavornay": {"latitude": 46.7784736, "longitude": 6.641183, "race": "Tour du Pays de Vaud #3 - Chavornay", "date": {"mer. 28.08.2013": {"year": 2013, "day": 28, "month": 8, "categories": {"H-Sen1": {"distance": 9, "rank": 51, "pace": 263000000000, "time": 2341.0}}, "weekday": "wednesday", "livingplace": "Bassins"}}, "location": "Yverdon-les-Bains"}, "Tour du pays de Vaud #1 - Penthaz": {"latitude": 46.5993131, "longitude": 6.539251200000001, "race": "Tour du pays de Vaud #1 - Penthaz", "date": {"mer. 14.08.2013": {"year": 2013, "day": 14, "month": 8, "categories": {"H-Sen1": {"distance": 9, "rank": 46, "pace": 263000000000, "time": 2244.5}}, "weekday": "wednesday", "livingplace": "Bassins"}}, "location": "Penthaz"}, "Les Traine-Savates, Cheseaux-sur-Lausanne": {"latitude": 46.585452, "longitude": 6.6047712, "race": "Les Traine-Savates, Cheseaux-sur-Lausanne", "date": {"sam. 12.04.2014": {"year": 2014, "day": 12, "month": 4, "categories": {"10-M20": {"distance": 10, "rank": 95, "pace": 268000000000, "time": 2770.4}}, "weekday": "saturday", "livingplace": "L'Abbaye"}}, "location": "Cheseaux-sur-Lausanne"}}, "birth": 1983}