{"name": "Kunz Michael", "sex": "M", "races": {"Morat-Fribourg": {"latitude": 46.92922110000001, "longitude": 7.120184, "race": "Morat-Fribourg", "date": {"sam. 01.10.2011": {"year": 2011, "day": 1, "month": 10, "categories": {"17-M20": {"distance": 17, "rank": 1280, "pace": 321000000000, "time": 5516.2}}, "weekday": "saturday", "livingplace": "Fribourg"}}, "location": "Murten"}, "IWB Basel Marathon": {"latitude": 47.5595986, "longitude": 7.5885761, "race": "IWB Basel Marathon", "date": {"dim. 23.09.2012": {"year": 2012, "day": 23, "month": 9, "categories": {"M-42-M20": {"distance": 42, "rank": 26, "pace": 362000000000, "time": 15283.3}}, "weekday": "sunday", "livingplace": "Fribourg"}}, "location": "Basel"}, "Lausanne Marathon": {"latitude": 46.5196535, "longitude": 6.6322734, "race": "Lausanne Marathon", "date": {"dim. 30.10.2011": {"year": 2011, "day": 30, "month": 10, "categories": {"21-H1": {"distance": 21, "rank": 200, "pace": 287000000000, "time": 6064.3}}, "weekday": "sunday", "livingplace": "Fribourg"}}, "location": "Lausanne"}, "Steinh\u00f6lzlilauf, Liebefeld": {"latitude": 46.933331, "longitude": 7.416668, "race": "Steinh\u00f6lzlilauf, Liebefeld", "date": {"dim. 04.12.2011": {"year": 2011, "day": 4, "month": 12, "categories": {"L-HKM": {"distance": 11, "rank": 16, "pace": 288000000000, "time": 3032.3}}, "weekday": "sunday", "livingplace": "Fribourg"}}, "location": "Liebefeld"}, "20km de Lausanne": {"latitude": 46.5196535, "longitude": 6.6322734, "race": "20km de Lausanne", "date": {"sam. 30.04.2011": {"year": 2011, "day": 30, "month": 4, "categories": {"20-H20": {"distance": 20, "rank": 349, "pace": 313000000000, "time": 6274.8}}, "weekday": "saturday", "livingplace": "Fribourg"}}, "location": "Lausanne"}, "Kerzerslauf": {"latitude": 46.97488999999999, "longitude": 7.1954365, "race": "Kerzerslauf", "date": {"sam. 19.03.2011": {"year": 2011, "day": 19, "month": 3, "categories": {"15-M20": {"distance": 15, "rank": 443, "pace": 326000000000, "time": 4902.8}}, "weekday": "saturday", "livingplace": "Fribourg"}}, "location": "Kerzers"}, "Z\u00fcrcher Silvesterlauf, Z\u00fcrich": {"latitude": 47.3768866, "longitude": 8.541694, "race": "Z\u00fcrcher Silvesterlauf, Z\u00fcrich", "date": {"dim. 11.12.2011": {"year": 2011, "day": 11, "month": 12, "categories": {"8-MenHK": {"distance": 9, "rank": 412, "pace": 289000000000, "time": 2489.0}}, "weekday": "sunday", "livingplace": "Fribourg"}}, "location": "Z\u00fcrich"}}, "birth": 1985}