{"name": "Kunz Martina", "sex": "F", "races": {"Lucerne Marathon, Luzern": {"latitude": 47.05016819999999, "longitude": 8.3093072, "race": "Lucerne Marathon, Luzern", "date": {"dim. 28.10.2012": {"year": 2012, "day": 28, "month": 10, "categories": {"H-F20": {"distance": 21, "rank": 15, "pace": 264000000000, "time": 5580.4}}, "weekday": "sunday", "livingplace": "Zurich"}}, "location": "Luzern"}, "ASICS Bremgarter Reusslauf": {"latitude": 47.34917739999999, "longitude": 8.3397905, "race": "ASICS Bremgarter Reusslauf", "date": {"sam. 22.02.2014": {"year": 2014, "day": 22, "month": 2, "categories": {"11-F30": {"distance": 11, "rank": 14, "pace": 243000000000, "time": 2683.5}}, "weekday": "saturday", "livingplace": "trigether"}, "sam. 28.02.2015": {"year": 2015, "day": 28, "month": 2, "categories": {"11-F30": {"distance": 11, "rank": 6, "pace": 230000000000, "time": 2538.8}}, "weekday": "saturday", "livingplace": "trigether"}}, "location": "Bremgarten AG"}, "Winterthur Marathon": {"latitude": 39.8088766, "longitude": -75.6037351, "race": "Winterthur Marathon", "date": {"dim. 29.05.2011": {"year": 2011, "day": 29, "month": 5, "categories": {"H-F20": {"distance": 21, "rank": 12, "pace": 297000000000, "time": 6251.8}}, "weekday": "sunday", "livingplace": "trigether"}}, "location": "Winterthur"}, "Int Greifenseelauf, Uster": {"latitude": 47.3482747, "longitude": 8.717873899999999, "race": "Int Greifenseelauf, Uster", "date": {"sam. 20.09.2003": {"year": 2003, "day": 20, "month": 9, "categories": {"H/WJ": {"distance": 21, "rank": 12, "pace": 335000000000, "time": 7081.0}}, "weekday": "saturday", "livingplace": "Geroldswil"}}, "location": "Uster"}, "Kerzerslauf": {"latitude": 46.97488999999999, "longitude": 7.1954365, "race": "Kerzerslauf", "date": {"sam. 17.03.2012": {"year": 2012, "day": 17, "month": 3, "categories": {"15-F20": {"distance": 15, "rank": 55, "pace": 278000000000, "time": 4181.1}}, "weekday": "saturday", "livingplace": "Zurich"}, "sam. 15.03.2014": {"year": 2014, "day": 15, "month": 3, "categories": {"15-F20": {"distance": 15, "rank": 18, "pace": 249000000000, "time": 3737.9}}, "weekday": "saturday", "livingplace": "Zurich"}}, "location": "Kerzers"}, "Z\u00fcrcher Silvesterlauf, Z\u00fcrich": {"latitude": 47.3768866, "longitude": 8.541694, "race": "Z\u00fcrcher Silvesterlauf, Z\u00fcrich", "date": {"dim. 14.12.2014": {"year": 2014, "day": 14, "month": 12, "categories": {"10-F30": {"distance": 10, "rank": 5, "pace": 233000000000, "time": 2338.1}}, "weekday": "sunday", "livingplace": "Zurich"}, "dim. 11.12.2011": {"year": 2011, "day": 11, "month": 12, "categories": {"8-DaHK": {"distance": 9, "rank": 29, "pace": 268000000000, "time": 2312.1}}, "weekday": "sunday", "livingplace": "Zurich"}}, "location": "Z\u00fcrich"}}, "birth": 1984}