{"name": "Lacour Marc", "sex": "M", "races": {"A travers Carouge - Run to Run": {"latitude": 46.1829674, "longitude": 6.1378539, "race": "A travers Carouge - Run to Run", "date": {"sam. 25.09.2010": {"year": 2010, "day": 25, "month": 9, "categories": {"10-Hom2": {"distance": 10, "rank": 113, "pace": 286000000000, "time": 2868.6}}, "weekday": "saturday", "livingplace": "Geneve"}, "sam. 24.09.2011": {"year": 2011, "day": 24, "month": 9, "categories": {"5-Hom3": {"distance": 5, "rank": 14, "pace": 327000000000, "time": 1639.6}}, "weekday": "saturday", "livingplace": "Geneve"}}, "location": "Carouge GE"}, "Lausanne Marathon": {"latitude": 46.5196535, "longitude": 6.6322734, "race": "Lausanne Marathon", "date": {"dim. 31.10.2010": {"year": 2010, "day": 31, "month": 10, "categories": {"42-H3": {"distance": 42, "rank": 362, "pace": 363000000000, "time": 15343.7}}, "weekday": "sunday", "livingplace": "Geneve"}}, "location": "Lausanne"}, "Morat-Fribourg": {"latitude": 46.92922110000001, "longitude": 7.120184, "race": "Morat-Fribourg", "date": {"sam. 02.10.2010": {"year": 2010, "day": 2, "month": 10, "categories": {"17-M45": {"distance": 17, "rank": 449, "pace": 333000000000, "time": 5732.7}}, "weekday": "saturday", "livingplace": "Geneve"}}, "location": "Murten"}, "Montreux - Les Rochers de Naye": {"latitude": 46.4312213, "longitude": 6.9106799, "race": "Montreux - Les Rochers de Naye", "date": {"dim. 11.07.2010": {"year": 2010, "day": 11, "month": 7, "categories": {"M-V\u00e9t1": {"distance": 19, "rank": 177, "pace": 539000000000, "time": 10138.0}}, "weekday": "sunday", "livingplace": "Geneve"}}, "location": "Montreux"}, "Course de l'Escalade, Gen\u00e8ve": {"latitude": 46.2043907, "longitude": 6.1431577, "race": "Course de l'Escalade, Gen\u00e8ve", "date": {"sam. 03.12.2011": {"year": 2011, "day": 3, "month": 12, "categories": {"H-H4": {"distance": 7, "rank": 549, "pace": 309000000000, "time": 2246.5}}, "weekday": "saturday", "livingplace": "Geneve"}, "sam. 07.12.2013": {"year": 2013, "day": 7, "month": 12, "categories": {"Esc-Hom4": {"distance": 7, "rank": 781, "pace": 336000000000, "time": 2437.2}}, "weekday": "saturday", "livingplace": "Geneve"}, "sam. 06.12.2014": {"year": 2014, "day": 6, "month": 12, "categories": {"Esc-Hom4": {"distance": 7, "rank": 875, "pace": 341000000000, "time": 2503.3}}, "weekday": "saturday", "livingplace": "Geneve"}}, "location": "Gen\u00e8ve"}, "Tour de Presinge": {"latitude": 46.21860299999999, "longitude": 6.2535283, "race": "Tour de Presinge", "date": {"dim. 20.03.2011": {"year": 2011, "day": 20, "month": 3, "categories": {"10-H3": {"distance": 10, "rank": 54, "pace": 325000000000, "time": 3251.7}}, "weekday": "sunday", "livingplace": "Geneve"}}, "location": "Presinge"}}, "birth": 1961}