{"name": "Lacreuse Maxime", "sex": "M", "races": {"BCN Tour M\u00f4tier": {"latitude": 46.9262933, "longitude": 6.6324944, "race": "BCN Tour M\u00f4tier", "date": {"mer. 19.05.2010": {"year": 2010, "day": 19, "month": 5, "categories": {"KG4": {"distance": 4, "rank": 5, "pace": 236000000000, "time": 898.4}}, "weekday": "wednesday", "livingplace": "Dombresson"}}, "location": "Couvet"}, "BCN Tour La Br\u00e9vine": {"latitude": 46.999113, "longitude": 6.733554799999999, "race": "BCN Tour La Br\u00e9vine", "date": {"mer. 04.05.2011": {"year": 2011, "day": 4, "month": 5, "categories": {"KG4": {"distance": 4, "rank": 2, "pace": 219000000000, "time": 835.8}}, "weekday": "wednesday", "livingplace": "Dombresson"}}, "location": "Les Ponts-de-Martel"}, "BCN Tour Fontaine Cernier": {"latitude": 47.0624261, "longitude": 6.9175754, "race": "BCN Tour Fontaine Cernier", "date": {"mer. 27.04.2011": {"year": 2011, "day": 27, "month": 4, "categories": {"KG4": {"distance": 3, "rank": 2, "pace": 240000000000, "time": 722.7}}, "weekday": "wednesday", "livingplace": "Dombresson"}}, "location": "Ch\u00e9zard-St-Martin"}, "BCN Tour Le Landeron": {"latitude": 46.9668714, "longitude": 6.8589727, "race": "BCN Tour Le Landeron", "date": {"mer. 22.04.2009": {"year": 2009, "day": 22, "month": 4, "categories": {"KG3": {"distance": 4, "rank": 1, "pace": 221000000000, "time": 885.0}}, "weekday": "wednesday", "livingplace": "Dombresson"}}, "location": "Colombier NE"}, "BCN Tour Le Locle": {"latitude": 46.999113, "longitude": 6.733554799999999, "race": "BCN Tour Le Locle", "date": {"mer. 05.05.2010": {"year": 2010, "day": 5, "month": 5, "categories": {"KG4": {"distance": 4, "rank": 4, "pace": 218000000000, "time": 809.5}}, "weekday": "wednesday", "livingplace": "Dombresson"}}, "location": "Les Ponts-de-Martel"}, "BCN Tour Neuch\u00e2tel": {"latitude": 46.9899874, "longitude": 6.9292732, "race": "BCN Tour Neuch\u00e2tel", "date": {"mer. 26.05.2010": {"year": 2010, "day": 26, "month": 5, "categories": {"HJ": {"distance": 10, "rank": 13, "pace": 281000000000, "time": 2728.9}}, "weekday": "wednesday", "livingplace": "Dombresson"}, "mer. 30.05.2012": {"year": 2012, "day": 30, "month": 5, "categories": {"HJ": {"distance": 11, "rank": 8, "pace": 269000000000, "time": 3019.4}}, "weekday": "wednesday", "livingplace": "Dombresson"}, "mer. 25.05.2011": {"year": 2011, "day": 25, "month": 5, "categories": {"KG4": {"distance": 4, "rank": 1, "pace": 198000000000, "time": 720.1}}, "weekday": "wednesday", "livingplace": "Dombresson"}}, "location": "Neuch\u00e2tel"}, "BCN Tour Auvernier": {"latitude": 46.9668714, "longitude": 6.8589727, "race": "BCN Tour Auvernier", "date": {"mer. 20.04.2011": {"year": 2011, "day": 20, "month": 4, "categories": {"KG4": {"distance": 2, "rank": 2, "pace": 195000000000, "time": 460.2}}, "weekday": "wednesday", "livingplace": "Dombresson"}}, "location": "Colombier NE"}, "BCN Tour La Chaux-de-Fonds": {"latitude": 47.1034892, "longitude": 6.832783800000001, "race": "BCN Tour La Chaux-de-Fonds", "date": {"mer. 11.05.2011": {"year": 2011, "day": 11, "month": 5, "categories": {"KG4": {"distance": 4, "rank": 2, "pace": 166000000000, "time": 649.2}}, "weekday": "wednesday", "livingplace": "Dombresson"}}, "location": "La Chaux-de-Fonds"}, "BCN Tour #6 Neuch\u00e2tel": {"latitude": 46.9899874, "longitude": 6.9292732, "race": "BCN Tour #6 Neuch\u00e2tel", "date": {"mer. 29.05.2013": {"year": 2013, "day": 29, "month": 5, "categories": {"HJ": {"distance": 11, "rank": 14, "pace": 267000000000, "time": 2946.1}}, "weekday": "wednesday", "livingplace": "Dombresson"}}, "location": "Neuch\u00e2tel"}, "D\u00e9fi Val-de-Travers, Couvet": {"latitude": 46.9262933, "longitude": 6.6324944, "race": "D\u00e9fi Val-de-Travers, Couvet", "date": {"sam. 21.06.2008": {"year": 2008, "day": 21, "month": 6, "categories": {"GA": {"distance": 3, "rank": 1, "pace": 227000000000, "time": 580.0}}, "weekday": "saturday", "livingplace": "Dombresson"}}, "location": "Couvet"}, "BCN Tour Ponts-de-Martel": {"latitude": 47.0624261, "longitude": 6.9175754, "race": "BCN Tour Ponts-de-Martel", "date": {"mer. 28.04.2010": {"year": 2010, "day": 28, "month": 4, "categories": {"KG4": {"distance": 4, "rank": 4, "pace": 196000000000, "time": 825.8}}, "weekday": "wednesday", "livingplace": "Dombresson"}}, "location": "Ch\u00e9zard-St-Martin"}, "BCN Tour Les Ponts de Martel": {"latitude": 46.9262933, "longitude": 6.6324944, "race": "BCN Tour Les Ponts de Martel", "date": {"mer. 18.05.2011": {"year": 2011, "day": 18, "month": 5, "categories": {"KG4": {"distance": 4, "rank": 1, "pace": 201000000000, "time": 786.5}}, "weekday": "wednesday", "livingplace": "Dombresson"}}, "location": "Couvet"}, "BCN Tour Boudry": {"latitude": 46.9668714, "longitude": 6.8589727, "race": "BCN Tour Boudry", "date": {"mer. 26.04.2006": {"year": 2006, "day": 26, "month": 4, "categories": {"KG2": {"distance": 2, "rank": 4, "pace": 255000000000, "time": 486.0}}, "weekday": "wednesday", "livingplace": "Dombresson"}}, "location": "Colombier NE"}, "BCN Tour La Chaux-de-fonds": {"latitude": 47.1034892, "longitude": 6.832783800000001, "race": "BCN Tour La Chaux-de-fonds", "date": {"mer. 12.05.2010": {"year": 2010, "day": 12, "month": 5, "categories": {"HJ": {"distance": 11, "rank": 36, "pace": 351000000000, "time": 3762.1}}, "weekday": "wednesday", "livingplace": "Dombresson"}}, "location": "La Chaux-de-Fonds"}, "BCN Tour Colombier": {"latitude": 46.9668714, "longitude": 6.8589727, "race": "BCN Tour Colombier", "date": {"mer. 23.04.2008": {"year": 2008, "day": 23, "month": 4, "categories": {"KG3": {"distance": 4, "rank": 4, "pace": 249000000000, "time": 996.0}}, "weekday": "wednesday", "livingplace": "Dombresson"}, "mer. 21.04.2010": {"year": 2010, "day": 21, "month": 4, "categories": {"KG4": {"distance": 4, "rank": 8, "pace": 236000000000, "time": 947.0}}, "weekday": "wednesday", "livingplace": "Dombresson"}}, "location": "Colombier NE"}}, "birth": 1996}