{"name": "Lagerstr\u00f6m Mark", "sex": "M", "races": {"Schlosslauf Rapperswil-Jona": {"latitude": 47.2266239, "longitude": 8.818437399999999, "race": "Schlosslauf Rapperswil-Jona", "date": {"dim. 18.10.2015": {"year": 2015, "day": 18, "month": 10, "categories": {"10-M2": {"distance": 10, "rank": 4, "pace": 212000000000, "time": 2129.5}}, "weekday": "sunday", "livingplace": "Dubendorf"}}, "location": "Rapperswil SG"}, "Walliseller Lauf, Wallisellen": {"latitude": NaN, "longitude": NaN, "race": "Walliseller Lauf, Wallisellen", "date": {"dim. 01.11.2015": {"year": 2015, "day": 1, "month": 11, "categories": {"M2": {"distance": 10, "rank": 2, "pace": 213000000000, "time": 2133.2}}, "weekday": "sunday", "livingplace": "Sv Wiedikon"}}, "location": "Wallisellen"}, "ASICS Bremgarter Reusslauf": {"latitude": 47.34917739999999, "longitude": 8.3397905, "race": "ASICS Bremgarter Reusslauf", "date": {"sam. 23.02.2013": {"year": 2013, "day": 23, "month": 2, "categories": {"11-M30": {"distance": 11, "rank": 37, "pace": 221000000000, "time": 2431.1}}, "weekday": "saturday", "livingplace": "Dubendorf"}, "sam. 22.02.2014": {"year": 2014, "day": 22, "month": 2, "categories": {"11-M30": {"distance": 11, "rank": 68, "pace": 228000000000, "time": 2513.0}}, "weekday": "saturday", "livingplace": "Dubendorf"}, "sam. 28.02.2015": {"year": 2015, "day": 28, "month": 2, "categories": {"11-M30": {"distance": 11, "rank": 25, "pace": 214000000000, "time": 2362.6}}, "weekday": "saturday", "livingplace": "Dubendorf"}}, "location": "Bremgarten AG"}, "Lausanne Marathon": {"latitude": 46.5196535, "longitude": 6.6322734, "race": "Lausanne Marathon", "date": {"dim. 26.10.2014": {"year": 2014, "day": 26, "month": 10, "categories": {"42-H30": {"distance": 42, "rank": 63, "pace": 295000000000, "time": 12457.1}}, "weekday": "sunday", "livingplace": "Dubendorf"}}, "location": "Lausanne"}, "SM CS 10km Strasse route + Volkslauf 10km, Uster": {"latitude": 47.3482747, "longitude": 8.717873899999999, "race": "SM CS 10km Strasse route + Volkslauf 10km, Uster", "date": {"sam. 23.03.2013": {"year": 2013, "day": 23, "month": 3, "categories": {"10-M35": {"distance": 10, "rank": 18, "pace": 216000000000, "time": 2169.1}}, "weekday": "saturday", "livingplace": "Dubendorf"}}, "location": "Uster"}, "Int Greifenseelauf, Uster": {"latitude": 47.3482747, "longitude": 8.717873899999999, "race": "Int Greifenseelauf, Uster", "date": {"sam. 17.09.2005": {"year": 2005, "day": 17, "month": 9, "categories": {"H/M20": {"distance": 21, "rank": 110, "pace": 256000000000, "time": 5421.5}}, "weekday": "saturday", "livingplace": "Zurich"}}, "location": "Uster"}, "Sihltaler Fr\u00fchlingslauf, Gattikon": {"latitude": 47.2949282, "longitude": 8.5644799, "race": "Sihltaler Fr\u00fchlingslauf, Gattikon", "date": {"jeu. 01.05.2014": {"year": 2014, "day": 1, "month": 5, "categories": {"10-M30": {"distance": 10, "rank": 5, "pace": 216000000000, "time": 2162.5}}, "weekday": "thursday", "livingplace": "Dubendorf"}}, "location": "Gattikon"}, "Z\u00fcrich Marathon, Teamrun und Cityrun": {"latitude": 47.3768866, "longitude": 8.541694, "race": "Z\u00fcrich Marathon, Teamrun und Cityrun", "date": {"dim. 20.04.2008": {"year": 2008, "day": 20, "month": 4, "categories": {"M30": {"distance": 42, "rank": 205, "pace": 270000000000, "time": 11419.3}}, "weekday": "sunday", "livingplace": "Zurich"}}, "location": "Z\u00fcrich"}}, "birth": 1977}