{"name": "Laignel Jules", "sex": "M", "races": {"Tour du Chablais #1 Roche": {"latitude": 46.2957462, "longitude": 6.9916269, "race": "Tour du Chablais #1 Roche", "date": {"mer. 07.04.2010": {"year": 2010, "day": 7, "month": 4, "categories": {"M-M60": {"distance": 9, "rank": 28, "pace": 317000000000, "time": 2837.3}}, "weekday": "wednesday", "livingplace": "Martigny"}}, "location": "Ollon VD"}, "Tour du Chablais #1 Martigny": {"latitude": 46.2957462, "longitude": 6.9916269, "race": "Tour du Chablais #1 Martigny", "date": {"mer. 23.04.2014": {"year": 2014, "day": 23, "month": 4, "categories": {"M-M60": {"distance": 9, "rank": 40, "pace": 338000000000, "time": 2877.1}}, "weekday": "wednesday", "livingplace": "Martigny"}}, "location": "Ollon VD"}, "Morat-Fribourg": {"latitude": 46.92922110000001, "longitude": 7.120184, "race": "Morat-Fribourg", "date": {"sam. 04.10.2008": {"year": 2008, "day": 4, "month": 10, "categories": {"C-M65": {"distance": 17, "rank": 41, "pace": 341000000000, "time": 5864.6}}, "weekday": "saturday", "livingplace": "Martigny"}, "dim. 05.10.2003": {"year": 2003, "day": 5, "month": 10, "categories": {"M60": {"distance": 17, "rank": 127, "pace": 347000000000, "time": 5971.1}}, "weekday": "sunday", "livingplace": "Martigny"}, "sam. 06.10.2007": {"year": 2007, "day": 6, "month": 10, "categories": {"C/M65": {"distance": 17, "rank": 28, "pace": 330000000000, "time": 5678.0}}, "weekday": "saturday", "livingplace": "Martigny"}, "dim. 06.10.2002": {"year": 2002, "day": 6, "month": 10, "categories": {"M60": {"distance": 17, "rank": 86, "pace": 324000000000, "time": 5578.6}}, "weekday": "sunday", "livingplace": "Martigny"}}, "location": "Murten"}, "Course Titz\u00e9 de no\u00ebl Sion": {"latitude": 46.2331221, "longitude": 7.360625999999999, "race": "Course Titz\u00e9 de no\u00ebl Sion", "date": {"sam. 15.12.2001": {"year": 2001, "day": 15, "month": 12, "categories": {"53": {"distance": 7, "rank": 42, "pace": 282000000000, "time": 2074.2}}, "weekday": "saturday", "livingplace": "Martigny"}}, "location": "Sion"}, "Tour du Chablais #3 Le Bouveret": {"latitude": 46.1782231, "longitude": 7.0223787, "race": "Tour du Chablais #3 Le Bouveret", "date": {"mer. 11.05.2011": {"year": 2011, "day": 11, "month": 5, "categories": {"M-M60": {"distance": 10, "rank": 38, "pace": 338000000000, "time": 3384.7}}, "weekday": "wednesday", "livingplace": "Martigny"}}, "location": "Evionnaz"}, "20km de Lausanne": {"latitude": 46.5196535, "longitude": 6.6322734, "race": "20km de Lausanne", "date": {"sam. 09.06.2001": {"year": 2001, "day": 9, "month": 6, "categories": {"13": {"distance": 18, "rank": 44, "pace": 329000000000, "time": 5991.5}}, "weekday": "saturday", "livingplace": "Martigny"}, "sam. 22.04.2006": {"year": 2006, "day": 22, "month": 4, "categories": {"20/H65": {"distance": 20, "rank": 2, "pace": 320000000000, "time": 6404.4}}, "weekday": "saturday", "livingplace": "Martigny"}}, "location": "Lausanne"}, "Tour du Chablais #5 Morgins": {"latitude": 46.3603257, "longitude": 6.931504599999999, "race": "Tour du Chablais #5 Morgins", "date": {"mer. 01.05.2013": {"year": 2013, "day": 1, "month": 5, "categories": {"M-M60": {"distance": 8, "rank": 33, "pace": 384000000000, "time": 2925.4}}, "weekday": "wednesday", "livingplace": "Martigny"}}, "location": "Roche VD"}, "Tour du Chablais #2 Bex": {"latitude": 46.3835529, "longitude": 6.854975199999999, "race": "Tour du Chablais #2 Bex", "date": {"mer. 18.04.2012": {"year": 2012, "day": 18, "month": 4, "categories": {"M-M60": {"distance": 8, "rank": 29, "pace": 337000000000, "time": 2696.3}}, "weekday": "wednesday", "livingplace": "Martigny"}}, "location": "Bouveret"}, "Tour du Chablais #5 Bex": {"latitude": 46.3603257, "longitude": 6.931504599999999, "race": "Tour du Chablais #5 Bex", "date": {"mer. 09.05.2012": {"year": 2012, "day": 9, "month": 5, "categories": {"M-M60": {"distance": 9, "rank": 25, "pace": 338000000000, "time": 2998.3}}, "weekday": "wednesday", "livingplace": "Martigny"}}, "location": "Roche VD"}, "Tour du Chablais #4 Champ\u00e9ry": {"latitude": NaN, "longitude": NaN, "race": "Tour du Chablais #4 Champ\u00e9ry", "date": {"mer. 02.05.2012": {"year": 2012, "day": 2, "month": 5, "categories": {"M-M60": {"distance": 8, "rank": 26, "pace": 343000000000, "time": 2854.9}}, "weekday": "wednesday", "livingplace": "Martigny"}}, "location": "Les Mosses"}, "Tour du Chablais #1 Montreux": {"latitude": 46.2957462, "longitude": 6.9916269, "race": "Tour du Chablais #1 Montreux", "date": {"mer. 11.04.2012": {"year": 2012, "day": 11, "month": 4, "categories": {"M-M60": {"distance": 8, "rank": 34, "pace": 356000000000, "time": 2709.2}}, "weekday": "wednesday", "livingplace": "Martigny"}}, "location": "Ollon VD"}, "Tour du Chablais #3 Collombey-Muraz": {"latitude": 46.1782231, "longitude": 7.0223787, "race": "Tour du Chablais #3 Collombey-Muraz", "date": {"mer. 25.04.2012": {"year": 2012, "day": 25, "month": 4, "categories": {"M-M60": {"distance": 9, "rank": 27, "pace": 330000000000, "time": 2972.2}}, "weekday": "wednesday", "livingplace": "Martigny"}}, "location": "Evionnaz"}, "Kerzerslauf": {"latitude": 46.97488999999999, "longitude": 7.1954365, "race": "Kerzerslauf", "date": {"sam. 17.03.2012": {"year": 2012, "day": 17, "month": 3, "categories": {"15-M70": {"distance": 15, "rank": 32, "pace": 376000000000, "time": 5650.3}}, "weekday": "saturday", "livingplace": "Martigny"}, "sam. 20.03.2004": {"year": 2004, "day": 20, "month": 3, "categories": {"M65": {"distance": 15, "rank": 23, "pace": 321000000000, "time": 4824.3}}, "weekday": "saturday", "livingplace": "Martigny"}}, "location": "Kerzers"}, "Tour du Chablais #6 Montreux": {"latitude": 46.3190253, "longitude": 6.970566, "race": "Tour du Chablais #6 Montreux", "date": {"mer. 16.05.2012": {"year": 2012, "day": 16, "month": 5, "categories": {"M-M60": {"distance": 9, "rank": 25, "pace": 315000000000, "time": 2918.4}}, "weekday": "wednesday", "livingplace": "Martigny"}}, "location": "Aigle"}}, "birth": 1939}