{"name": "Lamboley Mathieu", "sex": "M", "races": {"BCN Tour Couvet": {"latitude": 47.0624261, "longitude": 6.9175754, "race": "BCN Tour Couvet", "date": {"mer. 02.05.2012": {"year": 2012, "day": 2, "month": 5, "categories": {"HS1": {"distance": 11, "rank": 145, "pace": 313000000000, "time": 3498.2}}, "weekday": "wednesday", "livingplace": "Valangin"}}, "location": "Ch\u00e9zard-St-Martin"}, "Morat-Fribourg": {"latitude": 46.92922110000001, "longitude": 7.120184, "race": "Morat-Fribourg", "date": {"sam. 03.10.2009": {"year": 2009, "day": 3, "month": 10, "categories": {"C-M20": {"distance": 17, "rank": 1225, "pace": 315000000000, "time": 5409.5}}, "weekday": "saturday", "livingplace": "Team UCB"}, "sam. 06.10.2012": {"year": 2012, "day": 6, "month": 10, "categories": {"17-M20": {"distance": 17, "rank": 1159, "pace": 309000000000, "time": 5394.3}}, "weekday": "saturday", "livingplace": "Valangin"}, "sam. 02.10.2010": {"year": 2010, "day": 2, "month": 10, "categories": {"17-M20": {"distance": 17, "rank": 1079, "pace": 310000000000, "time": 5334.8}}, "weekday": "saturday", "livingplace": "Lausanne"}}, "location": "Murten"}, "La Trotteuse-Tissot, La Chaux-de-Fonds": {"latitude": 47.1034892, "longitude": 6.832783800000001, "race": "La Trotteuse-Tissot, La Chaux-de-Fonds", "date": {"sam. 12.12.2015": {"year": 2015, "day": 12, "month": 12, "categories": {"GC-H30": {"distance": 8, "rank": 213, "pace": 309000000000, "time": 2477.9}}, "weekday": "saturday", "livingplace": "Valangin"}}, "location": "La Chaux-de-Fonds"}, "20km de Lausanne": {"latitude": 46.5196535, "longitude": 6.6322734, "race": "20km de Lausanne", "date": {"sam. 30.04.2011": {"year": 2011, "day": 30, "month": 4, "categories": {"20-H30": {"distance": 20, "rank": 491, "pace": 300000000000, "time": 6008.0}}, "weekday": "saturday", "livingplace": "Lausanne"}, "sam. 24.04.2010": {"year": 2010, "day": 24, "month": 4, "categories": {"20-H30": {"distance": 20, "rank": 588, "pace": 327000000000, "time": 6558.2}}, "weekday": "saturday", "livingplace": "Lausanne"}, "sam. 25.04.2009": {"year": 2009, "day": 25, "month": 4, "categories": {"10-H30": {"distance": 10, "rank": 378, "pace": 305000000000, "time": 3050.2}}, "weekday": "saturday", "livingplace": "Lausanne"}, "sam. 28.04.2012": {"year": 2012, "day": 28, "month": 4, "categories": {"20-H30": {"distance": 20, "rank": 358, "pace": 303000000000, "time": 6064.4}}, "weekday": "saturday", "livingplace": "Valangin"}}, "location": "Lausanne"}, "BCN Tour #1 Corcelles": {"latitude": 46.9668714, "longitude": 6.8589727, "race": "BCN Tour #1 Corcelles", "date": {"mer. 24.04.2013": {"year": 2013, "day": 24, "month": 4, "categories": {"HS1": {"distance": 10, "rank": 201, "pace": 317000000000, "time": 3111.9}}, "weekday": "wednesday", "livingplace": "Valangin"}}, "location": "Colombier NE"}, "BCN Tour #4 Fleurier": {"latitude": 47.1034892, "longitude": 6.832783800000001, "race": "BCN Tour #4 Fleurier", "date": {"mer. 15.05.2013": {"year": 2013, "day": 15, "month": 5, "categories": {"HS1": {"distance": 9, "rank": 154, "pace": 303000000000, "time": 2621.3}}, "weekday": "wednesday", "livingplace": "Valangin"}}, "location": "La Chaux-de-Fonds"}, "BCN Tour Cornaux": {"latitude": 46.9668714, "longitude": 6.8589727, "race": "BCN Tour Cornaux", "date": {"mer. 25.04.2012": {"year": 2012, "day": 25, "month": 4, "categories": {"HS1": {"distance": 11, "rank": 162, "pace": 353000000000, "time": 3889.7}}, "weekday": "wednesday", "livingplace": "Valangin"}}, "location": "Colombier NE"}, "BCN Tour #2 La Chaux-de-Fonds": {"latitude": 47.0624261, "longitude": 6.9175754, "race": "BCN Tour #2 La Chaux-de-Fonds", "date": {"mer. 01.05.2013": {"year": 2013, "day": 1, "month": 5, "categories": {"HS1": {"distance": 11, "rank": 194, "pace": 301000000000, "time": 3221.1}}, "weekday": "wednesday", "livingplace": "Valangin"}}, "location": "Ch\u00e9zard-St-Martin"}, "BCN Tour La Chaux-de-Fonds": {"latitude": 46.9262933, "longitude": 6.6324944, "race": "BCN Tour La Chaux-de-Fonds", "date": {"mer. 23.05.2012": {"year": 2012, "day": 23, "month": 5, "categories": {"HS1": {"distance": 11, "rank": 196, "pace": 321000000000, "time": 3469.1}}, "weekday": "wednesday", "livingplace": "Valangin"}}, "location": "Couvet"}, "BCN Tour #6 Neuch\u00e2tel": {"latitude": 46.9899874, "longitude": 6.9292732, "race": "BCN Tour #6 Neuch\u00e2tel", "date": {"mer. 29.05.2013": {"year": 2013, "day": 29, "month": 5, "categories": {"HS1": {"distance": 11, "rank": 185, "pace": 330000000000, "time": 3638.8}}, "weekday": "wednesday", "livingplace": "Valangin"}}, "location": "Neuch\u00e2tel"}, "BCN Tour Les Ponts-de-Martel": {"latitude": 46.999113, "longitude": 6.733554799999999, "race": "BCN Tour Les Ponts-de-Martel", "date": {"mer. 09.05.2012": {"year": 2012, "day": 9, "month": 5, "categories": {"HS1": {"distance": 10, "rank": 150, "pace": 315000000000, "time": 3250.6}}, "weekday": "wednesday", "livingplace": "Valangin"}}, "location": "Les Ponts-de-Martel"}, "BCN Tour Neuch\u00e2tel": {"latitude": 46.9899874, "longitude": 6.9292732, "race": "BCN Tour Neuch\u00e2tel", "date": {"mer. 30.05.2012": {"year": 2012, "day": 30, "month": 5, "categories": {"HS1": {"distance": 11, "rank": 175, "pace": 333000000000, "time": 3730.5}}, "weekday": "wednesday", "livingplace": "Valangin"}}, "location": "Neuch\u00e2tel"}, "BCN Tour #5 Colombier": {"latitude": 46.9262933, "longitude": 6.6324944, "race": "BCN Tour #5 Colombier", "date": {"mer. 22.05.2013": {"year": 2013, "day": 22, "month": 5, "categories": {"HS1": {"distance": 11, "rank": 191, "pace": 288000000000, "time": 3025.2}}, "weekday": "wednesday", "livingplace": "Valangin"}}, "location": "Couvet"}, "BCN Tour #3 Dombresson": {"latitude": 46.999113, "longitude": 6.733554799999999, "race": "BCN Tour #3 Dombresson", "date": {"mer. 08.05.2013": {"year": 2013, "day": 8, "month": 5, "categories": {"HS1": {"distance": 10, "rank": 209, "pace": 303000000000, "time": 3003.6}}, "weekday": "wednesday", "livingplace": "Valangin"}}, "location": "Les Ponts-de-Martel"}, "BCN Tour Colombier": {"latitude": 47.1034892, "longitude": 6.832783800000001, "race": "BCN Tour Colombier", "date": {"mer. 16.05.2012": {"year": 2012, "day": 16, "month": 5, "categories": {"HS1": {"distance": 11, "rank": 130, "pace": 298000000000, "time": 3220.3}}, "weekday": "wednesday", "livingplace": "Valangin"}}, "location": "La Chaux-de-Fonds"}, "Les Traine-Savates, Cheseaux-sur-Lausanne": {"latitude": 46.585452, "longitude": 6.6047712, "race": "Les Traine-Savates, Cheseaux-sur-Lausanne", "date": {"sam. 04.04.2009": {"year": 2009, "day": 4, "month": 4, "categories": {"Hom Sen": {"distance": 10, "rank": 195, "pace": 320000000000, "time": 3331.1}}, "weekday": "saturday", "livingplace": "Lausanne"}}, "location": "Cheseaux-sur-Lausanne"}}, "birth": 1976}