{"name": "Lambert Vincent", "sex": "M", "races": {"Groupe E Tour Fribourg #1 Gurmels": {"latitude": 46.81832, "longitude": 6.977279999999999, "race": "Groupe E Tour Fribourg #1 Gurmels", "date": {"mer. 29.08.2012": {"year": 2012, "day": 29, "month": 8, "categories": {"HE": {"distance": 8, "rank": 31, "pace": 359000000000, "time": 3017.9}}, "weekday": "wednesday", "livingplace": "Autavaux"}}, "location": "Cousset"}, "Groupe E Tour Fribourg #2 Plafayon": {"latitude": 46.6175845, "longitude": 7.1654493, "race": "Groupe E Tour Fribourg #2 Plafayon", "date": {"mer. 05.09.2012": {"year": 2012, "day": 5, "month": 9, "categories": {"HE": {"distance": 9, "rank": 26, "pace": 329000000000, "time": 3076.2}}, "weekday": "wednesday", "livingplace": "Autavaux"}}, "location": "Charmey (Gruy\u00e8re)"}, "Morat-Fribourg": {"latitude": 46.92922110000001, "longitude": 7.120184, "race": "Morat-Fribourg", "date": {"sam. 04.10.2008": {"year": 2008, "day": 4, "month": 10, "categories": {"C-M20": {"distance": 17, "rank": 1370, "pace": 323000000000, "time": 5553.4}}, "weekday": "saturday", "livingplace": "Lully"}}, "location": "Murten"}, "Groupe E Tour Fribourg #4 Siviriez": {"latitude": 46.6585092, "longitude": 6.877722, "race": "Groupe E Tour Fribourg #4 Siviriez", "date": {"mer. 19.09.2012": {"year": 2012, "day": 19, "month": 9, "categories": {"HE": {"distance": 9, "rank": 37, "pace": 362000000000, "time": 3405.5}}, "weekday": "wednesday", "livingplace": "Autavaux"}}, "location": "Siviriez"}, "10km de Payerne": {"latitude": 46.8220266, "longitude": 6.9405663, "race": "10km de Payerne", "date": {"sam. 27.03.2010": {"year": 2010, "day": 27, "month": 3, "categories": {"M Elite": {"distance": 10, "rank": 92, "pace": 282000000000, "time": 2828.1}}, "weekday": "saturday", "livingplace": "Bollion"}, "sam. 28.03.2009": {"year": 2009, "day": 28, "month": 3, "categories": {"M Elite": {"distance": 10, "rank": 67, "pace": 264000000000, "time": 2648.9}}, "weekday": "saturday", "livingplace": "Lully"}}, "location": "Payerne"}}, "birth": 1985}