{"name": "Lampert David", "sex": "M", "races": {"Tour du Pays de Vaud #2 - Genolier": {"latitude": 46.5955273, "longitude": 6.7702883, "race": "Tour du Pays de Vaud #2 - Genolier", "date": {"mer. 15.08.2012": {"year": 2012, "day": 15, "month": 8, "categories": {"H-Sen1": {"distance": 9, "rank": 21, "pace": 242000000000, "time": 2063.2}}, "weekday": "wednesday", "livingplace": "St Cergue"}, "mer. 17.08.2011": {"year": 2011, "day": 17, "month": 8, "categories": {"H-Hom": {"distance": 9, "rank": 21, "pace": 252000000000, "time": 2144.9}}, "weekday": "wednesday", "livingplace": "St Cergue"}}, "location": "M\u00e9zi\u00e8res VD"}, "Course de l'Escalade, Gen\u00e8ve": {"latitude": 46.2043907, "longitude": 6.1431577, "race": "Course de l'Escalade, Gen\u00e8ve", "date": {"sam. 03.12.2011": {"year": 2011, "day": 3, "month": 12, "categories": {"H-H1": {"distance": 7, "rank": 155, "pace": 253000000000, "time": 1841.3}}, "weekday": "saturday", "livingplace": "St Cergue"}, "sam. 01.12.2012": {"year": 2012, "day": 1, "month": 12, "categories": {"Duc-Hom2": {"distance": 18, "rank": 195, "pace": 275000000000, "time": 4820.9}}, "weekday": "saturday", "livingplace": "St Cergue"}}, "location": "Gen\u00e8ve"}, "Tour du pays de Vaud #1 - Mezi\u00e8res": {"latitude": 46.7784736, "longitude": 6.641183, "race": "Tour du pays de Vaud #1 - Mezi\u00e8res", "date": {"mer. 10.08.2011": {"year": 2011, "day": 10, "month": 8, "categories": {"H-Hom": {"distance": 9, "rank": 23, "pace": 246000000000, "time": 2095.3}}, "weekday": "wednesday", "livingplace": "St Cergue"}}, "location": "Yverdon-les-Bains"}, "Tour du pays de Vaud #5 - Penthaz": {"latitude": 46.5993131, "longitude": 6.539251200000001, "race": "Tour du pays de Vaud #5 - Penthaz", "date": {"mer. 07.09.2011": {"year": 2011, "day": 7, "month": 9, "categories": {"H-Hom": {"distance": 8, "rank": 20, "pace": 276000000000, "time": 2308.8}}, "weekday": "wednesday", "livingplace": "St Cergue"}}, "location": "Penthaz"}, "Sierre-Zinal, Sierre": {"latitude": 46.29413110000001, "longitude": 7.533536199999999, "race": "Sierre-Zinal, Sierre", "date": {"dim. 12.08.2012": {"year": 2012, "day": 12, "month": 8, "categories": {"Elites": {"distance": 31, "rank": 234, "pace": 491000000000, "time": 15241.0}}, "weekday": "sunday", "livingplace": "St Cergue"}}, "location": "Sierre"}, "Morat-Fribourg": {"latitude": 46.92922110000001, "longitude": 7.120184, "race": "Morat-Fribourg", "date": {"sam. 04.10.2014": {"year": 2014, "day": 4, "month": 10, "categories": {"17-M20": {"distance": 17, "rank": 865, "pace": 294000000000, "time": 5065.1}}, "weekday": "saturday", "livingplace": "St Cergue"}}, "location": "Murten"}}, "birth": 1982}