{"name": "La Spina Francesco", "sex": "M", "races": {"Morat-Fribourg": {"latitude": 46.92922110000001, "longitude": 7.120184, "race": "Morat-Fribourg", "date": {"sam. 02.10.2010": {"year": 2010, "day": 2, "month": 10, "categories": {"17-M40": {"distance": 17, "rank": 600, "pace": 344000000000, "time": 5908.9}}, "weekday": "saturday", "livingplace": "Worben"}, "sam. 06.10.2007": {"year": 2007, "day": 6, "month": 10, "categories": {"C/M20": {"distance": 17, "rank": 894, "pace": 299000000000, "time": 5142.0}}, "weekday": "saturday", "livingplace": "Biel/Bienne"}}, "location": "Murten"}, "ASICS Bremgarter Reusslauf": {"latitude": 47.34917739999999, "longitude": 8.3397905, "race": "ASICS Bremgarter Reusslauf", "date": {"sam. 25.02.2006": {"year": 2006, "day": 25, "month": 2, "categories": {"M30": {"distance": 11, "rank": 249, "pace": 279000000000, "time": 2931.7}}, "weekday": "saturday", "livingplace": "Biel/Bienne"}}, "location": "Bremgarten AG"}, "Herbstlauf Burgdorf": {"latitude": 45.277123, "longitude": -115.9129022, "race": "Herbstlauf Burgdorf", "date": {"sam. 23.10.2010": {"year": 2010, "day": 23, "month": 10, "categories": {"M40": {"distance": 15, "rank": 33, "pace": 332000000000, "time": 5055.1}}, "weekday": "saturday", "livingplace": "Worben"}}, "location": "Burgdorf"}, "Basel City Marathon": {"latitude": 47.5595986, "longitude": 7.5885761, "race": "Basel City Marathon", "date": {"dim. 28.08.2005": {"year": 2005, "day": 28, "month": 8, "categories": {"M30": {"distance": 42, "rank": 330, "pace": 358000000000, "time": 15127.9}}, "weekday": "sunday", "livingplace": "Biel/Bienne"}}, "location": "Basel"}, "Kerzerslauf": {"latitude": 46.97488999999999, "longitude": 7.1954365, "race": "Kerzerslauf", "date": {"sam. 19.03.2011": {"year": 2011, "day": 19, "month": 3, "categories": {"15-M40": {"distance": 15, "rank": 489, "pace": 327000000000, "time": 4909.6}}, "weekday": "saturday", "livingplace": "Worben"}}, "location": "Kerzers"}, "Bieler Lauftage, Biel Bienne": {"latitude": 47.1367785, "longitude": 7.2467909, "race": "Bieler Lauftage, Biel Bienne", "date": {"ven. 13.06.2008": {"year": 2008, "day": 13, "month": 6, "categories": {"100/M35": {"distance": 100, "rank": 80, "pace": 382000000000, "time": 38252.6}}, "weekday": "friday", "livingplace": "Biel/Bienne"}, "ven. 15.06.2007": {"year": 2007, "day": 15, "month": 6, "categories": {"100/M35": {"distance": 100, "rank": 43, "pace": 382000000000, "time": 38226.7}}, "weekday": "friday", "livingplace": "Biel/Bienne"}, "ven. 09.06.2006": {"year": 2006, "day": 9, "month": 6, "categories": {"100/M35": {"distance": 100, "rank": 80, "pace": 416000000000, "time": 41660.6}}, "weekday": "friday", "livingplace": "Biel/Bienne"}, "ven. 17.06.2005": {"year": 2005, "day": 17, "month": 6, "categories": {"100/M35": {"distance": 100, "rank": 138, "pace": 504000000000, "time": 50408.2}}, "weekday": "friday", "livingplace": "Biel/Bienne"}}, "location": "Biel/Bienne"}}, "birth": 1969}