{"name": "Lastennet Yves", "sex": "M", "races": {"Tour du Pays de Vaud #1, Penthaz": {"latitude": 46.5993131, "longitude": 6.539251200000001, "race": "Tour du Pays de Vaud #1, Penthaz", "date": {"mer. 13.08.2014": {"year": 2014, "day": 13, "month": 8, "categories": {"H-Sen2": {"distance": 9, "rank": 63, "pace": 279000000000, "time": 2379.9}}, "weekday": "wednesday", "livingplace": "Chigny"}}, "location": "Penthaz"}, "Tour du Pays de Vaud #4 - La Sarraz": {"latitude": 46.7088129, "longitude": 6.5707689, "race": "Tour du Pays de Vaud #4 - La Sarraz", "date": {"mer. 04.09.2013": {"year": 2013, "day": 4, "month": 9, "categories": {"H-Sen2": {"distance": 9, "rank": 47, "pace": 272000000000, "time": 2312.9}}, "weekday": "wednesday", "livingplace": "Chigny"}}, "location": "Chavornay"}, "Tour du Pays de Vaud #3, Chavornay": {"latitude": 46.7784736, "longitude": 6.641183, "race": "Tour du Pays de Vaud #3, Chavornay", "date": {"mer. 27.08.2014": {"year": 2014, "day": 27, "month": 8, "categories": {"H-Sen2": {"distance": 9, "rank": 71, "pace": 296000000000, "time": 2549.0}}, "weekday": "wednesday", "livingplace": "Chigny"}}, "location": "Yverdon-les-Bains"}, "Tour du Pays de Vaud #2 - Mezi\u00e8res": {"latitude": 46.5955273, "longitude": 6.7702883, "race": "Tour du Pays de Vaud #2 - Mezi\u00e8res", "date": {"mer. 21.08.2013": {"year": 2013, "day": 21, "month": 8, "categories": {"H-Sen2": {"distance": 8, "rank": 49, "pace": 291000000000, "time": 2363.0}}, "weekday": "wednesday", "livingplace": "Chigny"}}, "location": "M\u00e9zi\u00e8res VD"}, "Tour du pays de Vaud #1 - Penthaz": {"latitude": 46.5993131, "longitude": 6.539251200000001, "race": "Tour du pays de Vaud #1 - Penthaz", "date": {"mer. 14.08.2013": {"year": 2013, "day": 14, "month": 8, "categories": {"H-Sen2": {"distance": 9, "rank": 69, "pace": 279000000000, "time": 2382.0}}, "weekday": "wednesday", "livingplace": "Chigny"}}, "location": "Penthaz"}, "Tour du Pays de Vaud #3 - Chavornay": {"latitude": 46.7784736, "longitude": 6.641183, "race": "Tour du Pays de Vaud #3 - Chavornay", "date": {"mer. 28.08.2013": {"year": 2013, "day": 28, "month": 8, "categories": {"H-Sen2": {"distance": 9, "rank": 60, "pace": 270000000000, "time": 2409.8}}, "weekday": "wednesday", "livingplace": "Chigny"}}, "location": "Yverdon-les-Bains"}, "20km de Lausanne": {"latitude": 46.5196535, "longitude": 6.6322734, "race": "20km de Lausanne", "date": {"sam. 27.04.2013": {"year": 2013, "day": 27, "month": 4, "categories": {"20-H45": {"distance": 20, "rank": 192, "pace": 298000000000, "time": 5979.3}}, "weekday": "saturday", "livingplace": "Yves"}, "sam. 25.04.2015": {"year": 2015, "day": 25, "month": 4, "categories": {"10-H45": {"distance": 10, "rank": 49, "pace": 273000000000, "time": 2737.6}}, "weekday": "saturday", "livingplace": "Henniez 1"}, "sam. 26.04.2014": {"year": 2014, "day": 26, "month": 4, "categories": {"10-H45": {"distance": 10, "rank": 68, "pace": 275000000000, "time": 2757.4}}, "weekday": "saturday", "livingplace": "Nestle Fitness 1"}}, "location": "Lausanne"}, "Les Traine-Savates, Cheseaux-sur-Lausanne": {"latitude": 46.585452, "longitude": 6.6047712, "race": "Les Traine-Savates, Cheseaux-sur-Lausanne", "date": {"sam. 13.04.2013": {"year": 2013, "day": 13, "month": 4, "categories": {"10-M40": {"distance": 10, "rank": 137, "pace": 303000000000, "time": 3120.9}}, "weekday": "saturday", "livingplace": "Chigny"}, "sam. 12.04.2014": {"year": 2014, "day": 12, "month": 4, "categories": {"10-M40": {"distance": 10, "rank": 104, "pace": 282000000000, "time": 2905.4}}, "weekday": "saturday", "livingplace": "Chigny"}}, "location": "Cheseaux-sur-Lausanne"}}, "birth": 1968}