{"name": "Lattion Ludovic", "sex": "M", "races": {"Tour du Chablais #2 Rennaz": {"latitude": 46.3835529, "longitude": 6.854975199999999, "race": "Tour du Chablais #2 Rennaz", "date": {"mer. 04.05.2011": {"year": 2011, "day": 4, "month": 5, "categories": {"M-EC3": {"distance": 3, "rank": 14, "pace": 252000000000, "time": 805.9}}, "weekday": "wednesday", "livingplace": "Orsieres"}}, "location": "Bouveret"}, "Tour du Chablais #1 Roche": {"latitude": 46.2957462, "longitude": 6.9916269, "race": "Tour du Chablais #1 Roche", "date": {"mer. 03.04.2013": {"year": 2013, "day": 3, "month": 4, "categories": {"M-EC3": {"distance": 3, "rank": 3, "pace": 227000000000, "time": 704.0}}, "weekday": "wednesday", "livingplace": "Orsieres"}}, "location": "Ollon VD"}, "Morat-Fribourg": {"latitude": 46.92922110000001, "longitude": 7.120184, "race": "Morat-Fribourg", "date": {"sam. 06.10.2012": {"year": 2012, "day": 6, "month": 10, "categories": {"EcolMB": {"distance": 2, "rank": 2, "pace": 187000000000, "time": 394.0}}, "weekday": "saturday", "livingplace": "Orsieres"}}, "location": "Murten"}, "Course Titz\u00e9 de no\u00ebl Sion": {"latitude": 46.2331221, "longitude": 7.360625999999999, "race": "Course Titz\u00e9 de no\u00ebl Sion", "date": {"sam. 14.12.2013": {"year": 2013, "day": 14, "month": 12, "categories": {"K-EMA": {"distance": 2, "rank": 1, "pace": 209000000000, "time": 419.1}}, "weekday": "saturday", "livingplace": "Martigny"}}, "location": "Sion"}, "Tour du Chablais #4 Morgins": {"latitude": NaN, "longitude": NaN, "race": "Tour du Chablais #4 Morgins", "date": {"mer. 18.05.2011": {"year": 2011, "day": 18, "month": 5, "categories": {"M-EC3": {"distance": 4, "rank": 7, "pace": 255000000000, "time": 921.4}}, "weekday": "wednesday", "livingplace": "Orsieres"}}, "location": "Les Mosses"}, "Tour du Chablais #6 Monthey": {"latitude": 46.3190253, "longitude": 6.970566, "race": "Tour du Chablais #6 Monthey", "date": {"mer. 08.05.2013": {"year": 2013, "day": 8, "month": 5, "categories": {"M-EC3": {"distance": 3, "rank": 3, "pace": 215000000000, "time": 677.9}}, "weekday": "wednesday", "livingplace": "Orsieres"}}, "location": "Aigle"}, "Sierre-Zinal, Sierre": {"latitude": 46.29413110000001, "longitude": 7.533536199999999, "race": "Sierre-Zinal, Sierre", "date": {"dim. 10.08.2014": {"year": 2014, "day": 10, "month": 8, "categories": {"Jun_Homm": {"distance": 19, "rank": 29, "pace": 346000000000, "time": 6587.1}}, "weekday": "sunday", "livingplace": "Orsieres"}, "dim. 11.08.2013": {"year": 2013, "day": 11, "month": 8, "categories": {"Jun_Homm": {"distance": 19, "rank": 19, "pace": 348000000000, "time": 6626.3}}, "weekday": "sunday", "livingplace": "Orsieres"}}, "location": "Sierre"}, "20km de Lausanne": {"latitude": 46.5196535, "longitude": 6.6322734, "race": "20km de Lausanne", "date": {"sam. 27.04.2013": {"year": 2013, "day": 27, "month": 4, "categories": {"4-EcoB-M": {"distance": 4, "rank": 3, "pace": 221000000000, "time": 885.2}}, "weekday": "saturday", "livingplace": "Orsieres"}, "sam. 26.04.2014": {"year": 2014, "day": 26, "month": 4, "categories": {"4-EcoA-M": {"distance": 4, "rank": 1, "pace": 213000000000, "time": 855.9}}, "weekday": "saturday", "livingplace": "Orsieres"}}, "location": "Lausanne"}, "Course de l'Escalade, Gen\u00e8ve": {"latitude": 46.2043907, "longitude": 6.1431577, "race": "Course de l'Escalade, Gen\u00e8ve", "date": {"sam. 05.12.2015": {"year": 2015, "day": 5, "month": 12, "categories": {"Cad-B-M": {"distance": 5, "rank": 11, "pace": 210000000000, "time": 1018.1}}, "weekday": "saturday", "livingplace": "Orsieres"}}, "location": "Gen\u00e8ve"}, "Tour du Chablais #4 Champ\u00e9ry": {"latitude": NaN, "longitude": NaN, "race": "Tour du Chablais #4 Champ\u00e9ry", "date": {"mer. 02.05.2012": {"year": 2012, "day": 2, "month": 5, "categories": {"M-EC3": {"distance": 3, "rank": 2, "pace": 219000000000, "time": 703.9}}, "weekday": "wednesday", "livingplace": "Orsieres"}}, "location": "Les Mosses"}, "Lausanne Marathon": {"latitude": 46.5196535, "longitude": 6.6322734, "race": "Lausanne Marathon", "date": {"sam. 24.10.2015": {"year": 2015, "day": 24, "month": 10, "categories": {"10-JunG": {"distance": 10, "rank": 9, "pace": 220000000000, "time": 2201.1}}, "weekday": "saturday", "livingplace": "Orsieres"}}, "location": "Lausanne"}, "Tour du Chablais #6 Aigle": {"latitude": 46.3190253, "longitude": 6.970566, "race": "Tour du Chablais #6 Aigle", "date": {"mer. 01.06.2011": {"year": 2011, "day": 1, "month": 6, "categories": {"M-EC3": {"distance": 5, "rank": 4, "pace": 243000000000, "time": 1167.8}}, "weekday": "wednesday", "livingplace": "Orsieres"}}, "location": "Aigle"}, "Tour du Chablais #4 St  Maurice": {"latitude": NaN, "longitude": NaN, "race": "Tour du Chablais #4 St  Maurice", "date": {"mer. 24.04.2013": {"year": 2013, "day": 24, "month": 4, "categories": {"M-EC3": {"distance": 3, "rank": 3, "pace": 211000000000, "time": 673.5}}, "weekday": "wednesday", "livingplace": "Orsieres"}}, "location": "Les Mosses"}, "Tour du Chablais #2 Bex": {"latitude": 46.3835529, "longitude": 6.854975199999999, "race": "Tour du Chablais #2 Bex", "date": {"mer. 18.04.2012": {"year": 2012, "day": 18, "month": 4, "categories": {"M-EC3": {"distance": 3, "rank": 2, "pace": 212000000000, "time": 722.1}}, "weekday": "wednesday", "livingplace": "Orsieres"}}, "location": "Bouveret"}, "Tour du Chablais #6 Montreux": {"latitude": 46.3190253, "longitude": 6.970566, "race": "Tour du Chablais #6 Montreux", "date": {"mer. 16.05.2012": {"year": 2012, "day": 16, "month": 5, "categories": {"M-EC3": {"distance": 3, "rank": 1, "pace": 209000000000, "time": 659.1}}, "weekday": "wednesday", "livingplace": "Orsieres"}}, "location": "Aigle"}}, "birth": 2001}