{"name": "Lattmann Simon", "sex": "M", "races": {"Tour du Pays de Vaud etape 5 - La Sarraz": {"latitude": 46.5993131, "longitude": 6.539251200000001, "race": "Tour du Pays de Vaud etape 5 - La Sarraz", "date": {"mer. 10.09.2008": {"year": 2008, "day": 10, "month": 9, "categories": {"Hom": {"distance": 9, "rank": 4, "pace": 205000000000, "time": 1765.5}}, "weekday": "wednesday", "livingplace": "La Vraconnaz"}}, "location": "Penthaz"}, "Morat-Fribourg": {"latitude": 46.92922110000001, "longitude": 7.120184, "race": "Morat-Fribourg", "date": {"dim. 05.10.2003": {"year": 2003, "day": 5, "month": 10, "categories": {"M20": {"distance": 17, "rank": 356, "pace": 254000000000, "time": 4366.0}}, "weekday": "sunday", "livingplace": "La Vraconnaz"}, "sam. 06.10.2007": {"year": 2007, "day": 6, "month": 10, "categories": {"C/M20": {"distance": 17, "rank": 292, "pace": 262000000000, "time": 4505.3}}, "weekday": "saturday", "livingplace": "La Vraconnaz"}}, "location": "Murten"}, "Tour du Pays de Vaud etape 2 - Genolier": {"latitude": 46.5955273, "longitude": 6.7702883, "race": "Tour du Pays de Vaud etape 2 - Genolier", "date": {"mer. 20.08.2008": {"year": 2008, "day": 20, "month": 8, "categories": {"Hom": {"distance": 8, "rank": 16, "pace": 245000000000, "time": 2036.4}}, "weekday": "wednesday", "livingplace": "La Vraconnaz"}}, "location": "M\u00e9zi\u00e8res VD"}, "Tour du Pays de Vaud etape 3 - Aubonne": {"latitude": 46.7829756, "longitude": 6.5728678, "race": "Tour du Pays de Vaud etape 3 - Aubonne", "date": {"mer. 27.08.2008": {"year": 2008, "day": 27, "month": 8, "categories": {"Hom": {"distance": 8, "rank": 18, "pace": 266000000000, "time": 2076.6}}, "weekday": "wednesday", "livingplace": "La Vraconnaz"}}, "location": "Champvent"}, "Tour du Pays de Vaud etape 1 - Le Mont sur Lausanne": {"latitude": 46.7784736, "longitude": 6.641183, "race": "Tour du Pays de Vaud etape 1 - Le Mont sur Lausanne", "date": {"mer. 13.08.2008": {"year": 2008, "day": 13, "month": 8, "categories": {"Hom": {"distance": 8, "rank": 12, "pace": 248000000000, "time": 2085.1}}, "weekday": "wednesday", "livingplace": "La Vraconnaz"}}, "location": "Yverdon-les-Bains"}, "BCN Tour Boudry": {"latitude": 46.9668714, "longitude": 6.8589727, "race": "BCN Tour Boudry", "date": {"mer. 26.04.2006": {"year": 2006, "day": 26, "month": 4, "categories": {"HE": {"distance": 10, "rank": 44, "pace": 275000000000, "time": 2813.5}}, "weekday": "wednesday", "livingplace": "La Vraconnaz"}}, "location": "Colombier NE"}, "Aletsch-Halbmarathon, Bettmeralp": {"latitude": NaN, "longitude": NaN, "race": "Aletsch-Halbmarathon, Bettmeralp", "date": {"dim. 29.06.2008": {"year": 2008, "day": 29, "month": 6, "categories": {"M20": {"distance": 21, "rank": 57, "pace": 447000000000, "time": 9389.5}}, "weekday": "sunday", "livingplace": "La Vraconnaz"}}, "location": "Bettmeralp"}, "20km de Lausanne": {"latitude": 46.5196535, "longitude": 6.6322734, "race": "20km de Lausanne", "date": {"sam. 28.04.2007": {"year": 2007, "day": 28, "month": 4, "categories": {"20H20": {"distance": 20, "rank": 91, "pace": 280000000000, "time": 5614.6}}, "weekday": "saturday", "livingplace": "Biochemistry Running Team"}, "sam. 22.04.2006": {"year": 2006, "day": 22, "month": 4, "categories": {"20/H20": {"distance": 20, "rank": 116, "pace": 299000000000, "time": 5996.0}}, "weekday": "saturday", "livingplace": "Biology Spirit Two"}}, "location": "Lausanne"}}, "birth": 1982}