{"name": "Lattion Emmanuel", "sex": "M", "races": {"A travers Carouge - Run to Run": {"latitude": 46.1829674, "longitude": 6.1378539, "race": "A travers Carouge - Run to Run", "date": {"sam. 20.09.2008": {"year": 2008, "day": 20, "month": 9, "categories": {"U23M/10": {"distance": 10, "rank": 8, "pace": 202000000000, "time": 2023.9}}, "weekday": "saturday", "livingplace": "CABV Martigny"}}, "location": "Carouge GE"}, "Tour du Chablais #1 Roche": {"latitude": 46.2957462, "longitude": 6.9916269, "race": "Tour du Chablais #1 Roche", "date": {"mer. 07.04.2010": {"year": 2010, "day": 7, "month": 4, "categories": {"M-M20": {"distance": 9, "rank": 1, "pace": 189000000000, "time": 1698.3}}, "weekday": "wednesday", "livingplace": "Orsieres"}}, "location": "Ollon VD"}, "Morat-Fribourg": {"latitude": 46.92922110000001, "longitude": 7.120184, "race": "Morat-Fribourg", "date": {"sam. 01.10.2011": {"year": 2011, "day": 1, "month": 10, "categories": {"17-M20": {"distance": 17, "rank": 40, "pace": 220000000000, "time": 3783.1}}, "weekday": "saturday", "livingplace": "Orsieres"}}, "location": "Murten"}, "Tour du Chablais #3 Le Bouveret": {"latitude": 46.1782231, "longitude": 7.0223787, "race": "Tour du Chablais #3 Le Bouveret", "date": {"mer. 11.05.2011": {"year": 2011, "day": 11, "month": 5, "categories": {"M-M20": {"distance": 10, "rank": 4, "pace": 201000000000, "time": 2017.9}}, "weekday": "wednesday", "livingplace": "Orsieres"}}, "location": "Evionnaz"}, "Course p\u00e9destre Thyon-Dixence, Thyon": {"latitude": NaN, "longitude": NaN, "race": "Course p\u00e9destre Thyon-Dixence, Thyon", "date": {"dim. 04.08.2013": {"year": 2013, "day": 4, "month": 8, "categories": {"HomElite": {"distance": 16, "rank": 13, "pace": 288000000000, "time": 4721.0}}, "weekday": "sunday", "livingplace": "Orsieres"}}, "location": "Thyon-Les Collons"}, "Tour du Chablais #1 Lavey": {"latitude": 46.2957462, "longitude": 6.9916269, "race": "Tour du Chablais #1 Lavey", "date": {"mer. 27.04.2011": {"year": 2011, "day": 27, "month": 4, "categories": {"M-M20": {"distance": 9, "rank": 5, "pace": 201000000000, "time": 1816.8}}, "weekday": "wednesday", "livingplace": "Orsieres"}}, "location": "Ollon VD"}, "Tour du Chablais #2 Yvorne": {"latitude": 46.3835529, "longitude": 6.854975199999999, "race": "Tour du Chablais #2 Yvorne", "date": {"mer. 10.04.2013": {"year": 2013, "day": 10, "month": 4, "categories": {"M-M20": {"distance": 8, "rank": 2, "pace": 207000000000, "time": 1663.5}}, "weekday": "wednesday", "livingplace": "Orsieres"}}, "location": "Bouveret"}, "Tour du Chablais #5 Leysin": {"latitude": 46.3603257, "longitude": 6.931504599999999, "race": "Tour du Chablais #5 Leysin", "date": {"mer. 05.05.2010": {"year": 2010, "day": 5, "month": 5, "categories": {"M-M20": {"distance": 8, "rank": 1, "pace": 207000000000, "time": 1755.0}}, "weekday": "wednesday", "livingplace": "Orsieres"}}, "location": "Roche VD"}, "Tour du Chablais #5 Bex": {"latitude": 46.3603257, "longitude": 6.931504599999999, "race": "Tour du Chablais #5 Bex", "date": {"mer. 09.05.2012": {"year": 2012, "day": 9, "month": 5, "categories": {"M-M20": {"distance": 9, "rank": 2, "pace": 188000000000, "time": 1671.8}}, "weekday": "wednesday", "livingplace": "Orsieres"}}, "location": "Roche VD"}, "Tour du Chablais #4 Champ\u00e9ry": {"latitude": NaN, "longitude": NaN, "race": "Tour du Chablais #4 Champ\u00e9ry", "date": {"mer. 02.05.2012": {"year": 2012, "day": 2, "month": 5, "categories": {"M-M20": {"distance": 8, "rank": 3, "pace": 195000000000, "time": 1620.2}}, "weekday": "wednesday", "livingplace": "Orsieres"}}, "location": "Les Mosses"}, "Tour du Chablais #5 Morgins": {"latitude": 46.3603257, "longitude": 6.931504599999999, "race": "Tour du Chablais #5 Morgins", "date": {"mer. 01.05.2013": {"year": 2013, "day": 1, "month": 5, "categories": {"M-M20": {"distance": 8, "rank": 4, "pace": 209000000000, "time": 1588.4}}, "weekday": "wednesday", "livingplace": "Orsieres"}}, "location": "Roche VD"}, "Lausanne Marathon": {"latitude": 46.5196535, "longitude": 6.6322734, "race": "Lausanne Marathon", "date": {"dim. 31.10.2010": {"year": 2010, "day": 31, "month": 10, "categories": {"10-H1": {"distance": 10, "rank": 9, "pace": 194000000000, "time": 1946.7}}, "weekday": "sunday", "livingplace": "Orsieres"}, "dim. 28.10.2012": {"year": 2012, "day": 28, "month": 10, "categories": {"10-H1": {"distance": 10, "rank": 10, "pace": 194000000000, "time": 1946.0}}, "weekday": "sunday", "livingplace": "Orsieres"}}, "location": "Lausanne"}, "Tour du Chablais #3 Bex": {"latitude": 46.1782231, "longitude": 7.0223787, "race": "Tour du Chablais #3 Bex", "date": {"mer. 21.04.2010": {"year": 2010, "day": 21, "month": 4, "categories": {"M-M20": {"distance": 10, "rank": 1, "pace": 195000000000, "time": 1958.8}}, "weekday": "wednesday", "livingplace": "Orsieres"}}, "location": "Evionnaz"}, "Kerzerslauf": {"latitude": 46.97488999999999, "longitude": 7.1954365, "race": "Kerzerslauf", "date": {"sam. 21.03.2015": {"year": 2015, "day": 21, "month": 3, "categories": {"5-M20": {"distance": 5, "rank": 15, "pace": 203000000000, "time": 1019.5}}, "weekday": "saturday", "livingplace": "Martigny"}, "sam. 21.03.2009": {"year": 2009, "day": 21, "month": 3, "categories": {"5-M05": {"distance": 5, "rank": 4, "pace": 189000000000, "time": 949.6}}, "weekday": "saturday", "livingplace": "Orsieres"}, "sam. 15.03.2008": {"year": 2008, "day": 15, "month": 3, "categories": {"5/M05": {"distance": 5, "rank": 5, "pace": 201000000000, "time": 1006.7}}, "weekday": "saturday", "livingplace": "Orsieres"}}, "location": "Kerzers"}, "Tour du Chablais #3 Collombey-Muraz": {"latitude": 46.1782231, "longitude": 7.0223787, "race": "Tour du Chablais #3 Collombey-Muraz", "date": {"mer. 25.04.2012": {"year": 2012, "day": 25, "month": 4, "categories": {"M-M20": {"distance": 9, "rank": 2, "pace": 192000000000, "time": 1729.7}}, "weekday": "wednesday", "livingplace": "Orsieres"}}, "location": "Evionnaz"}, "Tour du Chablais #1 Martigny": {"latitude": 46.2957462, "longitude": 6.9916269, "race": "Tour du Chablais #1 Martigny", "date": {"mer. 23.04.2014": {"year": 2014, "day": 23, "month": 4, "categories": {"M-M20": {"distance": 9, "rank": 4, "pace": 199000000000, "time": 1696.9}}, "weekday": "wednesday", "livingplace": "Martigny"}}, "location": "Ollon VD"}, "SwissCityMarathon - Lucerne, Luzern": {"latitude": 47.05016819999999, "longitude": 8.3093072, "race": "SwissCityMarathon - Lucerne, Luzern", "date": {"dim. 26.10.2014": {"year": 2014, "day": 26, "month": 10, "categories": {"F-Mann": {"distance": 9, "rank": 6, "pace": 210000000000, "time": 1812.6}}, "weekday": "sunday", "livingplace": "Martigny"}}, "location": "Luzern"}, "ASICS Bremgarter Reusslauf": {"latitude": 47.34917739999999, "longitude": 8.3397905, "race": "ASICS Bremgarter Reusslauf", "date": {"sam. 25.02.2012": {"year": 2012, "day": 25, "month": 2, "categories": {"M20": {"distance": 11, "rank": 8, "pace": 191000000000, "time": 2111.7}}, "weekday": "saturday", "livingplace": "Cabv"}, "sam. 26.02.2011": {"year": 2011, "day": 26, "month": 2, "categories": {"M20": {"distance": 11, "rank": 11, "pace": 191000000000, "time": 2103.4}}, "weekday": "saturday", "livingplace": "Orsieres"}}, "location": "Bremgarten AG"}, "Int  Bieler Cross, Biel-Bienne": {"latitude": 47.1367785, "longitude": 7.2467909, "race": "Int  Bieler Cross, Biel-Bienne", "date": {"dim. 14.11.2010": {"year": 2010, "day": 14, "month": 11, "categories": {"M23": {"distance": 8, "rank": 5, "pace": 196000000000, "time": 1573.9}}, "weekday": "sunday", "livingplace": "CABV Martigny"}, "dim. 29.11.2009": {"year": 2009, "day": 29, "month": 11, "categories": {"M23": {"distance": 8, "rank": 9, "pace": 191000000000, "time": 1532.6}}, "weekday": "sunday", "livingplace": "CABV Martigny"}}, "location": "Biel/Bienne"}, "Sierre-Zinal, Sierre": {"latitude": 46.29413110000001, "longitude": 7.533536199999999, "race": "Sierre-Zinal, Sierre", "date": {"dim. 09.08.2015": {"year": 2015, "day": 9, "month": 8, "categories": {"ElitesHo": {"distance": 31, "rank": 23, "pace": 338000000000, "time": 10498.1}}, "weekday": "sunday", "livingplace": "Martigny"}}, "location": "Sierre"}, "Tour du pays de Vaud #1 - Penthaz": {"latitude": 46.5993131, "longitude": 6.539251200000001, "race": "Tour du pays de Vaud #1 - Penthaz", "date": {"mer. 08.08.2012": {"year": 2012, "day": 8, "month": 8, "categories": {"H-Hom": {"distance": 9, "rank": 2, "pace": 202000000000, "time": 1726.5}}, "weekday": "wednesday", "livingplace": "Orsieres"}}, "location": "Penthaz"}, "Aletsch-Halbmarathon, Bettmeralp": {"latitude": NaN, "longitude": NaN, "race": "Aletsch-Halbmarathon, Bettmeralp", "date": {"dim. 29.06.2014": {"year": 2014, "day": 29, "month": 6, "categories": {"M20": {"distance": 13, "rank": 3, "pace": 250000000000, "time": 3338.0}}, "weekday": "sunday", "livingplace": "Verticalp.ch"}}, "location": "Bettmeralp"}, "Tour du Pays de Vaud #4, La Sarraz": {"latitude": 46.7088129, "longitude": 6.5707689, "race": "Tour du Pays de Vaud #4, La Sarraz", "date": {"mer. 03.09.2014": {"year": 2014, "day": 3, "month": 9, "categories": {"H-Hom": {"distance": 9, "rank": 1, "pace": 205000000000, "time": 1744.5}}, "weekday": "wednesday", "livingplace": "Martigny"}}, "location": "Chavornay"}, "Tour du Chablais #6 Mouthey": {"latitude": 46.3190253, "longitude": 6.970566, "race": "Tour du Chablais #6 Mouthey", "date": {"mer. 12.05.2010": {"year": 2010, "day": 12, "month": 5, "categories": {"M-M20": {"distance": 9, "rank": 3, "pace": 192000000000, "time": 1767.7}}, "weekday": "wednesday", "livingplace": "Orsieres"}}, "location": "Aigle"}, "Tour du Chablais #1 Montreux": {"latitude": 46.2957462, "longitude": 6.9916269, "race": "Tour du Chablais #1 Montreux", "date": {"mer. 11.04.2012": {"year": 2012, "day": 11, "month": 4, "categories": {"M-M20": {"distance": 8, "rank": 1, "pace": 197000000000, "time": 1500.3}}, "weekday": "wednesday", "livingplace": "Orsieres"}}, "location": "Ollon VD"}, "Tour du Chablais #3 Bouveret": {"latitude": 46.1782231, "longitude": 7.0223787, "race": "Tour du Chablais #3 Bouveret", "date": {"mer. 17.04.2013": {"year": 2013, "day": 17, "month": 4, "categories": {"M-M20": {"distance": 10, "rank": 4, "pace": 202000000000, "time": 2026.0}}, "weekday": "wednesday", "livingplace": "Orsieres"}}, "location": "Evionnaz"}, "Tour du Chablais #2 St-Gingolph": {"latitude": 46.3835529, "longitude": 6.854975199999999, "race": "Tour du Chablais #2 St-Gingolph", "date": {"mer. 14.04.2010": {"year": 2010, "day": 14, "month": 4, "categories": {"M-M20": {"distance": 8, "rank": 2, "pace": 202000000000, "time": 1691.1}}, "weekday": "wednesday", "livingplace": "Orsieres"}}, "location": "Bouveret"}, "Tour du Chablais #4 Yvorne": {"latitude": NaN, "longitude": NaN, "race": "Tour du Chablais #4 Yvorne", "date": {"mer. 28.04.2010": {"year": 2010, "day": 28, "month": 4, "categories": {"M-M20": {"distance": 8, "rank": 1, "pace": 205000000000, "time": 1699.6}}, "weekday": "wednesday", "livingplace": "Orsieres"}}, "location": "Les Mosses"}, "Tour du Chablais #2 Bex": {"latitude": 46.3835529, "longitude": 6.854975199999999, "race": "Tour du Chablais #2 Bex", "date": {"mer. 18.04.2012": {"year": 2012, "day": 18, "month": 4, "categories": {"M-M20": {"distance": 8, "rank": 2, "pace": 195000000000, "time": 1567.3}}, "weekday": "wednesday", "livingplace": "Orsieres"}}, "location": "Bouveret"}, "Tour du Chablais #6 Montreux": {"latitude": 46.3190253, "longitude": 6.970566, "race": "Tour du Chablais #6 Montreux", "date": {"mer. 16.05.2012": {"year": 2012, "day": 16, "month": 5, "categories": {"M-M20": {"distance": 9, "rank": 2, "pace": 192000000000, "time": 1780.1}}, "weekday": "wednesday", "livingplace": "Orsieres"}}, "location": "Aigle"}}, "birth": 1988}