{"name": "Lauber Denis", "sex": "M", "races": {"Morat-Fribourg": {"latitude": 46.92922110000001, "longitude": 7.120184, "race": "Morat-Fribourg", "date": {"sam. 05.10.2013": {"year": 2013, "day": 5, "month": 10, "categories": {"17-M65": {"distance": 17, "rank": 61, "pace": 347000000000, "time": 6058.5}}, "weekday": "saturday", "livingplace": "La Chaux de Fonds"}}, "location": "Murten"}, "BCN Tour Les Ponts-de-Martel": {"latitude": 46.999113, "longitude": 6.733554799999999, "race": "BCN Tour Les Ponts-de-Martel", "date": {"mer. 09.05.2012": {"year": 2012, "day": 9, "month": 5, "categories": {"HV2": {"distance": 10, "rank": 18, "pace": 344000000000, "time": 3552.5}}, "weekday": "wednesday", "livingplace": "La Chaux de Fonds"}}, "location": "Les Ponts-de-Martel"}, "BCN Tour Le Landeron": {"latitude": 46.9668714, "longitude": 6.8589727, "race": "BCN Tour Le Landeron", "date": {"mer. 22.04.2009": {"year": 2009, "day": 22, "month": 4, "categories": {"HV2": {"distance": 11, "rank": 22, "pace": 328000000000, "time": 3646.2}}, "weekday": "wednesday", "livingplace": "La Chaux de Fonds"}}, "location": "Colombier NE"}, "20km de Lausanne": {"latitude": 46.5196535, "longitude": 6.6322734, "race": "20km de Lausanne", "date": {"sam. 28.04.2007": {"year": 2007, "day": 28, "month": 4, "categories": {"20H60": {"distance": 20, "rank": 26, "pace": 329000000000, "time": 6593.9}}, "weekday": "saturday", "livingplace": "La Chaux de Fonds"}}, "location": "Lausanne"}, "BCN Tour #1 Corcelles": {"latitude": 46.9668714, "longitude": 6.8589727, "race": "BCN Tour #1 Corcelles", "date": {"mer. 24.04.2013": {"year": 2013, "day": 24, "month": 4, "categories": {"HV2": {"distance": 10, "rank": 17, "pace": 332000000000, "time": 3256.8}}, "weekday": "wednesday", "livingplace": "La Chaux de Fonds"}}, "location": "Colombier NE"}, "BCN Tour Auvernier": {"latitude": 46.9668714, "longitude": 6.8589727, "race": "BCN Tour Auvernier", "date": {"mer. 20.04.2011": {"year": 2011, "day": 20, "month": 4, "categories": {"HV2": {"distance": 11, "rank": 18, "pace": 358000000000, "time": 3870.9}}, "weekday": "wednesday", "livingplace": "La Chaux de Fonds"}}, "location": "Colombier NE"}, "BCN Tour #4 Fleurier": {"latitude": 47.1034892, "longitude": 6.832783800000001, "race": "BCN Tour #4 Fleurier", "date": {"mer. 15.05.2013": {"year": 2013, "day": 15, "month": 5, "categories": {"HV2": {"distance": 9, "rank": 15, "pace": 333000000000, "time": 2885.5}}, "weekday": "wednesday", "livingplace": "La Chaux de Fonds"}}, "location": "La Chaux-de-Fonds"}, "BCN Tour #2 La Chaux-de-Fonds": {"latitude": 47.0624261, "longitude": 6.9175754, "race": "BCN Tour #2 La Chaux-de-Fonds", "date": {"mer. 01.05.2013": {"year": 2013, "day": 1, "month": 5, "categories": {"HV2": {"distance": 11, "rank": 19, "pace": 327000000000, "time": 3505.1}}, "weekday": "wednesday", "livingplace": "La Chaux de Fonds"}}, "location": "Ch\u00e9zard-St-Martin"}, "BCN Tour La Chaux-de-Fonds": {"latitude": 47.1034892, "longitude": 6.832783800000001, "race": "BCN Tour La Chaux-de-Fonds", "date": {"mer. 23.05.2012": {"year": 2012, "day": 23, "month": 5, "categories": {"HV2": {"distance": 11, "rank": 19, "pace": 349000000000, "time": 3775.4}}, "weekday": "wednesday", "livingplace": "La Chaux de Fonds"}, "mer. 11.05.2011": {"year": 2011, "day": 11, "month": 5, "categories": {"HV2": {"distance": 11, "rank": 16, "pace": 398000000000, "time": 4262.3}}, "weekday": "wednesday", "livingplace": "La Chaux de Fonds"}}, "location": "La Chaux-de-Fonds"}, "D\u00e9fi Val-de-Travers, Couvet": {"latitude": 46.9262933, "longitude": 6.6324944, "race": "D\u00e9fi Val-de-Travers, Couvet", "date": {"sam. 19.06.2010": {"year": 2010, "day": 19, "month": 6, "categories": {"42-HVet": {"distance": 41, "rank": 14, "pace": 423000000000, "time": 17461.9}}, "weekday": "saturday", "livingplace": "La Chaux de Fonds"}}, "location": "Couvet"}, "BCN Tour Neuch\u00e2tel": {"latitude": 46.9899874, "longitude": 6.9292732, "race": "BCN Tour Neuch\u00e2tel", "date": {"mer. 26.05.2010": {"year": 2010, "day": 26, "month": 5, "categories": {"HV2": {"distance": 10, "rank": 33, "pace": 458000000000, "time": 4443.5}}, "weekday": "wednesday", "livingplace": "La Chaux de Fonds"}, "mer. 30.05.2012": {"year": 2012, "day": 30, "month": 5, "categories": {"HV2": {"distance": 11, "rank": 19, "pace": 370000000000, "time": 4154.8}}, "weekday": "wednesday", "livingplace": "La Chaux de Fonds"}, "mer. 25.05.2011": {"year": 2011, "day": 25, "month": 5, "categories": {"HV2": {"distance": 11, "rank": 18, "pace": 350000000000, "time": 3998.5}}, "weekday": "wednesday", "livingplace": "La Chaux de Fonds"}}, "location": "Neuch\u00e2tel"}, "BCN Tour #5 Colombier": {"latitude": 46.9262933, "longitude": 6.6324944, "race": "BCN Tour #5 Colombier", "date": {"mer. 22.05.2013": {"year": 2013, "day": 22, "month": 5, "categories": {"HV2": {"distance": 11, "rank": 15, "pace": 304000000000, "time": 3197.2}}, "weekday": "wednesday", "livingplace": "La Chaux de Fonds"}}, "location": "Couvet"}, "Kerzerslauf": {"latitude": 46.97488999999999, "longitude": 7.1954365, "race": "Kerzerslauf", "date": {"sam. 18.03.2000": {"year": 2000, "day": 18, "month": 3, "categories": {"M50": {"distance": 15, "rank": 122, "pace": 278000000000, "time": 4183.8}}, "weekday": "saturday", "livingplace": "La Chaux de Fonds"}, "sam. 20.03.2010": {"year": 2010, "day": 20, "month": 3, "categories": {"15-M60": {"distance": 15, "rank": 81, "pace": 315000000000, "time": 4738.7}}, "weekday": "saturday", "livingplace": "La Chaux de Fonds"}, "sam. 19.03.2011": {"year": 2011, "day": 19, "month": 3, "categories": {"15-M65": {"distance": 15, "rank": 42, "pace": 329000000000, "time": 4940.0}}, "weekday": "saturday", "livingplace": "La Chaux de Fonds"}, "sam. 18.03.2006": {"year": 2006, "day": 18, "month": 3, "categories": {"M60": {"distance": 15, "rank": 85, "pace": 319000000000, "time": 4796.6}}, "weekday": "saturday", "livingplace": "La Chaux de Fonds"}, "sam. 17.03.2007": {"year": 2007, "day": 17, "month": 3, "categories": {"M60": {"distance": 15, "rank": 74, "pace": 307000000000, "time": 4617.5}}, "weekday": "saturday", "livingplace": "La Chaux de Fonds"}, "sam. 17.03.2001": {"year": 2001, "day": 17, "month": 3, "categories": {"M55": {"distance": 15, "rank": 87, "pace": 298000000000, "time": 4482.5}}, "weekday": "saturday", "livingplace": "La Chaux de Fonds"}, "sam. 15.03.2003": {"year": 2003, "day": 15, "month": 3, "categories": {"M55": {"distance": 15, "rank": 120, "pace": 298000000000, "time": 4484.7}}, "weekday": "saturday", "livingplace": "La Chaux de Fonds"}, "sam. 17.03.2012": {"year": 2012, "day": 17, "month": 3, "categories": {"15-M65": {"distance": 15, "rank": 37, "pace": 325000000000, "time": 4878.3}}, "weekday": "saturday", "livingplace": "La Chaux de Fonds"}, "sam. 20.03.2004": {"year": 2004, "day": 20, "month": 3, "categories": {"M55": {"distance": 15, "rank": 164, "pace": 320000000000, "time": 4802.6}}, "weekday": "saturday", "livingplace": "La Chaux de Fonds"}, "sam. 15.03.2008": {"year": 2008, "day": 15, "month": 3, "categories": {"15/M60": {"distance": 15, "rank": 92, "pace": 315000000000, "time": 4726.7}}, "weekday": "saturday", "livingplace": "La Chaux de Fonds"}}, "location": "Kerzers"}, "BCN Tour #3 Dombresson": {"latitude": 46.999113, "longitude": 6.733554799999999, "race": "BCN Tour #3 Dombresson", "date": {"mer. 08.05.2013": {"year": 2013, "day": 8, "month": 5, "categories": {"HV2": {"distance": 10, "rank": 21, "pace": 326000000000, "time": 3234.2}}, "weekday": "wednesday", "livingplace": "La Chaux de Fonds"}}, "location": "Les Ponts-de-Martel"}, "BCN Tour M\u00f4tier": {"latitude": 46.9262933, "longitude": 6.6324944, "race": "BCN Tour M\u00f4tier", "date": {"mer. 19.05.2010": {"year": 2010, "day": 19, "month": 5, "categories": {"HV2": {"distance": 10, "rank": 20, "pace": 323000000000, "time": 3198.5}}, "weekday": "wednesday", "livingplace": "La Chaux de Fonds"}}, "location": "Couvet"}, "BCN Tour Fontaine Cernier": {"latitude": 47.0624261, "longitude": 6.9175754, "race": "BCN Tour Fontaine Cernier", "date": {"mer. 27.04.2011": {"year": 2011, "day": 27, "month": 4, "categories": {"HV2": {"distance": 10, "rank": 21, "pace": 325000000000, "time": 3349.4}}, "weekday": "wednesday", "livingplace": "La Chaux de Fonds"}}, "location": "Ch\u00e9zard-St-Martin"}, "Int  Bieler Cross, Biel-Bienne": {"latitude": 47.1367785, "longitude": 7.2467909, "race": "Int  Bieler Cross, Biel-Bienne", "date": {"dim. 14.11.2010": {"year": 2010, "day": 14, "month": 11, "categories": {"M60": {"distance": 6, "rank": 3, "pace": 294000000000, "time": 1887.3}}, "weekday": "sunday", "livingplace": "La Chaux de Fonds"}}, "location": "Biel/Bienne"}, "BCN Tour Couvet": {"latitude": 47.0624261, "longitude": 6.9175754, "race": "BCN Tour Couvet", "date": {"mer. 02.05.2012": {"year": 2012, "day": 2, "month": 5, "categories": {"HV2": {"distance": 11, "rank": 22, "pace": 354000000000, "time": 3949.2}}, "weekday": "wednesday", "livingplace": "La Chaux de Fonds"}}, "location": "Ch\u00e9zard-St-Martin"}, "La Trotteuse-Tissot, La Chaux-de-Fonds": {"latitude": 47.1034892, "longitude": 6.832783800000001, "race": "La Trotteuse-Tissot, La Chaux-de-Fonds", "date": {"sam. 18.12.2010": {"year": 2010, "day": 18, "month": 12, "categories": {"GC-H60": {"distance": 8, "rank": 16, "pace": 325000000000, "time": 2606.5}}, "weekday": "saturday", "livingplace": "La Chaux de Fonds"}, "sam. 17.12.2011": {"year": 2011, "day": 17, "month": 12, "categories": {"GC-H60": {"distance": 8, "rank": 20, "pace": 332000000000, "time": 2661.6}}, "weekday": "saturday", "livingplace": "La Chaux de Fonds"}, "sam. 08.12.2012": {"year": 2012, "day": 8, "month": 12, "categories": {"GC-H60": {"distance": 8, "rank": 14, "pace": 332000000000, "time": 2657.4}}, "weekday": "saturday", "livingplace": "Office de l'Assurance Inv"}}, "location": "La Chaux-de-Fonds"}, "BCN Tour Cornaux": {"latitude": 46.9668714, "longitude": 6.8589727, "race": "BCN Tour Cornaux", "date": {"mer. 25.04.2012": {"year": 2012, "day": 25, "month": 4, "categories": {"HV2": {"distance": 11, "rank": 26, "pace": 397000000000, "time": 4367.3}}, "weekday": "wednesday", "livingplace": "La Chaux de Fonds"}}, "location": "Colombier NE"}, "BCN Tour #6 Neuch\u00e2tel": {"latitude": 46.9899874, "longitude": 6.9292732, "race": "BCN Tour #6 Neuch\u00e2tel", "date": {"mer. 29.05.2013": {"year": 2013, "day": 29, "month": 5, "categories": {"HV2": {"distance": 11, "rank": 12, "pace": 323000000000, "time": 3554.7}}, "weekday": "wednesday", "livingplace": "La Chaux de Fonds"}}, "location": "Neuch\u00e2tel"}, "BCN Tour La Br\u00e9vine": {"latitude": 46.999113, "longitude": 6.733554799999999, "race": "BCN Tour La Br\u00e9vine", "date": {"mer. 04.05.2011": {"year": 2011, "day": 4, "month": 5, "categories": {"HV2": {"distance": 10, "rank": 19, "pace": 350000000000, "time": 3506.7}}, "weekday": "wednesday", "livingplace": "La Chaux de Fonds"}}, "location": "Les Ponts-de-Martel"}, "BCN Tour Les Ponts de Martel": {"latitude": 46.9262933, "longitude": 6.6324944, "race": "BCN Tour Les Ponts de Martel", "date": {"mer. 18.05.2011": {"year": 2011, "day": 18, "month": 5, "categories": {"HV2": {"distance": 13, "rank": 15, "pace": 348000000000, "time": 4459.4}}, "weekday": "wednesday", "livingplace": "La Chaux de Fonds"}}, "location": "Couvet"}, "BCN Tour Boudry": {"latitude": 46.9668714, "longitude": 6.8589727, "race": "BCN Tour Boudry", "date": {"mer. 26.04.2006": {"year": 2006, "day": 26, "month": 4, "categories": {"HV2": {"distance": 10, "rank": 13, "pace": 320000000000, "time": 3265.4}}, "weekday": "wednesday", "livingplace": "La Chaux de Fonds"}}, "location": "Colombier NE"}, "BCN Tour La Chaux-de-fonds": {"latitude": 47.1034892, "longitude": 6.832783800000001, "race": "BCN Tour La Chaux-de-fonds", "date": {"mer. 12.05.2010": {"year": 2010, "day": 12, "month": 5, "categories": {"HV2": {"distance": 11, "rank": 23, "pace": 418000000000, "time": 4480.7}}, "weekday": "wednesday", "livingplace": "La Chaux de Fonds"}}, "location": "La Chaux-de-Fonds"}, "BCN Tour Colombier": {"latitude": 46.9668714, "longitude": 6.8589727, "race": "BCN Tour Colombier", "date": {"mer. 16.05.2012": {"year": 2012, "day": 16, "month": 5, "categories": {"HV2": {"distance": 11, "rank": 22, "pace": 336000000000, "time": 3638.3}}, "weekday": "wednesday", "livingplace": "La Chaux de Fonds"}, "mer. 23.04.2008": {"year": 2008, "day": 23, "month": 4, "categories": {"HV2": {"distance": 10, "rank": 18, "pace": 342000000000, "time": 3497.9}}, "weekday": "wednesday", "livingplace": "La Chaux de Fonds"}, "mer. 21.04.2010": {"year": 2010, "day": 21, "month": 4, "categories": {"HV2": {"distance": 10, "rank": 21, "pace": 364000000000, "time": 3646.8}}, "weekday": "wednesday", "livingplace": "La Chaux de Fonds"}}, "location": "Colombier NE"}}, "birth": 1946}