{"name": "Lebet Serge", "sex": "M", "races": {"BCN Tour Couvet": {"latitude": 47.0624261, "longitude": 6.9175754, "race": "BCN Tour Couvet", "date": {"mer. 02.05.2012": {"year": 2012, "day": 2, "month": 5, "categories": {"HS2": {"distance": 11, "rank": 57, "pace": 273000000000, "time": 3047.5}}, "weekday": "wednesday", "livingplace": "Bole"}}, "location": "Ch\u00e9zard-St-Martin"}, "Morat-Fribourg": {"latitude": 46.92922110000001, "longitude": 7.120184, "race": "Morat-Fribourg", "date": {"sam. 04.10.2008": {"year": 2008, "day": 4, "month": 10, "categories": {"C-M40": {"distance": 17, "rank": 105, "pace": 258000000000, "time": 4431.5}}, "weekday": "saturday", "livingplace": "Bole"}, "sam. 06.10.2007": {"year": 2007, "day": 6, "month": 10, "categories": {"C/M40": {"distance": 17, "rank": 119, "pace": 263000000000, "time": 4517.4}}, "weekday": "saturday", "livingplace": "Bole"}}, "location": "Murten"}, "BCN Tour Les Ponts-de-Martel": {"latitude": 46.999113, "longitude": 6.733554799999999, "race": "BCN Tour Les Ponts-de-Martel", "date": {"mer. 09.05.2012": {"year": 2012, "day": 9, "month": 5, "categories": {"HS2": {"distance": 10, "rank": 47, "pace": 268000000000, "time": 2764.3}}, "weekday": "wednesday", "livingplace": "Bole"}}, "location": "Les Ponts-de-Martel"}, "BCN Tour Le Landeron": {"latitude": 46.9668714, "longitude": 6.8589727, "race": "BCN Tour Le Landeron", "date": {"mer. 22.04.2009": {"year": 2009, "day": 22, "month": 4, "categories": {"HS2": {"distance": 11, "rank": 57, "pace": 276000000000, "time": 3066.9}}, "weekday": "wednesday", "livingplace": "Bole"}}, "location": "Colombier NE"}, "BCN Tour #5 Colombier": {"latitude": 46.9262933, "longitude": 6.6324944, "race": "BCN Tour #5 Colombier", "date": {"mer. 22.05.2013": {"year": 2013, "day": 22, "month": 5, "categories": {"HS2": {"distance": 11, "rank": 65, "pace": 249000000000, "time": 2615.5}}, "weekday": "wednesday", "livingplace": "Bole"}}, "location": "Couvet"}, "BCN Tour #2 La Chaux-de-Fonds": {"latitude": 47.0624261, "longitude": 6.9175754, "race": "BCN Tour #2 La Chaux-de-Fonds", "date": {"mer. 01.05.2013": {"year": 2013, "day": 1, "month": 5, "categories": {"HS2": {"distance": 11, "rank": 61, "pace": 260000000000, "time": 2784.9}}, "weekday": "wednesday", "livingplace": "Bole"}}, "location": "Ch\u00e9zard-St-Martin"}, "BCN Tour Le Locle": {"latitude": 46.999113, "longitude": 6.733554799999999, "race": "BCN Tour Le Locle", "date": {"mer. 05.05.2010": {"year": 2010, "day": 5, "month": 5, "categories": {"HS2": {"distance": 11, "rank": 41, "pace": 258000000000, "time": 2820.9}}, "weekday": "wednesday", "livingplace": "Bole"}}, "location": "Les Ponts-de-Martel"}, "BCN Tour Neuch\u00e2tel": {"latitude": 46.9899874, "longitude": 6.9292732, "race": "BCN Tour Neuch\u00e2tel", "date": {"mer. 26.05.2010": {"year": 2010, "day": 26, "month": 5, "categories": {"HS2": {"distance": 10, "rank": 41, "pace": 275000000000, "time": 2670.0}}, "weekday": "wednesday", "livingplace": "Bole"}, "mer. 30.05.2012": {"year": 2012, "day": 30, "month": 5, "categories": {"HS2": {"distance": 11, "rank": 158, "pace": 326000000000, "time": 3653.9}}, "weekday": "wednesday", "livingplace": "Bole"}}, "location": "Neuch\u00e2tel"}, "BCN Tour #4 Fleurier": {"latitude": 47.1034892, "longitude": 6.832783800000001, "race": "BCN Tour #4 Fleurier", "date": {"mer. 15.05.2013": {"year": 2013, "day": 15, "month": 5, "categories": {"HS2": {"distance": 9, "rank": 46, "pace": 263000000000, "time": 2278.0}}, "weekday": "wednesday", "livingplace": "Bole"}}, "location": "La Chaux-de-Fonds"}, "BCN Tour Cornaux": {"latitude": 46.9668714, "longitude": 6.8589727, "race": "BCN Tour Cornaux", "date": {"mer. 25.04.2012": {"year": 2012, "day": 25, "month": 4, "categories": {"HS2": {"distance": 11, "rank": 44, "pace": 288000000000, "time": 3168.5}}, "weekday": "wednesday", "livingplace": "Bole"}}, "location": "Colombier NE"}, "BCN Tour #1 Corcelles": {"latitude": 46.9668714, "longitude": 6.8589727, "race": "BCN Tour #1 Corcelles", "date": {"mer. 24.04.2013": {"year": 2013, "day": 24, "month": 4, "categories": {"HS2": {"distance": 10, "rank": 53, "pace": 264000000000, "time": 2592.4}}, "weekday": "wednesday", "livingplace": "Bole"}}, "location": "Colombier NE"}, "BCN Tour La Chaux-de-Fonds": {"latitude": 46.9262933, "longitude": 6.6324944, "race": "BCN Tour La Chaux-de-Fonds", "date": {"mer. 23.05.2012": {"year": 2012, "day": 23, "month": 5, "categories": {"HS2": {"distance": 11, "rank": 55, "pace": 268000000000, "time": 2903.8}}, "weekday": "wednesday", "livingplace": "Bole"}}, "location": "Couvet"}, "BCN Tour #6 Neuch\u00e2tel": {"latitude": 46.9899874, "longitude": 6.9292732, "race": "BCN Tour #6 Neuch\u00e2tel", "date": {"mer. 29.05.2013": {"year": 2013, "day": 29, "month": 5, "categories": {"HS2": {"distance": 11, "rank": 53, "pace": 271000000000, "time": 2987.0}}, "weekday": "wednesday", "livingplace": "Bole"}}, "location": "Neuch\u00e2tel"}, "D\u00e9fi Val-de-Travers, Couvet": {"latitude": 46.9262933, "longitude": 6.6324944, "race": "D\u00e9fi Val-de-Travers, Couvet", "date": {"sam. 19.06.2010": {"year": 2010, "day": 19, "month": 6, "categories": {"21-HSen2": {"distance": 20, "rank": 5, "pace": 297000000000, "time": 5864.1}}, "weekday": "saturday", "livingplace": "Bole"}}, "location": "Couvet"}, "BCN Tour Ponts-de-Martel": {"latitude": 47.0624261, "longitude": 6.9175754, "race": "BCN Tour Ponts-de-Martel", "date": {"mer. 28.04.2010": {"year": 2010, "day": 28, "month": 4, "categories": {"HS2": {"distance": 11, "rank": 38, "pace": 264000000000, "time": 2958.9}}, "weekday": "wednesday", "livingplace": "Bole"}}, "location": "Ch\u00e9zard-St-Martin"}, "BCN Tour M\u00f4tier": {"latitude": 46.9262933, "longitude": 6.6324944, "race": "BCN Tour M\u00f4tier", "date": {"mer. 19.05.2010": {"year": 2010, "day": 19, "month": 5, "categories": {"HS2": {"distance": 10, "rank": 33, "pace": 248000000000, "time": 2464.6}}, "weekday": "wednesday", "livingplace": "Bole"}}, "location": "Couvet"}, "BCN Tour #3 Dombresson": {"latitude": 46.999113, "longitude": 6.733554799999999, "race": "BCN Tour #3 Dombresson", "date": {"mer. 08.05.2013": {"year": 2013, "day": 8, "month": 5, "categories": {"HS2": {"distance": 10, "rank": 51, "pace": 257000000000, "time": 2549.4}}, "weekday": "wednesday", "livingplace": "Bole"}}, "location": "Les Ponts-de-Martel"}, "BCN Tour La Chaux-de-fonds": {"latitude": 47.1034892, "longitude": 6.832783800000001, "race": "BCN Tour La Chaux-de-fonds", "date": {"mer. 12.05.2010": {"year": 2010, "day": 12, "month": 5, "categories": {"HS2": {"distance": 11, "rank": 45, "pace": 320000000000, "time": 3433.3}}, "weekday": "wednesday", "livingplace": "Bole"}}, "location": "La Chaux-de-Fonds"}, "BCN Tour Colombier": {"latitude": 46.9668714, "longitude": 6.8589727, "race": "BCN Tour Colombier", "date": {"mer. 16.05.2012": {"year": 2012, "day": 16, "month": 5, "categories": {"HS2": {"distance": 11, "rank": 47, "pace": 262000000000, "time": 2836.2}}, "weekday": "wednesday", "livingplace": "Bole"}, "mer. 23.04.2008": {"year": 2008, "day": 23, "month": 4, "categories": {"HS2": {"distance": 10, "rank": 46, "pace": 274000000000, "time": 2801.2}}, "weekday": "wednesday", "livingplace": "Bole"}, "mer. 21.04.2010": {"year": 2010, "day": 21, "month": 4, "categories": {"HS2": {"distance": 10, "rank": 38, "pace": 280000000000, "time": 2805.4}}, "weekday": "wednesday", "livingplace": "Bole"}}, "location": "Colombier NE"}, "Course p\u00e9destre Thyon-Dixence, Thyon": {"latitude": NaN, "longitude": NaN, "race": "Course p\u00e9destre Thyon-Dixence, Thyon", "date": {"dim. 01.08.2010": {"year": 2010, "day": 1, "month": 8, "categories": {"V1": {"distance": 16, "rank": 35, "pace": 433000000000, "time": 7080.2}}, "weekday": "sunday", "livingplace": "Bole"}, "dim. 04.08.2013": {"year": 2013, "day": 4, "month": 8, "categories": {"V\u00e9ter 1": {"distance": 16, "rank": 35, "pace": 409000000000, "time": 6695.4}}, "weekday": "sunday", "livingplace": "Bole"}}, "location": "Thyon-Les Collons"}}, "birth": 1966}