{"name": "Lecoultre Guy", "sex": "M", "races": {"Morat-Fribourg": {"latitude": 46.92922110000001, "longitude": 7.120184, "race": "Morat-Fribourg", "date": {"sam. 06.10.2012": {"year": 2012, "day": 6, "month": 10, "categories": {"17-M50": {"distance": 17, "rank": 399, "pace": 352000000000, "time": 6151.2}}, "weekday": "saturday", "livingplace": "Cointrin"}}, "location": "Murten"}, "20km de Lausanne": {"latitude": 46.5196535, "longitude": 6.6322734, "race": "20km de Lausanne", "date": {"sam. 28.04.2012": {"year": 2012, "day": 28, "month": 4, "categories": {"20-H50": {"distance": 20, "rank": 149, "pace": 338000000000, "time": 6777.0}}, "weekday": "saturday", "livingplace": "Cointrin"}}, "location": "Lausanne"}, "Course de l'Escalade, Gen\u00e8ve": {"latitude": 46.2043907, "longitude": 6.1431577, "race": "Course de l'Escalade, Gen\u00e8ve", "date": {"sam. 03.12.2011": {"year": 2011, "day": 3, "month": 12, "categories": {"H-H4": {"distance": 7, "rank": 572, "pace": 311000000000, "time": 2261.5}}, "weekday": "saturday", "livingplace": "Cointrin"}, "sam. 07.12.2013": {"year": 2013, "day": 7, "month": 12, "categories": {"Esc-Hom4": {"distance": 7, "rank": 627, "pace": 320000000000, "time": 2323.2}}, "weekday": "saturday", "livingplace": "Cointrin"}, "sam. 05.12.2015": {"year": 2015, "day": 5, "month": 12, "categories": {"Esc-Hom4": {"distance": 7, "rank": 477, "pace": 296000000000, "time": 2171.5}}, "weekday": "saturday", "livingplace": "Cointrin"}, "sam. 01.12.2012": {"year": 2012, "day": 1, "month": 12, "categories": {"Duc-Hom4": {"distance": 18, "rank": 435, "pace": 357000000000, "time": 6260.0}}, "weekday": "saturday", "livingplace": "Cointrin"}}, "location": "Gen\u00e8ve"}, "Semi-Marathon de la C\u00f4te, Allaman-Nyon": {"latitude": 46.3832683, "longitude": 6.2347852, "race": "Semi-Marathon de la C\u00f4te, Allaman-Nyon", "date": {"dim. 14.09.2014": {"year": 2014, "day": 14, "month": 9, "categories": {"21-H50": {"distance": 21, "rank": 102, "pace": 367000000000, "time": 7747.0}}, "weekday": "sunday", "livingplace": "Cointrin"}}, "location": "Nyon"}, "Kerzerslauf": {"latitude": 46.97488999999999, "longitude": 7.1954365, "race": "Kerzerslauf", "date": {"sam. 21.03.2015": {"year": 2015, "day": 21, "month": 3, "categories": {"15-M50": {"distance": 15, "rank": 394, "pace": 337000000000, "time": 5056.4}}, "weekday": "saturday", "livingplace": "Cointrin"}}, "location": "Kerzers"}}, "birth": 1961}