{"name": "Leder L\u00e9onard", "sex": "M", "races": {"A travers Carouge - Run to Run": {"latitude": 46.1829674, "longitude": 6.1378539, "race": "A travers Carouge - Run to Run", "date": {"sam. 24.09.2005": {"year": 2005, "day": 24, "month": 9, "categories": {"EcoM": {"distance": 2, "rank": 68, "pace": 292000000000, "time": 719.3}}, "weekday": "saturday", "livingplace": "Mont la Ville"}}, "location": "Carouge GE"}, "Tour du Pays de Vaud printanier #2 Yverdon-les-Bains": {"latitude": 46.6698891, "longitude": 6.7975224, "race": "Tour du Pays de Vaud printanier #2 Yverdon-les-Bains", "date": {"mer. 11.06.2014": {"year": 2014, "day": 11, "month": 6, "categories": {"H-Hom": {"distance": 9, "rank": 56, "pace": 354000000000, "time": 3221.7}}, "weekday": "wednesday", "livingplace": "Mont la Ville"}}, "location": "Moudon"}, "Tour du Pays de Vaud #1, Penthaz": {"latitude": 46.5993131, "longitude": 6.539251200000001, "race": "Tour du Pays de Vaud #1, Penthaz", "date": {"mer. 13.08.2014": {"year": 2014, "day": 13, "month": 8, "categories": {"H-Hom": {"distance": 9, "rank": 42, "pace": 282000000000, "time": 2406.8}}, "weekday": "wednesday", "livingplace": "Mont la Ville"}}, "location": "Penthaz"}, "Tour du Pays de Vaud printanier #3 - Yens": {"latitude": 46.7829756, "longitude": 6.5728678, "race": "Tour du Pays de Vaud printanier #3 - Yens", "date": {"mer. 18.06.2014": {"year": 2014, "day": 18, "month": 6, "categories": {"H-Hom": {"distance": 9, "rank": 44, "pace": 305000000000, "time": 2783.5}}, "weekday": "wednesday", "livingplace": "Mont la Ville"}}, "location": "Champvent"}, "Tour du Pays de Vaud #2, Mezi\u00e8res": {"latitude": 46.5955273, "longitude": 6.7702883, "race": "Tour du Pays de Vaud #2, Mezi\u00e8res", "date": {"mer. 20.08.2014": {"year": 2014, "day": 20, "month": 8, "categories": {"H-Hom": {"distance": 8, "rank": 41, "pace": 312000000000, "time": 2534.7}}, "weekday": "wednesday", "livingplace": "Mont la Ville"}}, "location": "M\u00e9zi\u00e8res VD"}, "Tour du Pays de Vaud printanier #1 Moudon": {"latitude": 46.3832683, "longitude": 6.2347852, "race": "Tour du Pays de Vaud printanier #1 Moudon", "date": {"mer. 04.06.2014": {"year": 2014, "day": 4, "month": 6, "categories": {"H-Hom": {"distance": 8, "rank": 51, "pace": 331000000000, "time": 2781.2}}, "weekday": "wednesday", "livingplace": "Mont la Ville"}}, "location": "Nyon"}}, "birth": 1994}