{"name": "Lehmann Sandra", "sex": "F", "races": {"Aegeriseelauf, Ober\u00e4geri": {"latitude": NaN, "longitude": NaN, "race": "Aegeriseelauf, Ober\u00e4geri", "date": {"ven. 19.07.2013": {"year": 2013, "day": 19, "month": 7, "categories": {"Dam3": {"distance": 14, "rank": 45, "pace": 309000000000, "time": 4378.5}}, "weekday": "friday", "livingplace": "Russikon"}}, "location": "Ober\u00e4geri"}, "ASICS Bremgarter Reusslauf": {"latitude": 47.34917739999999, "longitude": 8.3397905, "race": "ASICS Bremgarter Reusslauf", "date": {"sam. 23.02.2013": {"year": 2013, "day": 23, "month": 2, "categories": {"11-F40": {"distance": 11, "rank": 92, "pace": 312000000000, "time": 3432.8}}, "weekday": "saturday", "livingplace": "Fehraltorf"}}, "location": "Bremgarten AG"}, "Basler Stadtlauf": {"latitude": 47.5595986, "longitude": 7.5885761, "race": "Basler Stadtlauf", "date": {"sam. 29.11.2014": {"year": 2014, "day": 29, "month": 11, "categories": {"F40": {"distance": 6, "rank": 19, "pace": 266000000000, "time": 1464.7}}, "weekday": "saturday", "livingplace": "Russikon"}}, "location": "Basel"}, "Schweizer Frauenlauf Bern": {"latitude": 46.9479739, "longitude": 7.4474468, "race": "Schweizer Frauenlauf Bern", "date": {"dim. 09.06.2013": {"year": 2013, "day": 9, "month": 6, "categories": {"10-W40": {"distance": 10, "rank": 118, "pace": 309000000000, "time": 3098.5}}, "weekday": "sunday", "livingplace": "Fehraltorf"}}, "location": "Bern"}, "Winterthur Marathon": {"latitude": 39.8088766, "longitude": -75.6037351, "race": "Winterthur Marathon", "date": {"dim. 06.05.2012": {"year": 2012, "day": 6, "month": 5, "categories": {"H-F40": {"distance": 21, "rank": 55, "pace": 332000000000, "time": 6989.4}}, "weekday": "sunday", "livingplace": "Fehraltorf"}, "dim. 26.05.2013": {"year": 2013, "day": 26, "month": 5, "categories": {"H-F40": {"distance": 21, "rank": 37, "pace": 319000000000, "time": 6702.4}}, "weekday": "sunday", "livingplace": "Fehraltorf"}}, "location": "Winterthur"}, "Z\u00fcrcher Silvesterlauf, Z\u00fcrich": {"latitude": 47.3768866, "longitude": 8.541694, "race": "Z\u00fcrcher Silvesterlauf, Z\u00fcrich", "date": {"dim. 16.12.2012": {"year": 2012, "day": 16, "month": 12, "categories": {"8-DaAK2": {"distance": 9, "rank": 139, "pace": 312000000000, "time": 2686.4}}, "weekday": "sunday", "livingplace": "Fehraltorf"}}, "location": "Z\u00fcrich"}}, "birth": 1972}