{"name": "L'Eplattenier Thibaut", "sex": "M", "races": {"BCN Tour Les Ponts-de-Martel": {"latitude": 46.999113, "longitude": 6.733554799999999, "race": "BCN Tour Les Ponts-de-Martel", "date": {"mer. 09.05.2012": {"year": 2012, "day": 9, "month": 5, "categories": {"KG2": {"distance": 2, "rank": 8, "pace": 243000000000, "time": 463.5}}, "weekday": "wednesday", "livingplace": "Cernier"}}, "location": "Les Ponts-de-Martel"}, "BCN Tour Couvet": {"latitude": 47.0624261, "longitude": 6.9175754, "race": "BCN Tour Couvet", "date": {"mer. 02.05.2012": {"year": 2012, "day": 2, "month": 5, "categories": {"KG2": {"distance": 2, "rank": 8, "pace": 252000000000, "time": 453.7}}, "weekday": "wednesday", "livingplace": "Cernier"}}, "location": "Ch\u00e9zard-St-Martin"}, "BCN Tour La Chaux-de-Fonds": {"latitude": 47.1034892, "longitude": 6.832783800000001, "race": "BCN Tour La Chaux-de-Fonds", "date": {"mer. 23.05.2012": {"year": 2012, "day": 23, "month": 5, "categories": {"KG2": {"distance": 2, "rank": 11, "pace": 300000000000, "time": 662.0}}, "weekday": "wednesday", "livingplace": "Cernier"}, "mer. 11.05.2011": {"year": 2011, "day": 11, "month": 5, "categories": {"KG2": {"distance": 1, "rank": 33, "pace": 451000000000, "time": 437.9}}, "weekday": "wednesday", "livingplace": "Cernier"}}, "location": "La Chaux-de-Fonds"}, "BCN Tour La Br\u00e9vine": {"latitude": 46.999113, "longitude": 6.733554799999999, "race": "BCN Tour La Br\u00e9vine", "date": {"mer. 04.05.2011": {"year": 2011, "day": 4, "month": 5, "categories": {"KG2": {"distance": 2, "rank": 26, "pace": 268000000000, "time": 510.5}}, "weekday": "wednesday", "livingplace": "Cernier"}}, "location": "Les Ponts-de-Martel"}, "BCN Tour Fontaine Cernier": {"latitude": 47.0624261, "longitude": 6.9175754, "race": "BCN Tour Fontaine Cernier", "date": {"mer. 27.04.2011": {"year": 2011, "day": 27, "month": 4, "categories": {"KG2": {"distance": 2, "rank": 29, "pace": 308000000000, "time": 523.7}}, "weekday": "wednesday", "livingplace": "Cernier"}}, "location": "Ch\u00e9zard-St-Martin"}, "BCN Tour Neuch\u00e2tel": {"latitude": 46.9899874, "longitude": 6.9292732, "race": "BCN Tour Neuch\u00e2tel", "date": {"mer. 30.05.2012": {"year": 2012, "day": 30, "month": 5, "categories": {"KG2": {"distance": 2, "rank": 8, "pace": 236000000000, "time": 413.1}}, "weekday": "wednesday", "livingplace": "Cernier"}, "mer. 25.05.2011": {"year": 2011, "day": 25, "month": 5, "categories": {"KG2": {"distance": 2, "rank": 15, "pace": 249000000000, "time": 499.5}}, "weekday": "wednesday", "livingplace": "Cernier"}}, "location": "Neuch\u00e2tel"}, "BCN Tour Les Ponts de Martel": {"latitude": 46.9262933, "longitude": 6.6324944, "race": "BCN Tour Les Ponts de Martel", "date": {"mer. 18.05.2011": {"year": 2011, "day": 18, "month": 5, "categories": {"KG2": {"distance": 2, "rank": 21, "pace": 242000000000, "time": 478.7}}, "weekday": "wednesday", "livingplace": "Cernier"}}, "location": "Couvet"}, "BCN Tour Le Landeron": {"latitude": 46.9668714, "longitude": 6.8589727, "race": "BCN Tour Le Landeron", "date": {"mer. 22.04.2009": {"year": 2009, "day": 22, "month": 4, "categories": {"KG1": {"distance": 2, "rank": 23, "pace": 276000000000, "time": 552.0}}, "weekday": "wednesday", "livingplace": "Cernier"}}, "location": "Colombier NE"}, "BCN Tour Cornaux": {"latitude": 46.9668714, "longitude": 6.8589727, "race": "BCN Tour Cornaux", "date": {"mer. 25.04.2012": {"year": 2012, "day": 25, "month": 4, "categories": {"KG2": {"distance": 2, "rank": 11, "pace": 253000000000, "time": 380.7}}, "weekday": "wednesday", "livingplace": "Cernier"}}, "location": "Colombier NE"}, "BCN Tour Colombier": {"latitude": 47.1034892, "longitude": 6.832783800000001, "race": "BCN Tour Colombier", "date": {"mer. 16.05.2012": {"year": 2012, "day": 16, "month": 5, "categories": {"KG2": {"distance": 2, "rank": 8, "pace": 255000000000, "time": 383.7}}, "weekday": "wednesday", "livingplace": "Cernier"}}, "location": "La Chaux-de-Fonds"}}, "birth": 2001}