{"name": "Letoublon Laurent", "sex": "M", "races": {"BCN Tour M\u00f4tier": {"latitude": 46.9262933, "longitude": 6.6324944, "race": "BCN Tour M\u00f4tier", "date": {"mer. 19.05.2010": {"year": 2010, "day": 19, "month": 5, "categories": {"HS2": {"distance": 10, "rank": 41, "pace": 252000000000, "time": 2500.0}}, "weekday": "wednesday", "livingplace": "Montperreux"}}, "location": "Couvet"}, "Tour du Pays de Vaud etape 2 - Genolier": {"latitude": 46.5955273, "longitude": 6.7702883, "race": "Tour du Pays de Vaud etape 2 - Genolier", "date": {"mer. 20.08.2008": {"year": 2008, "day": 20, "month": 8, "categories": {"HomSen2": {"distance": 8, "rank": 75, "pace": 288000000000, "time": 2393.2}}, "weekday": "wednesday", "livingplace": "Ch"}}, "location": "M\u00e9zi\u00e8res VD"}, "BCN Tour Fontaine Cernier": {"latitude": 47.0624261, "longitude": 6.9175754, "race": "BCN Tour Fontaine Cernier", "date": {"mer. 27.04.2011": {"year": 2011, "day": 27, "month": 4, "categories": {"HS2": {"distance": 10, "rank": 33, "pace": 249000000000, "time": 2568.9}}, "weekday": "wednesday", "livingplace": "Montperreux"}}, "location": "Ch\u00e9zard-St-Martin"}, "Tour du Pays de Vaud etape 1 - Le Mont sur Lausanne": {"latitude": 46.7784736, "longitude": 6.641183, "race": "Tour du Pays de Vaud etape 1 - Le Mont sur Lausanne", "date": {"mer. 13.08.2008": {"year": 2008, "day": 13, "month": 8, "categories": {"HomSen2": {"distance": 8, "rank": 22, "pace": 243000000000, "time": 2045.8}}, "weekday": "wednesday", "livingplace": "Ch"}}, "location": "Yverdon-les-Bains"}, "20km de Lausanne": {"latitude": 46.5196535, "longitude": 6.6322734, "race": "20km de Lausanne", "date": {"sam. 24.04.2010": {"year": 2010, "day": 24, "month": 4, "categories": {"20-H40": {"distance": 20, "rank": 50, "pace": 259000000000, "time": 5183.2}}, "weekday": "saturday", "livingplace": "Ins"}, "sam. 28.04.2007": {"year": 2007, "day": 28, "month": 4, "categories": {"10H30": {"distance": 10, "rank": 28, "pace": 239000000000, "time": 2397.6}}, "weekday": "saturday", "livingplace": "Kourpaloin"}, "sam. 26.04.2014": {"year": 2014, "day": 26, "month": 4, "categories": {"20-H45": {"distance": 20, "rank": 71, "pace": 271000000000, "time": 5435.6}}, "weekday": "saturday", "livingplace": "Dentsply Maillefer"}, "sam. 22.04.2006": {"year": 2006, "day": 22, "month": 4, "categories": {"10/H30": {"distance": 10, "rank": 16, "pace": 230000000000, "time": 2306.3}}, "weekday": "saturday", "livingplace": "Les Dents de Maillefer"}}, "location": "Lausanne"}, "BCN Tour Ponts-de-Martel": {"latitude": 47.0624261, "longitude": 6.9175754, "race": "BCN Tour Ponts-de-Martel", "date": {"mer. 28.04.2010": {"year": 2010, "day": 28, "month": 4, "categories": {"HS2": {"distance": 11, "rank": 56, "pace": 273000000000, "time": 3062.0}}, "weekday": "wednesday", "livingplace": "Montperreux"}}, "location": "Ch\u00e9zard-St-Martin"}, "BCN Tour Auvernier": {"latitude": 46.9668714, "longitude": 6.8589727, "race": "BCN Tour Auvernier", "date": {"mer. 20.04.2011": {"year": 2011, "day": 20, "month": 4, "categories": {"HS2": {"distance": 11, "rank": 37, "pace": 260000000000, "time": 2817.2}}, "weekday": "wednesday", "livingplace": "Montperreux"}}, "location": "Colombier NE"}, "Lausanne Marathon": {"latitude": 46.5196535, "longitude": 6.6322734, "race": "Lausanne Marathon", "date": {"sam. 24.10.2015": {"year": 2015, "day": 24, "month": 10, "categories": {"10-H40": {"distance": 10, "rank": 169, "pace": 278000000000, "time": 2787.7}}, "weekday": "saturday", "livingplace": "Montperreux"}}, "location": "Lausanne"}, "BCN Tour La Chaux-de-Fonds": {"latitude": 47.1034892, "longitude": 6.832783800000001, "race": "BCN Tour La Chaux-de-Fonds", "date": {"mer. 11.05.2011": {"year": 2011, "day": 11, "month": 5, "categories": {"HS2": {"distance": 11, "rank": 43, "pace": 298000000000, "time": 3195.6}}, "weekday": "wednesday", "livingplace": "Montperreux"}}, "location": "La Chaux-de-Fonds"}, "BCN Tour #6 Neuch\u00e2tel": {"latitude": 46.9899874, "longitude": 6.9292732, "race": "BCN Tour #6 Neuch\u00e2tel", "date": {"mer. 29.05.2013": {"year": 2013, "day": 29, "month": 5, "categories": {"HS2": {"distance": 11, "rank": 58, "pace": 273000000000, "time": 3009.1}}, "weekday": "wednesday", "livingplace": "Neuchatel"}}, "location": "Neuch\u00e2tel"}, "BCN Tour La Br\u00e9vine": {"latitude": 46.999113, "longitude": 6.733554799999999, "race": "BCN Tour La Br\u00e9vine", "date": {"mer. 04.05.2011": {"year": 2011, "day": 4, "month": 5, "categories": {"HS2": {"distance": 10, "rank": 44, "pace": 262000000000, "time": 2627.5}}, "weekday": "wednesday", "livingplace": "Montperreux"}}, "location": "Les Ponts-de-Martel"}, "BCN Tour Neuch\u00e2tel": {"latitude": 46.9899874, "longitude": 6.9292732, "race": "BCN Tour Neuch\u00e2tel", "date": {"mer. 26.05.2010": {"year": 2010, "day": 26, "month": 5, "categories": {"HS2": {"distance": 10, "rank": 30, "pace": 267000000000, "time": 2598.0}}, "weekday": "wednesday", "livingplace": "Montperreux"}, "mer. 25.05.2011": {"year": 2011, "day": 25, "month": 5, "categories": {"HS2": {"distance": 11, "rank": 44, "pace": 268000000000, "time": 3064.0}}, "weekday": "wednesday", "livingplace": "Montperreux"}}, "location": "Neuch\u00e2tel"}, "BCN Tour Les Ponts de Martel": {"latitude": 46.9262933, "longitude": 6.6324944, "race": "BCN Tour Les Ponts de Martel", "date": {"mer. 18.05.2011": {"year": 2011, "day": 18, "month": 5, "categories": {"HS2": {"distance": 13, "rank": 33, "pace": 261000000000, "time": 3351.1}}, "weekday": "wednesday", "livingplace": "Montperreux"}}, "location": "Couvet"}}, "birth": 1968}