{"name": "Leyvraz Sabine", "sex": "F", "races": {"Tour du Pays de Vaud printanier #2 Yverdon-les-Bains": {"latitude": 46.6698891, "longitude": 6.7975224, "race": "Tour du Pays de Vaud printanier #2 Yverdon-les-Bains", "date": {"mer. 05.06.2013": {"year": 2013, "day": 5, "month": 6, "categories": {"D-Dam": {"distance": 9, "rank": 46, "pace": 467000000000, "time": 4250.0}}, "weekday": "wednesday", "livingplace": "Clarens"}}, "location": "Moudon"}, "Tour du Pays de Vaud printanier #3 - Yens": {"latitude": 46.7829756, "longitude": 6.5728678, "race": "Tour du Pays de Vaud printanier #3 - Yens", "date": {"mer. 12.06.2013": {"year": 2013, "day": 12, "month": 6, "categories": {"D-Dam": {"distance": 9, "rank": 40, "pace": 473000000000, "time": 4311.7}}, "weekday": "wednesday", "livingplace": "Clarens"}}, "location": "Champvent"}, "Tour du Pays de Vaud #2, Mezi\u00e8res": {"latitude": 46.5955273, "longitude": 6.7702883, "race": "Tour du Pays de Vaud #2, Mezi\u00e8res", "date": {"mer. 20.08.2014": {"year": 2014, "day": 20, "month": 8, "categories": {"D-Dam": {"distance": 8, "rank": 54, "pace": 500000000000, "time": 4054.9}}, "weekday": "wednesday", "livingplace": "Vevey"}}, "location": "M\u00e9zi\u00e8res VD"}, "Tour du Pays de Vaud #2 - Mezi\u00e8res": {"latitude": 46.5955273, "longitude": 6.7702883, "race": "Tour du Pays de Vaud #2 - Mezi\u00e8res", "date": {"mer. 21.08.2013": {"year": 2013, "day": 21, "month": 8, "categories": {"D-Dam": {"distance": 8, "rank": 53, "pace": 489000000000, "time": 3967.3}}, "weekday": "wednesday", "livingplace": "Clarens"}}, "location": "M\u00e9zi\u00e8res VD"}, "20km de Lausanne": {"latitude": 46.5196535, "longitude": 6.6322734, "race": "20km de Lausanne", "date": {"sam. 27.04.2013": {"year": 2013, "day": 27, "month": 4, "categories": {"10-F20": {"distance": 10, "rank": 926, "pace": 444000000000, "time": 4440.6}}, "weekday": "saturday", "livingplace": "Clarens"}, "sam. 25.04.2015": {"year": 2015, "day": 25, "month": 4, "categories": {"10-F20": {"distance": 10, "rank": 1051, "pace": 382000000000, "time": 3820.1}}, "weekday": "saturday", "livingplace": "Vevey"}, "sam. 26.04.2014": {"year": 2014, "day": 26, "month": 4, "categories": {"10-F20": {"distance": 10, "rank": 872, "pace": 392000000000, "time": 3925.9}}, "weekday": "saturday", "livingplace": "Vevey"}}, "location": "Lausanne"}, "Tour du Pays de Vaud printanier #1 Moudon": {"latitude": 46.3832683, "longitude": 6.2347852, "race": "Tour du Pays de Vaud printanier #1 Moudon", "date": {"mer. 04.06.2014": {"year": 2014, "day": 4, "month": 6, "categories": {"D-Dam": {"distance": 8, "rank": 44, "pace": 442000000000, "time": 3717.8}}, "weekday": "wednesday", "livingplace": "Vevey"}}, "location": "Nyon"}, "Kerzerslauf": {"latitude": 46.97488999999999, "longitude": 7.1954365, "race": "Kerzerslauf", "date": {"sam. 15.03.2014": {"year": 2014, "day": 15, "month": 3, "categories": {"15-F20": {"distance": 15, "rank": 425, "pace": 399000000000, "time": 5999.1}}, "weekday": "saturday", "livingplace": "Clarens"}}, "location": "Kerzers"}}, "birth": 1987}