{"name": "Lhomme Jean-Joseph", "sex": "M", "races": {"Morat-Fribourg": {"latitude": 46.92922110000001, "longitude": 7.120184, "race": "Morat-Fribourg", "date": {"sam. 03.10.2009": {"year": 2009, "day": 3, "month": 10, "categories": {"C-M40": {"distance": 17, "rank": 14, "pace": 234000000000, "time": 4024.2}}, "weekday": "saturday", "livingplace": "Vuadens"}}, "location": "Murten"}, "20km de Lausanne": {"latitude": 46.5196535, "longitude": 6.6322734, "race": "20km de Lausanne", "date": {"sam. 23.04.2005": {"year": 2005, "day": 23, "month": 4, "categories": {"13": {"distance": 20, "rank": 23, "pace": 229000000000, "time": 4586.9}}, "weekday": "saturday", "livingplace": "Vuadens"}}, "location": "Lausanne"}, "Course de l'Escalade, Gen\u00e8ve": {"latitude": 46.2043907, "longitude": 6.1431577, "race": "Course de l'Escalade, Gen\u00e8ve", "date": {"sam. 06.12.2008": {"year": 2008, "day": 6, "month": 12, "categories": {"Elite H": {"distance": 7, "rank": 135, "pace": 214000000000, "time": 1554.4}}, "weekday": "saturday", "livingplace": "Vuadens"}}, "location": "Gen\u00e8ve"}, "Kerzerslauf": {"latitude": 46.97488999999999, "longitude": 7.1954365, "race": "Kerzerslauf", "date": {"sam. 17.03.2007": {"year": 2007, "day": 17, "month": 3, "categories": {"M40": {"distance": 15, "rank": 14, "pace": 218000000000, "time": 3282.9}}, "weekday": "saturday", "livingplace": "Vuadens"}}, "location": "Kerzers"}, "Corrida Bulloise, Bulle": {"latitude": 46.6154512, "longitude": 7.057726799999999, "race": "Corrida Bulloise, Bulle", "date": {"sam. 21.11.2009": {"year": 2009, "day": 21, "month": 11, "categories": {"M40": {"distance": 8, "rank": 22, "pace": 222000000000, "time": 1813.1}}, "weekday": "saturday", "livingplace": "Vuadens"}}, "location": "Bulle"}}, "birth": 1965}