{"name": "Liardon Cora", "sex": "F", "races": {"Tour du Pays de Vaud #1, Penthaz": {"latitude": 46.5993131, "longitude": 6.539251200000001, "race": "Tour du Pays de Vaud #1, Penthaz", "date": {"mer. 13.08.2014": {"year": 2014, "day": 13, "month": 8, "categories": {"D-Dam": {"distance": 9, "rank": 30, "pace": 376000000000, "time": 3210.7}}, "weekday": "wednesday", "livingplace": "Bavois"}}, "location": "Penthaz"}, "Tour du Pays de Vaud #2, Mezi\u00e8res": {"latitude": 46.5955273, "longitude": 6.7702883, "race": "Tour du Pays de Vaud #2, Mezi\u00e8res", "date": {"mer. 20.08.2014": {"year": 2014, "day": 20, "month": 8, "categories": {"D-Dam": {"distance": 8, "rank": 48, "pace": 415000000000, "time": 3367.9}}, "weekday": "wednesday", "livingplace": "Bavois"}}, "location": "M\u00e9zi\u00e8res VD"}, "20km de Lausanne": {"latitude": 46.5196535, "longitude": 6.6322734, "race": "20km de Lausanne", "date": {"sam. 25.04.2015": {"year": 2015, "day": 25, "month": 4, "categories": {"10-F20": {"distance": 10, "rank": 567, "pace": 348000000000, "time": 3488.5}}, "weekday": "saturday", "livingplace": "Ch"}, "sam. 26.04.2014": {"year": 2014, "day": 26, "month": 4, "categories": {"10-F20": {"distance": 10, "rank": 845, "pace": 388000000000, "time": 3888.7}}, "weekday": "saturday", "livingplace": "Bavois"}}, "location": "Lausanne"}, "Tour du Pays de Vaud #4, La Sarraz": {"latitude": 46.7088129, "longitude": 6.5707689, "race": "Tour du Pays de Vaud #4, La Sarraz", "date": {"mer. 03.09.2014": {"year": 2014, "day": 3, "month": 9, "categories": {"D-Dam": {"distance": 9, "rank": 46, "pace": 380000000000, "time": 3234.0}}, "weekday": "wednesday", "livingplace": "Bavois"}}, "location": "Chavornay"}, "Les Traine-Savates, Cheseaux-sur-Lausanne": {"latitude": 46.585452, "longitude": 6.6047712, "race": "Les Traine-Savates, Cheseaux-sur-Lausanne", "date": {"sam. 12.04.2014": {"year": 2014, "day": 12, "month": 4, "categories": {"10-W20": {"distance": 10, "rank": 139, "pace": 400000000000, "time": 4121.0}}, "weekday": "saturday", "livingplace": "Bavois"}}, "location": "Cheseaux-sur-Lausanne"}, "Tour du Pays de Vaud #3, Chavornay": {"latitude": 46.7784736, "longitude": 6.641183, "race": "Tour du Pays de Vaud #3, Chavornay", "date": {"mer. 27.08.2014": {"year": 2014, "day": 27, "month": 8, "categories": {"D-Dam": {"distance": 9, "rank": 36, "pace": 388000000000, "time": 3339.5}}, "weekday": "wednesday", "livingplace": "Bavois"}}, "location": "Yverdon-les-Bains"}}, "birth": 1986}