{"name": "Liechti Hansj\u00fcrg", "sex": "M", "races": {"Kerzerslauf": {"latitude": 46.97488999999999, "longitude": 7.1954365, "race": "Kerzerslauf", "date": {"sam. 15.03.2008": {"year": 2008, "day": 15, "month": 3, "categories": {"15/M40": {"distance": 15, "rank": 583, "pace": 355000000000, "time": 5331.2}}, "weekday": "saturday", "livingplace": "Ueberstorf"}, "sam. 17.03.2007": {"year": 2007, "day": 17, "month": 3, "categories": {"MKU": {"distance": 5, "rank": 158, "pace": 370000000000, "time": 1853.7}}, "weekday": "saturday", "livingplace": "Ueberstorf"}}, "location": "Kerzers"}, "Thuner Stadtlauf, Thun": {"latitude": 46.7579868, "longitude": 7.6279881, "race": "Thuner Stadtlauf, Thun", "date": {"dim. 24.08.2008": {"year": 2008, "day": 24, "month": 8, "categories": {"10-M40": {"distance": 10, "rank": 147, "pace": 352000000000, "time": 3529.5}}, "weekday": "sunday", "livingplace": "Ueberstorf"}, "dim. 23.08.2009": {"year": 2009, "day": 23, "month": 8, "categories": {"5-VolksM": {"distance": 5, "rank": 229, "pace": 351000000000, "time": 1756.0}}, "weekday": "sunday", "livingplace": "Ueberstorf"}}, "location": "Thun"}, "Morat-Fribourg": {"latitude": 46.92922110000001, "longitude": 7.120184, "race": "Morat-Fribourg", "date": {"sam. 04.10.2008": {"year": 2008, "day": 4, "month": 10, "categories": {"C-M40": {"distance": 17, "rank": 853, "pace": 383000000000, "time": 6583.3}}, "weekday": "saturday", "livingplace": "Ueberstorf"}}, "location": "Murten"}, "Corrida Bulloise, Bulle": {"latitude": 46.6154512, "longitude": 7.057726799999999, "race": "Corrida Bulloise, Bulle", "date": {"sam. 15.11.2008": {"year": 2008, "day": 15, "month": 11, "categories": {"M40": {"distance": 8, "rank": 187, "pace": 342000000000, "time": 2736.9}}, "weekday": "saturday", "livingplace": "Ueberstorf"}}, "location": "Bulle"}, "Steinh\u00f6lzlilauf, Liebefeld": {"latitude": 46.933331, "longitude": 7.416668, "race": "Steinh\u00f6lzlilauf, Liebefeld", "date": {"dim. 07.12.2008": {"year": 2008, "day": 7, "month": 12, "categories": {"KurzMI": {"distance": 4, "rank": 27, "pace": 345000000000, "time": 1520.8}}, "weekday": "sunday", "livingplace": "Ueberstorf"}}, "location": "Liebefeld"}, "Z\u00fcrcher Silvesterlauf, Z\u00fcrich": {"latitude": 47.3768866, "longitude": 8.541694, "race": "Z\u00fcrcher Silvesterlauf, Z\u00fcrich", "date": {"dim. 10.12.2006": {"year": 2006, "day": 10, "month": 12, "categories": {"MenAK1-4": {"distance": 4, "rank": 113, "pace": 357000000000, "time": 1571.4}}, "weekday": "sunday", "livingplace": "Ueberstorf"}}, "location": "Z\u00fcrich"}, "Int Greifenseelauf, Uster": {"latitude": 47.3482747, "longitude": 8.717873899999999, "race": "Int Greifenseelauf, Uster", "date": {"sam. 20.09.2008": {"year": 2008, "day": 20, "month": 9, "categories": {"H-M40": {"distance": 21, "rank": 1039, "pace": 364000000000, "time": 7687.0}}, "weekday": "saturday", "livingplace": "Ueberstorf"}}, "location": "Uster"}}, "birth": 1967}