{"name": "Linder Olivier", "sex": "M", "races": {"Tour du Pays de Vaud #4, La Sarraz": {"latitude": 46.7088129, "longitude": 6.5707689, "race": "Tour du Pays de Vaud #4, La Sarraz", "date": {"mer. 03.09.2014": {"year": 2014, "day": 3, "month": 9, "categories": {"H-Sen1": {"distance": 9, "rank": 78, "pace": 283000000000, "time": 2413.9}}, "weekday": "wednesday", "livingplace": "Villars le Terroir"}}, "location": "Chavornay"}, "Tour du Pays de Vaud #1, Penthaz": {"latitude": 46.5993131, "longitude": 6.539251200000001, "race": "Tour du Pays de Vaud #1, Penthaz", "date": {"mer. 13.08.2014": {"year": 2014, "day": 13, "month": 8, "categories": {"H-Sen1": {"distance": 9, "rank": 111, "pace": 323000000000, "time": 2757.7}}, "weekday": "wednesday", "livingplace": "Villars le Terroir"}}, "location": "Penthaz"}, "Course de l'Escalade, Gen\u00e8ve": {"latitude": 46.2043907, "longitude": 6.1431577, "race": "Course de l'Escalade, Gen\u00e8ve", "date": {"sam. 01.12.2007": {"year": 2007, "day": 1, "month": 12, "categories": {"Hommes1": {"distance": 7, "rank": 575, "pace": 314000000000, "time": 2281.0}}, "weekday": "saturday", "livingplace": "Echallens"}}, "location": "Gen\u00e8ve"}, "Tour du Pays de Vaud #2, Mezi\u00e8res": {"latitude": 46.5955273, "longitude": 6.7702883, "race": "Tour du Pays de Vaud #2, Mezi\u00e8res", "date": {"mer. 20.08.2014": {"year": 2014, "day": 20, "month": 8, "categories": {"H-Sen1": {"distance": 8, "rank": 111, "pace": 355000000000, "time": 2877.2}}, "weekday": "wednesday", "livingplace": "Villars le Terroir"}}, "location": "M\u00e9zi\u00e8res VD"}, "Tour du Pays de Vaud #3, Chavornay": {"latitude": 46.7784736, "longitude": 6.641183, "race": "Tour du Pays de Vaud #3, Chavornay", "date": {"mer. 27.08.2014": {"year": 2014, "day": 27, "month": 8, "categories": {"H-Sen1": {"distance": 9, "rank": 122, "pace": 338000000000, "time": 2915.1}}, "weekday": "wednesday", "livingplace": "Villars le Terroir"}}, "location": "Yverdon-les-Bains"}}, "birth": 1981}