{"name": "Lin Fr\u00e9d\u00e9ric", "sex": "M", "races": {"Montreux - Les Rochers de Naye": {"latitude": 46.4312213, "longitude": 6.9106799, "race": "Montreux - Les Rochers de Naye", "date": {"dim. 30.06.2002": {"year": 2002, "day": 30, "month": 6, "categories": {"Se": {"distance": 20, "rank": 72, "pace": 425000000000, "time": 8647.5}}, "weekday": "sunday", "livingplace": "Thierrens"}}, "location": "Montreux"}, "Tour du pays de Vaud #5 - Penthaz": {"latitude": 46.5993131, "longitude": 6.539251200000001, "race": "Tour du pays de Vaud #5 - Penthaz", "date": {"mer. 07.09.2011": {"year": 2011, "day": 7, "month": 9, "categories": {"H-Sen2": {"distance": 8, "rank": 152, "pace": 395000000000, "time": 3305.0}}, "weekday": "wednesday", "livingplace": "Thierrens"}}, "location": "Penthaz"}, "Tour du Pays de Vaud #3 - Mezi\u00e8res": {"latitude": 46.7784736, "longitude": 6.641183, "race": "Tour du Pays de Vaud #3 - Mezi\u00e8res", "date": {"mer. 22.08.2012": {"year": 2012, "day": 22, "month": 8, "categories": {"H-Sen2": {"distance": 8, "rank": 170, "pace": 395000000000, "time": 3325.0}}, "weekday": "wednesday", "livingplace": "Thierrens"}}, "location": "Yverdon-les-Bains"}, "Morat-Fribourg": {"latitude": 46.92922110000001, "longitude": 7.120184, "race": "Morat-Fribourg", "date": {"dim. 07.10.2001": {"year": 2001, "day": 7, "month": 10, "categories": {"M20": {"distance": 17, "rank": 779, "pace": 278000000000, "time": 4780.8}}, "weekday": "sunday", "livingplace": "Thierrens"}, "dim. 06.10.2002": {"year": 2002, "day": 6, "month": 10, "categories": {"M20": {"distance": 17, "rank": 430, "pace": 260000000000, "time": 4464.3}}, "weekday": "sunday", "livingplace": "Thierrens"}}, "location": "Murten"}, "Bieler Lauftage, Biel Bienne": {"latitude": 47.1367785, "longitude": 7.2467909, "race": "Bieler Lauftage, Biel Bienne", "date": {"ven. 13.06.2008": {"year": 2008, "day": 13, "month": 6, "categories": {"100/M40": {"distance": 100, "rank": 232, "pace": 441000000000, "time": 44195.0}}, "weekday": "friday", "livingplace": "Thierrens"}, "ven. 15.06.2007": {"year": 2007, "day": 15, "month": 6, "categories": {"100/M40": {"distance": 100, "rank": 78, "pace": 391000000000, "time": 39145.1}}, "weekday": "friday", "livingplace": "Thierrens"}, "ven. 09.06.2006": {"year": 2006, "day": 9, "month": 6, "categories": {"TS1/M40": {"distance": 39, "rank": 11, "pace": 419000000000, "time": 16277.1}}, "weekday": "friday", "livingplace": "Thierrens"}}, "location": "Biel/Bienne"}}, "birth": 1965}