{"name": "Liniger Joachim", "sex": "M", "races": {"BCN Tour #6 Neuch\u00e2tel": {"latitude": 46.9899874, "longitude": 6.9292732, "race": "BCN Tour #6 Neuch\u00e2tel", "date": {"mer. 29.05.2013": {"year": 2013, "day": 29, "month": 5, "categories": {"KG2": {"distance": 1, "rank": 46, "pace": 249000000000, "time": 323.8}}, "weekday": "wednesday", "livingplace": "Villiers"}}, "location": "Neuch\u00e2tel"}, "BCN Tour Les Ponts-de-Martel": {"latitude": 46.999113, "longitude": 6.733554799999999, "race": "BCN Tour Les Ponts-de-Martel", "date": {"mer. 09.05.2012": {"year": 2012, "day": 9, "month": 5, "categories": {"KG2": {"distance": 2, "rank": 56, "pace": 286000000000, "time": 544.5}}, "weekday": "wednesday", "livingplace": "Villiers"}}, "location": "Les Ponts-de-Martel"}, "BCN Tour La Chaux-de-Fonds": {"latitude": 46.9262933, "longitude": 6.6324944, "race": "BCN Tour La Chaux-de-Fonds", "date": {"mer. 23.05.2012": {"year": 2012, "day": 23, "month": 5, "categories": {"KG2": {"distance": 2, "rank": 42, "pace": 331000000000, "time": 728.5}}, "weekday": "wednesday", "livingplace": "Villiers"}}, "location": "Couvet"}, "Basler Stadtlauf": {"latitude": 47.5595986, "longitude": 7.5885761, "race": "Basler Stadtlauf", "date": {"sam. 27.11.2010": {"year": 2010, "day": 27, "month": 11, "categories": {"A": {"distance": 1, "rank": 49, "pace": 281000000000, "time": 281.9}}, "weekday": "saturday", "livingplace": "Villiers"}}, "location": "Basel"}, "BCN Tour Fontaine Cernier": {"latitude": 47.0624261, "longitude": 6.9175754, "race": "BCN Tour Fontaine Cernier", "date": {"mer. 27.04.2011": {"year": 2011, "day": 27, "month": 4, "categories": {"KG1": {"distance": 2, "rank": 20, "pace": 330000000000, "time": 561.7}}, "weekday": "wednesday", "livingplace": "Villiers"}}, "location": "Ch\u00e9zard-St-Martin"}, "BCN Tour Neuch\u00e2tel": {"latitude": 46.9899874, "longitude": 6.9292732, "race": "BCN Tour Neuch\u00e2tel", "date": {"mer. 30.05.2012": {"year": 2012, "day": 30, "month": 5, "categories": {"KG2": {"distance": 2, "rank": 46, "pace": 272000000000, "time": 476.3}}, "weekday": "wednesday", "livingplace": "Villiers"}, "mer. 25.05.2011": {"year": 2011, "day": 25, "month": 5, "categories": {"KG1": {"distance": 2, "rank": 23, "pace": 270000000000, "time": 541.4}}, "weekday": "wednesday", "livingplace": "Villiers"}}, "location": "Neuch\u00e2tel"}, "Course de l'Escalade, Gen\u00e8ve": {"latitude": 46.2043907, "longitude": 6.1431577, "race": "Course de l'Escalade, Gen\u00e8ve", "date": {"sam. 07.12.2013": {"year": 2013, "day": 7, "month": 12, "categories": {"EcoM-B11": {"distance": 2, "rank": 151, "pace": 276000000000, "time": 643.1}}, "weekday": "saturday", "livingplace": "Villiers"}, "sam. 01.12.2012": {"year": 2012, "day": 1, "month": 12, "categories": {"EcoM-B10": {"distance": 2, "rank": 147, "pace": 281000000000, "time": 654.2}}, "weekday": "saturday", "livingplace": "Villiers"}}, "location": "Gen\u00e8ve"}, "BCN Tour Couvet": {"latitude": 47.0624261, "longitude": 6.9175754, "race": "BCN Tour Couvet", "date": {"mer. 02.05.2012": {"year": 2012, "day": 2, "month": 5, "categories": {"KG2": {"distance": 2, "rank": 45, "pace": 282000000000, "time": 508.4}}, "weekday": "wednesday", "livingplace": "Villiers"}}, "location": "Ch\u00e9zard-St-Martin"}, "BCN Tour Cornaux": {"latitude": 46.9668714, "longitude": 6.8589727, "race": "BCN Tour Cornaux", "date": {"mer. 25.04.2012": {"year": 2012, "day": 25, "month": 4, "categories": {"KG2": {"distance": 2, "rank": 45, "pace": 278000000000, "time": 417.9}}, "weekday": "wednesday", "livingplace": "Villiers"}}, "location": "Colombier NE"}, "BCN Tour #3 Dombresson": {"latitude": 46.999113, "longitude": 6.733554799999999, "race": "BCN Tour #3 Dombresson", "date": {"mer. 08.05.2013": {"year": 2013, "day": 8, "month": 5, "categories": {"KG2": {"distance": 1, "rank": 50, "pace": 273000000000, "time": 356.0}}, "weekday": "wednesday", "livingplace": "Villiers"}}, "location": "Les Ponts-de-Martel"}, "BCN Tour Colombier": {"latitude": 47.1034892, "longitude": 6.832783800000001, "race": "BCN Tour Colombier", "date": {"mer. 16.05.2012": {"year": 2012, "day": 16, "month": 5, "categories": {"KG2": {"distance": 2, "rank": 51, "pace": 286000000000, "time": 429.5}}, "weekday": "wednesday", "livingplace": "Villiers"}}, "location": "La Chaux-de-Fonds"}}, "birth": 2002}