{"name": "Lloyd Timothy", "sex": "M", "races": {"Lausanne Marathon": {"latitude": 46.5196535, "longitude": 6.6322734, "race": "Lausanne Marathon", "date": {"dim. 27.10.2013": {"year": 2013, "day": 27, "month": 10, "categories": {"21-H2": {"distance": 21, "rank": 147, "pace": 272000000000, "time": 5741.9}}, "weekday": "sunday", "livingplace": "Ch"}}, "location": "Lausanne"}, "Humani'Trail, Les Diablerets": {"latitude": 46.351389, "longitude": 7.158055999999999, "race": "Humani'Trail, Les Diablerets", "date": {"sam. 21.09.2013": {"year": 2013, "day": 21, "month": 9, "categories": {"25-HS": {"distance": 25, "rank": 20, "pace": 497000000000, "time": 12438.5}}, "weekday": "saturday", "livingplace": "Ch"}}, "location": "Les Diablerets"}, "Course de l'Escalade, Gen\u00e8ve": {"latitude": 46.2043907, "longitude": 6.1431577, "race": "Course de l'Escalade, Gen\u00e8ve", "date": {"sam. 07.12.2013": {"year": 2013, "day": 7, "month": 12, "categories": {"Esc-Hom2": {"distance": 7, "rank": 126, "pace": 243000000000, "time": 1762.2}}, "weekday": "saturday", "livingplace": "Ch"}, "sam. 06.12.2014": {"year": 2014, "day": 6, "month": 12, "categories": {"Esc-Hom2": {"distance": 7, "rank": 118, "pace": 245000000000, "time": 1797.8}}, "weekday": "saturday", "livingplace": "Ch"}}, "location": "Gen\u00e8ve"}, "Corrida Bulloise, Bulle": {"latitude": 46.6154512, "longitude": 7.057726799999999, "race": "Corrida Bulloise, Bulle", "date": {"sam. 16.11.2013": {"year": 2013, "day": 16, "month": 11, "categories": {"M20": {"distance": 8, "rank": 73, "pace": 242000000000, "time": 1972.6}}, "weekday": "saturday", "livingplace": "Ch"}}, "location": "Bulle"}, "Noviodurun, Nyon": {"latitude": 46.3832683, "longitude": 6.2347852, "race": "Noviodurun, Nyon", "date": {"sam. 01.11.2014": {"year": 2014, "day": 1, "month": 11, "categories": {"Hom2": {"distance": 6, "rank": 20, "pace": 231000000000, "time": 1500.8}}, "weekday": "saturday", "livingplace": "Ch"}}, "location": "Nyon"}}, "birth": 1982}