{"name": "Locatelli Jacques", "sex": "M", "races": {"BCN Tour Le Landeron": {"latitude": 46.9668714, "longitude": 6.8589727, "race": "BCN Tour Le Landeron", "date": {"mer. 22.04.2009": {"year": 2009, "day": 22, "month": 4, "categories": {"HV2": {"distance": 11, "rank": 24, "pace": 343000000000, "time": 3811.8}}, "weekday": "wednesday", "livingplace": "St Aubin Sauges"}}, "location": "Colombier NE"}, "BCN Tour M\u00f4tier": {"latitude": 46.9262933, "longitude": 6.6324944, "race": "BCN Tour M\u00f4tier", "date": {"mer. 19.05.2010": {"year": 2010, "day": 19, "month": 5, "categories": {"HV2": {"distance": 10, "rank": 27, "pace": 339000000000, "time": 3365.9}}, "weekday": "wednesday", "livingplace": "St Aubin Sauges"}}, "location": "Couvet"}, "BCN Tour #1 Corcelles": {"latitude": 46.9668714, "longitude": 6.8589727, "race": "BCN Tour #1 Corcelles", "date": {"mer. 24.04.2013": {"year": 2013, "day": 24, "month": 4, "categories": {"HV2": {"distance": 10, "rank": 24, "pace": 345000000000, "time": 3387.8}}, "weekday": "wednesday", "livingplace": "Les Bayards"}}, "location": "Colombier NE"}, "BCN Tour Auvernier": {"latitude": 46.9668714, "longitude": 6.8589727, "race": "BCN Tour Auvernier", "date": {"mer. 20.04.2011": {"year": 2011, "day": 20, "month": 4, "categories": {"HV2": {"distance": 11, "rank": 28, "pace": 392000000000, "time": 4243.2}}, "weekday": "wednesday", "livingplace": "Les Bayards"}}, "location": "Colombier NE"}, "BCN Tour #4 Fleurier": {"latitude": 47.1034892, "longitude": 6.832783800000001, "race": "BCN Tour #4 Fleurier", "date": {"mer. 15.05.2013": {"year": 2013, "day": 15, "month": 5, "categories": {"HV2": {"distance": 9, "rank": 28, "pace": 360000000000, "time": 3117.6}}, "weekday": "wednesday", "livingplace": "Les Bayards"}}, "location": "La Chaux-de-Fonds"}, "BCN Tour #2 La Chaux-de-Fonds": {"latitude": 47.0624261, "longitude": 6.9175754, "race": "BCN Tour #2 La Chaux-de-Fonds", "date": {"mer. 01.05.2013": {"year": 2013, "day": 1, "month": 5, "categories": {"HV2": {"distance": 11, "rank": 29, "pace": 346000000000, "time": 3702.3}}, "weekday": "wednesday", "livingplace": "Les Bayards"}}, "location": "Ch\u00e9zard-St-Martin"}, "BCN Tour La Chaux-de-Fonds": {"latitude": 47.1034892, "longitude": 6.832783800000001, "race": "BCN Tour La Chaux-de-Fonds", "date": {"mer. 23.05.2012": {"year": 2012, "day": 23, "month": 5, "categories": {"HV2": {"distance": 11, "rank": 25, "pace": 366000000000, "time": 3953.8}}, "weekday": "wednesday", "livingplace": "Les Bayards"}, "mer. 11.05.2011": {"year": 2011, "day": 11, "month": 5, "categories": {"HV2": {"distance": 11, "rank": 25, "pace": 412000000000, "time": 4416.3}}, "weekday": "wednesday", "livingplace": "Les Bayards"}}, "location": "La Chaux-de-Fonds"}, "BCN Tour Les Ponts-de-Martel": {"latitude": 46.999113, "longitude": 6.733554799999999, "race": "BCN Tour Les Ponts-de-Martel", "date": {"mer. 09.05.2012": {"year": 2012, "day": 9, "month": 5, "categories": {"HV2": {"distance": 10, "rank": 26, "pace": 373000000000, "time": 3841.9}}, "weekday": "wednesday", "livingplace": "Les Bayards"}}, "location": "Les Ponts-de-Martel"}, "BCN Tour Neuch\u00e2tel": {"latitude": 46.9899874, "longitude": 6.9292732, "race": "BCN Tour Neuch\u00e2tel", "date": {"mer. 26.05.2010": {"year": 2010, "day": 26, "month": 5, "categories": {"HV2": {"distance": 10, "rank": 30, "pace": 445000000000, "time": 4317.0}}, "weekday": "wednesday", "livingplace": "St Aubin Sauges"}, "mer. 30.05.2012": {"year": 2012, "day": 30, "month": 5, "categories": {"HV2": {"distance": 11, "rank": 26, "pace": 392000000000, "time": 4395.2}}, "weekday": "wednesday", "livingplace": "Les Bayards"}, "mer. 25.05.2011": {"year": 2011, "day": 25, "month": 5, "categories": {"HV2": {"distance": 11, "rank": 26, "pace": 376000000000, "time": 4289.8}}, "weekday": "wednesday", "livingplace": "Les Bayards"}}, "location": "Neuch\u00e2tel"}, "BCN Tour #5 Colombier": {"latitude": 46.9262933, "longitude": 6.6324944, "race": "BCN Tour #5 Colombier", "date": {"mer. 22.05.2013": {"year": 2013, "day": 22, "month": 5, "categories": {"HV2": {"distance": 11, "rank": 28, "pace": 325000000000, "time": 3414.0}}, "weekday": "wednesday", "livingplace": "Les Bayards"}}, "location": "Couvet"}, "BCN Tour Ponts-de-Martel": {"latitude": 47.0624261, "longitude": 6.9175754, "race": "BCN Tour Ponts-de-Martel", "date": {"mer. 28.04.2010": {"year": 2010, "day": 28, "month": 4, "categories": {"HV2": {"distance": 11, "rank": 26, "pace": 357000000000, "time": 4004.3}}, "weekday": "wednesday", "livingplace": "St Aubin Sauges"}}, "location": "Ch\u00e9zard-St-Martin"}, "BCN Tour Cornaux": {"latitude": 46.9668714, "longitude": 6.8589727, "race": "BCN Tour Cornaux", "date": {"mer. 25.04.2012": {"year": 2012, "day": 25, "month": 4, "categories": {"HV2": {"distance": 11, "rank": 28, "pace": 397000000000, "time": 4369.5}}, "weekday": "wednesday", "livingplace": "Les Bayards"}}, "location": "Colombier NE"}, "BCN Tour #3 Dombresson": {"latitude": 46.999113, "longitude": 6.733554799999999, "race": "BCN Tour #3 Dombresson", "date": {"mer. 08.05.2013": {"year": 2013, "day": 8, "month": 5, "categories": {"HV2": {"distance": 10, "rank": 28, "pace": 334000000000, "time": 3307.2}}, "weekday": "wednesday", "livingplace": "Les Bayards"}}, "location": "Les Ponts-de-Martel"}, "Course de l'Escalade, Gen\u00e8ve": {"latitude": 46.2043907, "longitude": 6.1431577, "race": "Course de l'Escalade, Gen\u00e8ve", "date": {"sam. 01.12.2007": {"year": 2007, "day": 1, "month": 12, "categories": {"Hommes4": {"distance": 7, "rank": 244, "pace": 294000000000, "time": 2134.8}}, "weekday": "saturday", "livingplace": "St Aubin Sauges"}, "sam. 07.12.2002": {"year": 2002, "day": 7, "month": 12, "categories": {"Hommes4": {"distance": 7, "rank": 250, "pace": 287000000000, "time": 2084.0}}, "weekday": "saturday", "livingplace": "St Aubin Sauges"}}, "location": "Gen\u00e8ve"}, "BCN Tour Fontaine Cernier": {"latitude": 47.0624261, "longitude": 6.9175754, "race": "BCN Tour Fontaine Cernier", "date": {"mer. 27.04.2011": {"year": 2011, "day": 27, "month": 4, "categories": {"HV2": {"distance": 10, "rank": 29, "pace": 349000000000, "time": 3600.9}}, "weekday": "wednesday", "livingplace": "Les Bayards"}}, "location": "Ch\u00e9zard-St-Martin"}, "BCN Tour Le Locle": {"latitude": 46.999113, "longitude": 6.733554799999999, "race": "BCN Tour Le Locle", "date": {"mer. 05.05.2010": {"year": 2010, "day": 5, "month": 5, "categories": {"HV2": {"distance": 11, "rank": 28, "pace": 369000000000, "time": 4027.0}}, "weekday": "wednesday", "livingplace": "St Aubin Sauges"}}, "location": "Les Ponts-de-Martel"}, "BCN Tour Couvet": {"latitude": 47.0624261, "longitude": 6.9175754, "race": "BCN Tour Couvet", "date": {"mer. 02.05.2012": {"year": 2012, "day": 2, "month": 5, "categories": {"HV2": {"distance": 11, "rank": 29, "pace": 382000000000, "time": 4263.7}}, "weekday": "wednesday", "livingplace": "Les Bayards"}}, "location": "Ch\u00e9zard-St-Martin"}, "BCN Tour #6 Neuch\u00e2tel": {"latitude": 46.9899874, "longitude": 6.9292732, "race": "BCN Tour #6 Neuch\u00e2tel", "date": {"mer. 29.05.2013": {"year": 2013, "day": 29, "month": 5, "categories": {"HV2": {"distance": 11, "rank": 30, "pace": 383000000000, "time": 4214.9}}, "weekday": "wednesday", "livingplace": "Les Bayards"}}, "location": "Neuch\u00e2tel"}, "BCN Tour La Br\u00e9vine": {"latitude": 46.999113, "longitude": 6.733554799999999, "race": "BCN Tour La Br\u00e9vine", "date": {"mer. 04.05.2011": {"year": 2011, "day": 4, "month": 5, "categories": {"HV2": {"distance": 10, "rank": 28, "pace": 372000000000, "time": 3721.7}}, "weekday": "wednesday", "livingplace": "Les Bayards"}}, "location": "Les Ponts-de-Martel"}, "BCN Tour Les Ponts de Martel": {"latitude": 46.9262933, "longitude": 6.6324944, "race": "BCN Tour Les Ponts de Martel", "date": {"mer. 18.05.2011": {"year": 2011, "day": 18, "month": 5, "categories": {"HV2": {"distance": 13, "rank": 22, "pace": 369000000000, "time": 4729.7}}, "weekday": "wednesday", "livingplace": "Les Bayards"}}, "location": "Couvet"}, "BCN Tour La Chaux-de-fonds": {"latitude": 47.1034892, "longitude": 6.832783800000001, "race": "BCN Tour La Chaux-de-fonds", "date": {"mer. 12.05.2010": {"year": 2010, "day": 12, "month": 5, "categories": {"HV2": {"distance": 11, "rank": 30, "pace": 442000000000, "time": 4738.9}}, "weekday": "wednesday", "livingplace": "St Aubin Sauges"}}, "location": "La Chaux-de-Fonds"}, "BCN Tour Colombier": {"latitude": 46.9668714, "longitude": 6.8589727, "race": "BCN Tour Colombier", "date": {"mer. 16.05.2012": {"year": 2012, "day": 16, "month": 5, "categories": {"HV2": {"distance": 11, "rank": 30, "pace": 360000000000, "time": 3896.6}}, "weekday": "wednesday", "livingplace": "Les Bayards"}, "mer. 23.04.2008": {"year": 2008, "day": 23, "month": 4, "categories": {"HV2": {"distance": 10, "rank": 17, "pace": 342000000000, "time": 3497.2}}, "weekday": "wednesday", "livingplace": "St Aubin Sauges"}, "mer. 21.04.2010": {"year": 2010, "day": 21, "month": 4, "categories": {"HV2": {"distance": 10, "rank": 29, "pace": 372000000000, "time": 3727.2}}, "weekday": "wednesday", "livingplace": "St Aubin Sauges"}}, "location": "Colombier NE"}}, "birth": 1948}