{"name": "Lohri Marius", "sex": "M", "races": {"Tour du Pays de Vaud #2 - Genolier": {"latitude": 46.5955273, "longitude": 6.7702883, "race": "Tour du Pays de Vaud #2 - Genolier", "date": {"mer. 18.08.2010": {"year": 2010, "day": 18, "month": 8, "categories": {"HSen2": {"distance": 8, "rank": 108, "pace": 309000000000, "time": 2508.4}}, "weekday": "wednesday", "livingplace": "Begnins"}}, "location": "M\u00e9zi\u00e8res VD"}, "Tour du Pays de Vaud etape 2 - Genolier": {"latitude": 46.5955273, "longitude": 6.7702883, "race": "Tour du Pays de Vaud etape 2 - Genolier", "date": {"mer. 20.08.2008": {"year": 2008, "day": 20, "month": 8, "categories": {"HomSen2": {"distance": 8, "rank": 66, "pace": 280000000000, "time": 2330.9}}, "weekday": "wednesday", "livingplace": "Begnins"}}, "location": "M\u00e9zi\u00e8res VD"}, "Basler Stadtlauf": {"latitude": 47.5595986, "longitude": 7.5885761, "race": "Basler Stadtlauf", "date": {"sam. 25.11.2006": {"year": 2006, "day": 25, "month": 11, "categories": {"N": {"distance": 6, "rank": 191, "pace": 263000000000, "time": 1448.5}}, "weekday": "saturday", "livingplace": "Begnins"}, "sam. 26.11.2005": {"year": 2005, "day": 26, "month": 11, "categories": {"N": {"distance": 6, "rank": 290, "pace": 276000000000, "time": 1522.1}}, "weekday": "saturday", "livingplace": "Begnins"}}, "location": "Basel"}, "Les Traine-Savates, Cheseaux-sur-Lausanne": {"latitude": 46.585452, "longitude": 6.6047712, "race": "Les Traine-Savates, Cheseaux-sur-Lausanne", "date": {"sam. 12.04.2008": {"year": 2008, "day": 12, "month": 4, "categories": {"MV1": {"distance": 10, "rank": 112, "pace": 283000000000, "time": 2944.5}}, "weekday": "saturday", "livingplace": "Begnins"}}, "location": "Cheseaux-sur-Lausanne"}, "Aletsch-Halbmarathon, Bettmeralp": {"latitude": NaN, "longitude": NaN, "race": "Aletsch-Halbmarathon, Bettmeralp", "date": {"dim. 24.06.2007": {"year": 2007, "day": 24, "month": 6, "categories": {"M40": {"distance": 21, "rank": 149, "pace": 508000000000, "time": 10673.4}}, "weekday": "sunday", "livingplace": "Begnins"}, "dim. 29.06.2008": {"year": 2008, "day": 29, "month": 6, "categories": {"M40": {"distance": 21, "rank": 183, "pace": 530000000000, "time": 11136.6}}, "weekday": "sunday", "livingplace": "Begnins"}}, "location": "Bettmeralp"}, "20km de Lausanne": {"latitude": 46.5196535, "longitude": 6.6322734, "race": "20km de Lausanne", "date": {"sam. 24.04.2010": {"year": 2010, "day": 24, "month": 4, "categories": {"10-H45": {"distance": 10, "rank": 108, "pace": 302000000000, "time": 3024.4}}, "weekday": "saturday", "livingplace": "Mont sur Rolle"}, "sam. 28.04.2007": {"year": 2007, "day": 28, "month": 4, "categories": {"20H40": {"distance": 20, "rank": 226, "pace": 313000000000, "time": 6264.3}}, "weekday": "saturday", "livingplace": "Begnins"}, "sam. 22.04.2006": {"year": 2006, "day": 22, "month": 4, "categories": {"10/H40": {"distance": 10, "rank": 142, "pace": 314000000000, "time": 3144.9}}, "weekday": "saturday", "livingplace": "Begnins"}}, "location": "Lausanne"}, "Tour du Pays de Vaud etape 3 - Aubonne": {"latitude": 46.7829756, "longitude": 6.5728678, "race": "Tour du Pays de Vaud etape 3 - Aubonne", "date": {"mer. 27.08.2008": {"year": 2008, "day": 27, "month": 8, "categories": {"HomSen2": {"distance": 8, "rank": 62, "pace": 290000000000, "time": 2262.3}}, "weekday": "wednesday", "livingplace": "Begnins"}}, "location": "Champvent"}, "Gurtenclassic, Wabern": {"latitude": 46.92901639999999, "longitude": 7.448973199999999, "race": "Gurtenclassic, Wabern", "date": {"dim. 05.11.2006": {"year": 2006, "day": 5, "month": 11, "categories": {"M40": {"distance": 15, "rank": 126, "pace": 328000000000, "time": 4920.0}}, "weekday": "sunday", "livingplace": "Begnins"}}, "location": "Wabern"}, "Kerzerslauf": {"latitude": 46.97488999999999, "longitude": 7.1954365, "race": "Kerzerslauf", "date": {"sam. 17.03.2007": {"year": 2007, "day": 17, "month": 3, "categories": {"M40": {"distance": 15, "rank": 453, "pace": 305000000000, "time": 4581.3}}, "weekday": "saturday", "livingplace": "Begnins"}}, "location": "Kerzers"}, "Bieler Lauftage, Biel Bienne": {"latitude": 47.1367785, "longitude": 7.2467909, "race": "Bieler Lauftage, Biel Bienne", "date": {"ven. 17.06.2005": {"year": 2005, "day": 17, "month": 6, "categories": {"B/M40": {"distance": 15, "rank": 10, "pace": 378000000000, "time": 5488.8}}, "weekday": "friday", "livingplace": "Begnins"}}, "location": "Biel/Bienne"}, "Int Greifenseelauf, Uster": {"latitude": 47.3482747, "longitude": 8.717873899999999, "race": "Int Greifenseelauf, Uster", "date": {"sam. 19.09.2009": {"year": 2009, "day": 19, "month": 9, "categories": {"H-M40": {"distance": 21, "rank": 836, "pace": 332000000000, "time": 7011.1}}, "weekday": "saturday", "livingplace": "Mont sur Rolle"}}, "location": "Uster"}}, "birth": 1965}