{"name": "Loiseau Sabine", "sex": "F", "races": {"Tour du Chablais #1 Roche": {"latitude": 46.2957462, "longitude": 6.9916269, "race": "Tour du Chablais #1 Roche", "date": {"mer. 07.04.2010": {"year": 2010, "day": 7, "month": 4, "categories": {"F-F40": {"distance": 9, "rank": 3, "pace": 265000000000, "time": 2378.7}}, "weekday": "wednesday", "livingplace": "Saviese"}}, "location": "Ollon VD"}, "Tour du Chablais #2 Rennaz": {"latitude": 46.3835529, "longitude": 6.854975199999999, "race": "Tour du Chablais #2 Rennaz", "date": {"mer. 04.05.2011": {"year": 2011, "day": 4, "month": 5, "categories": {"F-F40": {"distance": 9, "rank": 8, "pace": 266000000000, "time": 2488.8}}, "weekday": "wednesday", "livingplace": "Saviese"}}, "location": "Bouveret"}, "Morat-Fribourg": {"latitude": 46.92922110000001, "longitude": 7.120184, "race": "Morat-Fribourg", "date": {"sam. 03.10.2009": {"year": 2009, "day": 3, "month": 10, "categories": {"C-W45": {"distance": 17, "rank": 9, "pace": 284000000000, "time": 4889.4}}, "weekday": "saturday", "livingplace": "Saviese"}, "sam. 01.10.2011": {"year": 2011, "day": 1, "month": 10, "categories": {"17-W45": {"distance": 17, "rank": 5, "pace": 270000000000, "time": 4645.2}}, "weekday": "saturday", "livingplace": "Saviese"}, "sam. 04.10.2014": {"year": 2014, "day": 4, "month": 10, "categories": {"17-W50": {"distance": 17, "rank": 3, "pace": 282000000000, "time": 4857.5}}, "weekday": "saturday", "livingplace": "Saviese"}, "sam. 06.10.2012": {"year": 2012, "day": 6, "month": 10, "categories": {"17-W45": {"distance": 17, "rank": 7, "pace": 281000000000, "time": 4907.7}}, "weekday": "saturday", "livingplace": "Saviese"}, "sam. 02.10.2010": {"year": 2010, "day": 2, "month": 10, "categories": {"17-W45": {"distance": 17, "rank": 9, "pace": 281000000000, "time": 4840.1}}, "weekday": "saturday", "livingplace": "Saviese"}}, "location": "Murten"}, "Tour du Chablais #3 Le Bouveret": {"latitude": 46.1782231, "longitude": 7.0223787, "race": "Tour du Chablais #3 Le Bouveret", "date": {"mer. 11.05.2011": {"year": 2011, "day": 11, "month": 5, "categories": {"F-F40": {"distance": 10, "rank": 7, "pace": 266000000000, "time": 2665.4}}, "weekday": "wednesday", "livingplace": "Saviese"}}, "location": "Evionnaz"}, "20km de Lausanne": {"latitude": 46.5196535, "longitude": 6.6322734, "race": "20km de Lausanne", "date": {"sam. 30.04.2011": {"year": 2011, "day": 30, "month": 4, "categories": {"10-F45": {"distance": 10, "rank": 2, "pace": 266000000000, "time": 2668.6}}, "weekday": "saturday", "livingplace": "Saviese"}, "sam. 24.04.2010": {"year": 2010, "day": 24, "month": 4, "categories": {"10-F45": {"distance": 10, "rank": 3, "pace": 280000000000, "time": 2804.8}}, "weekday": "saturday", "livingplace": "Saviese"}, "sam. 28.04.2012": {"year": 2012, "day": 28, "month": 4, "categories": {"10-F45": {"distance": 10, "rank": 2, "pace": 267000000000, "time": 2671.1}}, "weekday": "saturday", "livingplace": "Saviese"}, "sam. 25.04.2015": {"year": 2015, "day": 25, "month": 4, "categories": {"10-F50": {"distance": 10, "rank": 1, "pace": 264000000000, "time": 2649.4}}, "weekday": "saturday", "livingplace": "Saviese"}}, "location": "Lausanne"}, "Tour du Chablais #1 Lavey": {"latitude": 46.2957462, "longitude": 6.9916269, "race": "Tour du Chablais #1 Lavey", "date": {"mer. 27.04.2011": {"year": 2011, "day": 27, "month": 4, "categories": {"F-F40": {"distance": 9, "rank": 9, "pace": 272000000000, "time": 2449.1}}, "weekday": "wednesday", "livingplace": "Saviese"}}, "location": "Ollon VD"}, "Tour du Chablais #5 Leysin": {"latitude": 46.3603257, "longitude": 6.931504599999999, "race": "Tour du Chablais #5 Leysin", "date": {"mer. 05.05.2010": {"year": 2010, "day": 5, "month": 5, "categories": {"F-F40": {"distance": 8, "rank": 4, "pace": 291000000000, "time": 2461.3}}, "weekday": "wednesday", "livingplace": "Saviese"}}, "location": "Roche VD"}, "Tour du Chablais #5 Bex": {"latitude": 46.3603257, "longitude": 6.931504599999999, "race": "Tour du Chablais #5 Bex", "date": {"mer. 09.05.2012": {"year": 2012, "day": 9, "month": 5, "categories": {"F-F40": {"distance": 9, "rank": 3, "pace": 254000000000, "time": 2252.3}}, "weekday": "wednesday", "livingplace": "Saviese"}}, "location": "Roche VD"}, "Tour du Chablais #4 Champ\u00e9ry": {"latitude": NaN, "longitude": NaN, "race": "Tour du Chablais #4 Champ\u00e9ry", "date": {"mer. 02.05.2012": {"year": 2012, "day": 2, "month": 5, "categories": {"F-F40": {"distance": 8, "rank": 3, "pace": 263000000000, "time": 2189.7}}, "weekday": "wednesday", "livingplace": "Saviese"}}, "location": "Les Mosses"}, "Tour du Chablais #5 Les Mosses": {"latitude": 46.3603257, "longitude": 6.931504599999999, "race": "Tour du Chablais #5 Les Mosses", "date": {"mer. 25.05.2011": {"year": 2011, "day": 25, "month": 5, "categories": {"F-F40": {"distance": 8, "rank": 4, "pace": 281000000000, "time": 2253.3}}, "weekday": "wednesday", "livingplace": "Saviese"}}, "location": "Roche VD"}, "Tour du Chablais #6 Aigle": {"latitude": 46.3190253, "longitude": 6.970566, "race": "Tour du Chablais #6 Aigle", "date": {"mer. 01.06.2011": {"year": 2011, "day": 1, "month": 6, "categories": {"F-F40": {"distance": 10, "rank": 6, "pace": 257000000000, "time": 2625.3}}, "weekday": "wednesday", "livingplace": "Saviese"}}, "location": "Aigle"}, "Tour du Chablais #3 Bex": {"latitude": 46.1782231, "longitude": 7.0223787, "race": "Tour du Chablais #3 Bex", "date": {"mer. 21.04.2010": {"year": 2010, "day": 21, "month": 4, "categories": {"F-F40": {"distance": 10, "rank": 4, "pace": 273000000000, "time": 2738.8}}, "weekday": "wednesday", "livingplace": "Saviese"}}, "location": "Evionnaz"}, "Kerzerslauf": {"latitude": 46.97488999999999, "longitude": 7.1954365, "race": "Kerzerslauf", "date": {"sam. 17.03.2012": {"year": 2012, "day": 17, "month": 3, "categories": {"15-F45": {"distance": 15, "rank": 24, "pace": 277000000000, "time": 4165.3}}, "weekday": "saturday", "livingplace": "Saviese"}}, "location": "Kerzers"}, "Tour du Chablais #3 Collombey-Muraz": {"latitude": 46.1782231, "longitude": 7.0223787, "race": "Tour du Chablais #3 Collombey-Muraz", "date": {"mer. 25.04.2012": {"year": 2012, "day": 25, "month": 4, "categories": {"F-F40": {"distance": 9, "rank": 3, "pace": 259000000000, "time": 2333.4}}, "weekday": "wednesday", "livingplace": "Saviese"}}, "location": "Evionnaz"}, "Tour du Chablais #1 Martigny": {"latitude": 46.2957462, "longitude": 6.9916269, "race": "Tour du Chablais #1 Martigny", "date": {"mer. 23.04.2014": {"year": 2014, "day": 23, "month": 4, "categories": {"F-F50": {"distance": 9, "rank": 1, "pace": 257000000000, "time": 2189.2}}, "weekday": "wednesday", "livingplace": "Saviese"}}, "location": "Ollon VD"}, "Tour du Chablais #4 Morgins": {"latitude": NaN, "longitude": NaN, "race": "Tour du Chablais #4 Morgins", "date": {"mer. 18.05.2011": {"year": 2011, "day": 18, "month": 5, "categories": {"F-F40": {"distance": 8, "rank": 7, "pace": 280000000000, "time": 2343.4}}, "weekday": "wednesday", "livingplace": "Saviese"}}, "location": "Les Mosses"}, "Tour du Chablais #6 Mouthey": {"latitude": 46.3190253, "longitude": 6.970566, "race": "Tour du Chablais #6 Mouthey", "date": {"mer. 12.05.2010": {"year": 2010, "day": 12, "month": 5, "categories": {"F-F40": {"distance": 9, "rank": 7, "pace": 262000000000, "time": 2414.2}}, "weekday": "wednesday", "livingplace": "Saviese"}}, "location": "Aigle"}, "Tour du Chablais #1 Montreux": {"latitude": 46.2957462, "longitude": 6.9916269, "race": "Tour du Chablais #1 Montreux", "date": {"mer. 11.04.2012": {"year": 2012, "day": 11, "month": 4, "categories": {"F-F40": {"distance": 8, "rank": 3, "pace": 274000000000, "time": 2088.5}}, "weekday": "wednesday", "livingplace": "Saviese"}}, "location": "Ollon VD"}, "Tour du Chablais #2 St-Gingolph": {"latitude": 46.3835529, "longitude": 6.854975199999999, "race": "Tour du Chablais #2 St-Gingolph", "date": {"mer. 14.04.2010": {"year": 2010, "day": 14, "month": 4, "categories": {"F-F40": {"distance": 8, "rank": 2, "pace": 286000000000, "time": 2388.8}}, "weekday": "wednesday", "livingplace": "Saviese"}}, "location": "Bouveret"}, "Tour du Chablais #4 Yvorne": {"latitude": NaN, "longitude": NaN, "race": "Tour du Chablais #4 Yvorne", "date": {"mer. 28.04.2010": {"year": 2010, "day": 28, "month": 4, "categories": {"F-F40": {"distance": 8, "rank": 1, "pace": 273000000000, "time": 2268.6}}, "weekday": "wednesday", "livingplace": "Saviese"}}, "location": "Les Mosses"}, "Tour du Chablais #2 Bex": {"latitude": 46.3835529, "longitude": 6.854975199999999, "race": "Tour du Chablais #2 Bex", "date": {"mer. 18.04.2012": {"year": 2012, "day": 18, "month": 4, "categories": {"F-F40": {"distance": 8, "rank": 5, "pace": 264000000000, "time": 2118.0}}, "weekday": "wednesday", "livingplace": "Saviese"}}, "location": "Bouveret"}, "Tour du Chablais #6 Montreux": {"latitude": 46.3190253, "longitude": 6.970566, "race": "Tour du Chablais #6 Montreux", "date": {"mer. 16.05.2012": {"year": 2012, "day": 16, "month": 5, "categories": {"F-F40": {"distance": 9, "rank": 6, "pace": 259000000000, "time": 2398.2}}, "weekday": "wednesday", "livingplace": "Saviese"}}, "location": "Aigle"}}, "birth": 1964}