{"name": "Longo Patrizio", "sex": "M", "races": {"Tour du Pays de Vaud etape 5 - La Sarraz": {"latitude": 46.5993131, "longitude": 6.539251200000001, "race": "Tour du Pays de Vaud etape 5 - La Sarraz", "date": {"mer. 10.09.2008": {"year": 2008, "day": 10, "month": 9, "categories": {"HomSen1": {"distance": 9, "rank": 68, "pace": 271000000000, "time": 2336.1}}, "weekday": "wednesday", "livingplace": "Lausanne"}}, "location": "Penthaz"}, "Tour du Pays de Vaud #2 - Genolier": {"latitude": 46.5955273, "longitude": 6.7702883, "race": "Tour du Pays de Vaud #2 - Genolier", "date": {"mer. 18.08.2010": {"year": 2010, "day": 18, "month": 8, "categories": {"HSen1": {"distance": 8, "rank": 81, "pace": 295000000000, "time": 2390.0}}, "weekday": "wednesday", "livingplace": "Lausanne"}}, "location": "M\u00e9zi\u00e8res VD"}, "Tour du Pays de Vaud etape 2 - Genolier": {"latitude": 46.5955273, "longitude": 6.7702883, "race": "Tour du Pays de Vaud etape 2 - Genolier", "date": {"mer. 20.08.2008": {"year": 2008, "day": 20, "month": 8, "categories": {"HomSen1": {"distance": 8, "rank": 69, "pace": 290000000000, "time": 2411.0}}, "weekday": "wednesday", "livingplace": "Lausanne"}, "mer. 19.08.2009": {"year": 2009, "day": 19, "month": 8, "categories": {"HSen1": {"distance": 8, "rank": 76, "pace": 297000000000, "time": 2408.1}}, "weekday": "wednesday", "livingplace": "Lausanne"}}, "location": "M\u00e9zi\u00e8res VD"}, "Tour du Pays de Vaud etape 1 - Le Mont sur Lausanne": {"latitude": 46.7784736, "longitude": 6.641183, "race": "Tour du Pays de Vaud etape 1 - Le Mont sur Lausanne", "date": {"mer. 13.08.2008": {"year": 2008, "day": 13, "month": 8, "categories": {"HomSen1": {"distance": 8, "rank": 63, "pace": 282000000000, "time": 2372.0}}, "weekday": "wednesday", "livingplace": "Lausanne"}}, "location": "Yverdon-les-Bains"}, "20km de Lausanne": {"latitude": 46.5196535, "longitude": 6.6322734, "race": "20km de Lausanne", "date": {"sam. 28.04.2007": {"year": 2007, "day": 28, "month": 4, "categories": {"10H30": {"distance": 10, "rank": 247, "pace": 293000000000, "time": 2934.3}}, "weekday": "saturday", "livingplace": "Lausanne"}}, "location": "Lausanne"}, "Tour du Pays de Vaud #5 - La Sarraz": {"latitude": 46.5993131, "longitude": 6.539251200000001, "race": "Tour du Pays de Vaud #5 - La Sarraz", "date": {"mer. 08.09.2010": {"year": 2010, "day": 8, "month": 9, "categories": {"HSen1": {"distance": 9, "rank": 100, "pace": 304000000000, "time": 2771.6}}, "weekday": "wednesday", "livingplace": "Lausanne"}}, "location": "Penthaz"}, "Les Traine-Savates, Cheseaux-sur-Lausanne": {"latitude": 46.585452, "longitude": 6.6047712, "race": "Les Traine-Savates, Cheseaux-sur-Lausanne", "date": {"sam. 12.04.2008": {"year": 2008, "day": 12, "month": 4, "categories": {"MS": {"distance": 10, "rank": 88, "pace": 267000000000, "time": 2780.8}}, "weekday": "saturday", "livingplace": "Lausanne"}}, "location": "Cheseaux-sur-Lausanne"}, "Tour du pays de Vaud #1 \u2013 St  Prex": {"latitude": 46.7784736, "longitude": 6.641183, "race": "Tour du pays de Vaud #1 \u2013 St  Prex", "date": {"mer. 11.08.2010": {"year": 2010, "day": 11, "month": 8, "categories": {"HSen1": {"distance": 8, "rank": 100, "pace": 322000000000, "time": 2709.5}}, "weekday": "wednesday", "livingplace": "Lausanne"}}, "location": "Yverdon-les-Bains"}}, "birth": 1972}