{"name": "Longueira Juan", "sex": "M", "races": {"BCN Tour Couvet": {"latitude": 47.0624261, "longitude": 6.9175754, "race": "BCN Tour Couvet", "date": {"mer. 02.05.2012": {"year": 2012, "day": 2, "month": 5, "categories": {"HS2": {"distance": 11, "rank": 219, "pace": 339000000000, "time": 3786.1}}, "weekday": "wednesday", "livingplace": "La Chaux de Fonds"}}, "location": "Ch\u00e9zard-St-Martin"}, "SwissCityMarathon - Lucerne, Luzern": {"latitude": 47.05016819999999, "longitude": 8.3093072, "race": "SwissCityMarathon - Lucerne, Luzern", "date": {"dim. 25.10.2015": {"year": 2015, "day": 25, "month": 10, "categories": {"H-M50": {"distance": 21, "rank": 77, "pace": 275000000000, "time": 5808.9}}, "weekday": "sunday", "livingplace": "La Chaux de Fonds"}}, "location": "Luzern"}, "BCN Tour Cornaux": {"latitude": 46.9668714, "longitude": 6.8589727, "race": "BCN Tour Cornaux", "date": {"mer. 25.04.2012": {"year": 2012, "day": 25, "month": 4, "categories": {"HS2": {"distance": 11, "rank": 266, "pace": 396000000000, "time": 4356.4}}, "weekday": "wednesday", "livingplace": "La Chaux de Fonds"}}, "location": "Colombier NE"}, "BCN Tour Les Ponts-de-Martel": {"latitude": 46.999113, "longitude": 6.733554799999999, "race": "BCN Tour Les Ponts-de-Martel", "date": {"mer. 09.05.2012": {"year": 2012, "day": 9, "month": 5, "categories": {"HS2": {"distance": 10, "rank": 245, "pace": 343000000000, "time": 3540.7}}, "weekday": "wednesday", "livingplace": "La Chaux de Fonds"}}, "location": "Les Ponts-de-Martel"}, "BCN Tour Colombier": {"latitude": 47.1034892, "longitude": 6.832783800000001, "race": "BCN Tour Colombier", "date": {"mer. 16.05.2012": {"year": 2012, "day": 16, "month": 5, "categories": {"HS2": {"distance": 11, "rank": 248, "pace": 328000000000, "time": 3552.3}}, "weekday": "wednesday", "livingplace": "La Chaux de Fonds"}}, "location": "La Chaux-de-Fonds"}}, "birth": 1963}