{"name": "Loser Margrit", "sex": "F", "races": {"Schweizer Frauenlauf Bern": {"latitude": 46.9479739, "longitude": 7.4474468, "race": "Schweizer Frauenlauf Bern", "date": {"dim. 13.06.2010": {"year": 2010, "day": 13, "month": 6, "categories": {"10-W50": {"distance": 10, "rank": 125, "pace": 335000000000, "time": 3354.3}}, "weekday": "sunday", "livingplace": "Wolfertswil"}}, "location": "Bern"}, "Lucerne Marathon, Luzern": {"latitude": 47.05016819999999, "longitude": 8.3093072, "race": "Lucerne Marathon, Luzern", "date": {"dim. 31.10.2010": {"year": 2010, "day": 31, "month": 10, "categories": {"H-F50": {"distance": 21, "rank": 48, "pace": 330000000000, "time": 6963.9}}, "weekday": "sunday", "livingplace": "Wolfertswil"}}, "location": "Luzern"}, "Z\u00fcrich Marathon, Teamrun und Cityrun": {"latitude": 47.3768866, "longitude": 8.541694, "race": "Z\u00fcrich Marathon, Teamrun und Cityrun", "date": {"dim. 09.04.2006": {"year": 2006, "day": 9, "month": 4, "categories": {"W45": {"distance": 42, "rank": 75, "pace": 348000000000, "time": 14687.6}}, "weekday": "sunday", "livingplace": "Wolfertswil"}}, "location": "Z\u00fcrich"}, "Winterthur Marathon": {"latitude": 39.8088766, "longitude": -75.6037351, "race": "Winterthur Marathon", "date": {"dim. 18.05.2008": {"year": 2008, "day": 18, "month": 5, "categories": {"HF45": {"distance": 21, "rank": 20, "pace": 326000000000, "time": 6893.2}}, "weekday": "sunday", "livingplace": "Wolfertswil"}}, "location": "Winterthur"}, "Int Greifenseelauf, Uster": {"latitude": 47.3482747, "longitude": 8.717873899999999, "race": "Int Greifenseelauf, Uster", "date": {"sam. 17.09.2005": {"year": 2005, "day": 17, "month": 9, "categories": {"H/W45": {"distance": 21, "rank": 90, "pace": 316000000000, "time": 6683.8}}, "weekday": "saturday", "livingplace": "Wolfertswil"}, "sam. 18.09.2004": {"year": 2004, "day": 18, "month": 9, "categories": {"H/W45": {"distance": 21, "rank": 117, "pace": 339000000000, "time": 7172.4}}, "weekday": "saturday", "livingplace": "Wolfertswil"}}, "location": "Uster"}}, "birth": 1959}