{"name": "Louis Am\u00e9lie", "sex": "F", "races": {"Morat-Fribourg": {"latitude": 46.92922110000001, "longitude": 7.120184, "race": "Morat-Fribourg", "date": {"sam. 04.10.2014": {"year": 2014, "day": 4, "month": 10, "categories": {"17-W20": {"distance": 17, "rank": 335, "pace": 356000000000, "time": 6113.9}}, "weekday": "saturday", "livingplace": "La Neuveville"}}, "location": "Murten"}, "BCN Tour La Br\u00e9vine": {"latitude": 46.999113, "longitude": 6.733554799999999, "race": "BCN Tour La Br\u00e9vine", "date": {"mer. 04.05.2011": {"year": 2011, "day": 4, "month": 5, "categories": {"DJ": {"distance": 10, "rank": 11, "pace": 332000000000, "time": 3322.7}}, "weekday": "wednesday", "livingplace": "La Neuveville"}}, "location": "Les Ponts-de-Martel"}, "Corrida Bulloise, Bulle": {"latitude": 46.6154512, "longitude": 7.057726799999999, "race": "Corrida Bulloise, Bulle", "date": {"sam. 17.11.2012": {"year": 2012, "day": 17, "month": 11, "categories": {"DJ-U20": {"distance": 3, "rank": 7, "pace": 282000000000, "time": 888.9}}, "weekday": "saturday", "livingplace": "La Neuveville"}, "sam. 19.11.2011": {"year": 2011, "day": 19, "month": 11, "categories": {"DJ": {"distance": 3, "rank": 9, "pace": 289000000000, "time": 911.9}}, "weekday": "saturday", "livingplace": "La Neuveville"}}, "location": "Bulle"}, "BCN Tour Couvet": {"latitude": 47.0624261, "longitude": 6.9175754, "race": "BCN Tour Couvet", "date": {"mer. 02.05.2012": {"year": 2012, "day": 2, "month": 5, "categories": {"DJ": {"distance": 11, "rank": 12, "pace": 346000000000, "time": 3866.5}}, "weekday": "wednesday", "livingplace": "La Neuveville"}}, "location": "Ch\u00e9zard-St-Martin"}, "BCN Tour Auvernier": {"latitude": 46.9668714, "longitude": 6.8589727, "race": "BCN Tour Auvernier", "date": {"mer. 20.04.2011": {"year": 2011, "day": 20, "month": 4, "categories": {"DJ": {"distance": 11, "rank": 8, "pace": 347000000000, "time": 3749.7}}, "weekday": "wednesday", "livingplace": "La Neuveville"}}, "location": "Colombier NE"}, "BCN Tour Fontaine Cernier": {"latitude": 47.0624261, "longitude": 6.9175754, "race": "BCN Tour Fontaine Cernier", "date": {"mer. 27.04.2011": {"year": 2011, "day": 27, "month": 4, "categories": {"DJ": {"distance": 10, "rank": 14, "pace": 322000000000, "time": 3324.2}}, "weekday": "wednesday", "livingplace": "La Neuveville"}}, "location": "Ch\u00e9zard-St-Martin"}, "BCN Tour Cornaux": {"latitude": 46.9668714, "longitude": 6.8589727, "race": "BCN Tour Cornaux", "date": {"mer. 25.04.2012": {"year": 2012, "day": 25, "month": 4, "categories": {"DJ": {"distance": 11, "rank": 11, "pace": 385000000000, "time": 4244.3}}, "weekday": "wednesday", "livingplace": "La Neuveville"}}, "location": "Colombier NE"}, "BCN Tour La Chaux-de-Fonds": {"latitude": 47.1034892, "longitude": 6.832783800000001, "race": "BCN Tour La Chaux-de-Fonds", "date": {"mer. 23.05.2012": {"year": 2012, "day": 23, "month": 5, "categories": {"DJ": {"distance": 11, "rank": 13, "pace": 341000000000, "time": 3688.4}}, "weekday": "wednesday", "livingplace": "La Neuveville"}, "mer. 11.05.2011": {"year": 2011, "day": 11, "month": 5, "categories": {"DJ": {"distance": 11, "rank": 10, "pace": 376000000000, "time": 4025.3}}, "weekday": "wednesday", "livingplace": "La Neuveville"}}, "location": "La Chaux-de-Fonds"}, "BCN Tour Les Ponts-de-Martel": {"latitude": 46.999113, "longitude": 6.733554799999999, "race": "BCN Tour Les Ponts-de-Martel", "date": {"mer. 09.05.2012": {"year": 2012, "day": 9, "month": 5, "categories": {"DJ": {"distance": 10, "rank": 15, "pace": 332000000000, "time": 3425.4}}, "weekday": "wednesday", "livingplace": "La Neuveville"}}, "location": "Les Ponts-de-Martel"}, "BCN Tour Neuch\u00e2tel": {"latitude": 46.9899874, "longitude": 6.9292732, "race": "BCN Tour Neuch\u00e2tel", "date": {"mer. 26.05.2010": {"year": 2010, "day": 26, "month": 5, "categories": {"DJ": {"distance": 10, "rank": 46, "pace": 478000000000, "time": 4637.1}}, "weekday": "wednesday", "livingplace": "La Neuveville"}, "mer. 30.05.2012": {"year": 2012, "day": 30, "month": 5, "categories": {"DJ": {"distance": 11, "rank": 15, "pace": 363000000000, "time": 4072.2}}, "weekday": "wednesday", "livingplace": "La Neuveville"}, "mer. 25.05.2011": {"year": 2011, "day": 25, "month": 5, "categories": {"DJ": {"distance": 11, "rank": 10, "pace": 342000000000, "time": 3908.5}}, "weekday": "wednesday", "livingplace": "La Neuveville"}}, "location": "Neuch\u00e2tel"}, "BCN Tour Les Ponts de Martel": {"latitude": 46.9262933, "longitude": 6.6324944, "race": "BCN Tour Les Ponts de Martel", "date": {"mer. 18.05.2011": {"year": 2011, "day": 18, "month": 5, "categories": {"DJ": {"distance": 13, "rank": 16, "pace": 347000000000, "time": 4447.9}}, "weekday": "wednesday", "livingplace": "La Neuveville"}}, "location": "Couvet"}, "BCN Tour La Chaux-de-fonds": {"latitude": 47.1034892, "longitude": 6.832783800000001, "race": "BCN Tour La Chaux-de-fonds", "date": {"mer. 12.05.2010": {"year": 2010, "day": 12, "month": 5, "categories": {"DJ": {"distance": 11, "rank": 23, "pace": 445000000000, "time": 4765.5}}, "weekday": "wednesday", "livingplace": "La Neuveville"}}, "location": "La Chaux-de-Fonds"}, "BCN Tour Colombier": {"latitude": 46.9668714, "longitude": 6.8589727, "race": "BCN Tour Colombier", "date": {"mer. 16.05.2012": {"year": 2012, "day": 16, "month": 5, "categories": {"DJ": {"distance": 11, "rank": 13, "pace": 328000000000, "time": 3544.5}}, "weekday": "wednesday", "livingplace": "La Neuveville"}, "mer. 21.04.2010": {"year": 2010, "day": 21, "month": 4, "categories": {"DJ": {"distance": 10, "rank": 18, "pace": 387000000000, "time": 3876.5}}, "weekday": "wednesday", "livingplace": "La Neuveville"}}, "location": "Colombier NE"}}, "birth": 1993}