{"name": "Loye Dominique", "sex": "M", "races": {"Morat-Fribourg": {"latitude": 46.92922110000001, "longitude": 7.120184, "race": "Morat-Fribourg", "date": {"sam. 04.10.2008": {"year": 2008, "day": 4, "month": 10, "categories": {"C-M45": {"distance": 17, "rank": 76, "pace": 258000000000, "time": 4434.5}}, "weekday": "saturday", "livingplace": "Gland"}, "sam. 03.10.2015": {"year": 2015, "day": 3, "month": 10, "categories": {"17-M50": {"distance": 17, "rank": 96, "pace": 288000000000, "time": 4950.9}}, "weekday": "saturday", "livingplace": "Gland"}}, "location": "Murten"}, "ASICS Bremgarter Reusslauf": {"latitude": 47.34917739999999, "longitude": 8.3397905, "race": "ASICS Bremgarter Reusslauf", "date": {"sam. 17.02.2007": {"year": 2007, "day": 17, "month": 2, "categories": {"M40": {"distance": 11, "rank": 213, "pace": 251000000000, "time": 2635.9}}, "weekday": "saturday", "livingplace": "Gland"}}, "location": "Bremgarten AG"}, "Corrida Bulloise, Bulle": {"latitude": 46.6154512, "longitude": 7.057726799999999, "race": "Corrida Bulloise, Bulle", "date": {"sam. 15.11.2008": {"year": 2008, "day": 15, "month": 11, "categories": {"M40": {"distance": 8, "rank": 66, "pace": 245000000000, "time": 1966.0}}, "weekday": "saturday", "livingplace": "Gland"}}, "location": "Bulle"}, "Montreux - Les Rochers de Naye": {"latitude": 46.4312213, "longitude": 6.9106799, "race": "Montreux - Les Rochers de Naye", "date": {"dim. 25.06.2006": {"year": 2006, "day": 25, "month": 6, "categories": {"V\u00e9t1": {"distance": 19, "rank": 41, "pace": 449000000000, "time": 8441.7}}, "weekday": "sunday", "livingplace": "Gland"}}, "location": "Montreux"}, "Course de l'Escalade, Gen\u00e8ve": {"latitude": 46.2043907, "longitude": 6.1431577, "race": "Course de l'Escalade, Gen\u00e8ve", "date": {"sam. 01.12.2007": {"year": 2007, "day": 1, "month": 12, "categories": {"Hommes3": {"distance": 7, "rank": 91, "pace": 247000000000, "time": 1794.0}}, "weekday": "saturday", "livingplace": "Comite Inter De La Croix"}, "sam. 07.12.2002": {"year": 2002, "day": 7, "month": 12, "categories": {"Hommes3": {"distance": 7, "rank": 97, "pace": 241000000000, "time": 1749.8}}, "weekday": "saturday", "livingplace": "Gland"}}, "location": "Gen\u00e8ve"}, "Kerzerslauf": {"latitude": 46.97488999999999, "longitude": 7.1954365, "race": "Kerzerslauf", "date": {"sam. 20.03.2010": {"year": 2010, "day": 20, "month": 3, "categories": {"15-M45": {"distance": 15, "rank": 120, "pace": 265000000000, "time": 3989.5}}, "weekday": "saturday", "livingplace": "Gland"}, "sam. 19.03.2011": {"year": 2011, "day": 19, "month": 3, "categories": {"15-M45": {"distance": 15, "rank": 136, "pace": 264000000000, "time": 3963.0}}, "weekday": "saturday", "livingplace": "Gland"}, "sam. 17.03.2007": {"year": 2007, "day": 17, "month": 3, "categories": {"M40": {"distance": 15, "rank": 125, "pace": 251000000000, "time": 3768.4}}, "weekday": "saturday", "livingplace": "Gland"}}, "location": "Kerzers"}}, "birth": 1963}