{"name": "Luder Hans-Bigi", "sex": "M", "races": {"SwissCityMarathon - Lucerne, Luzern": {"latitude": 47.05016819999999, "longitude": 8.3093072, "race": "SwissCityMarathon - Lucerne, Luzern", "date": {"dim. 27.10.2013": {"year": 2013, "day": 27, "month": 10, "categories": {"H-M50": {"distance": 21, "rank": 215, "pace": 299000000000, "time": 6312.2}}, "weekday": "sunday", "livingplace": "Koppigen"}}, "location": "Luzern"}, "Herbstlauf Burgdorf": {"latitude": 45.277123, "longitude": -115.9129022, "race": "Herbstlauf Burgdorf", "date": {"sam. 22.10.2011": {"year": 2011, "day": 22, "month": 10, "categories": {"M50": {"distance": 15, "rank": 20, "pace": 284000000000, "time": 4325.1}}, "weekday": "saturday", "livingplace": "Koppigen"}}, "location": "Burgdorf"}, "Steinh\u00f6lzlilauf, Liebefeld": {"latitude": 46.933331, "longitude": 7.416668, "race": "Steinh\u00f6lzlilauf, Liebefeld", "date": {"dim. 04.12.2011": {"year": 2011, "day": 4, "month": 12, "categories": {"L-S3M": {"distance": 11, "rank": 13, "pace": 280000000000, "time": 2940.1}}, "weekday": "sunday", "livingplace": "Koppigen"}}, "location": "Liebefeld"}, "Hallwilerseelauf, Beinwil am See": {"latitude": NaN, "longitude": NaN, "race": "Hallwilerseelauf, Beinwil am See", "date": {"sam. 12.10.2013": {"year": 2013, "day": 12, "month": 10, "categories": {"21-M50": {"distance": 21, "rank": 304, "pace": 317000000000, "time": 6692.3}}, "weekday": "saturday", "livingplace": "Koppigen"}}, "location": "Beinwil am See"}, "Z\u00fcrcher Silvesterlauf, Z\u00fcrich": {"latitude": 47.3768866, "longitude": 8.541694, "race": "Z\u00fcrcher Silvesterlauf, Z\u00fcrich", "date": {"dim. 14.12.2014": {"year": 2014, "day": 14, "month": 12, "categories": {"10-M50": {"distance": 10, "rank": 87, "pace": 259000000000, "time": 2594.3}}, "weekday": "sunday", "livingplace": "Koppigen"}}, "location": "Z\u00fcrich"}, "Emmenlauf Utzenstorf": {"latitude": 47.12816670000001, "longitude": 7.5588034, "race": "Emmenlauf Utzenstorf", "date": {"mer. 21.08.2013": {"year": 2013, "day": 21, "month": 8, "categories": {"Herren4": {"distance": 11, "rank": 24, "pace": 264000000000, "time": 2774.9}}, "weekday": "wednesday", "livingplace": "Koppigen"}, "mer. 20.08.2014": {"year": 2014, "day": 20, "month": 8, "categories": {"Herren4": {"distance": 11, "rank": 26, "pace": 259000000000, "time": 2729.4}}, "weekday": "wednesday", "livingplace": "Koppigen"}}, "location": "Utzenstorf"}, "Bl\u00fcemlisalp-Lauf, Reichenbach": {"latitude": 46.6254387, "longitude": 7.6940529, "race": "Bl\u00fcemlisalp-Lauf, Reichenbach", "date": {"dim. 25.05.2014": {"year": 2014, "day": 25, "month": 5, "categories": {"M50": {"distance": 16, "rank": 38, "pace": 368000000000, "time": 5932.1}}, "weekday": "sunday", "livingplace": "Ingold Ronners"}}, "location": "Reichenbach im Kandertal"}, "Derendinger Abendlauf, Derendingen": {"latitude": 47.1952433, "longitude": 7.585593099999999, "race": "Derendinger Abendlauf, Derendingen", "date": {"ven. 26.06.2009": {"year": 2009, "day": 26, "month": 6, "categories": {"VLM": {"distance": 5, "rank": 5, "pace": 240000000000, "time": 1300.5}}, "weekday": "friday", "livingplace": "Koppigen"}}, "location": "Derendingen"}, "Lausanne Marathon": {"latitude": 46.5196535, "longitude": 6.6322734, "race": "Lausanne Marathon", "date": {"dim. 30.10.2011": {"year": 2011, "day": 30, "month": 10, "categories": {"21-H4": {"distance": 21, "rank": 90, "pace": 286000000000, "time": 6036.6}}, "weekday": "sunday", "livingplace": "Koppigen"}}, "location": "Lausanne"}, "Zermatt Marathon, Zermatt": {"latitude": NaN, "longitude": NaN, "race": "Zermatt Marathon, Zermatt", "date": {"sam. 04.07.2015": {"year": 2015, "day": 4, "month": 7, "categories": {"M-STM\u00e4": {"distance": 42, "rank": 4, "pace": 341000000000, "time": 14430.3}}, "weekday": "saturday", "livingplace": "Koppigen"}}, "location": "Zermatt"}, "Jungfrau-Marathon, Interlaken": {"latitude": NaN, "longitude": NaN, "race": "Jungfrau-Marathon, Interlaken", "date": {"sam. 08.09.2012": {"year": 2012, "day": 8, "month": 9, "categories": {"SA-M50": {"distance": 42, "rank": 393, "pace": 453000000000, "time": 19152.0}}, "weekday": "saturday", "livingplace": "Koppigen"}, "sam. 01.09.2001": {"year": 2001, "day": 1, "month": 9, "categories": {"M40": {"distance": 42, "rank": 176, "pace": 374000000000, "time": 15809.7}}, "weekday": "saturday", "livingplace": "Koppigen"}}, "location": "Interlaken"}, "Langenthaler Stadtlauf": {"latitude": 47.2120786, "longitude": 7.790562299999999, "race": "Langenthaler Stadtlauf", "date": {"sam. 22.11.2014": {"year": 2014, "day": 22, "month": 11, "categories": {"M50": {"distance": 8, "rank": 25, "pace": 252000000000, "time": 1892.4}}, "weekday": "saturday", "livingplace": "Koppigen"}}, "location": "Langenthal"}, "Wiedlisbacher L\u00e4ufe, Wiedlisbach": {"latitude": 47.2512653, "longitude": 7.6453444, "race": "Wiedlisbacher L\u00e4ufe, Wiedlisbach", "date": {"dim. 29.04.2007": {"year": 2007, "day": 29, "month": 4, "categories": {"M-6.5": {"distance": 7, "rank": 5, "pace": 249000000000, "time": 1622.1}}, "weekday": "sunday", "livingplace": "Koppigen"}}, "location": "Wiedlisbach"}, "Kerzerslauf": {"latitude": 46.97488999999999, "longitude": 7.1954365, "race": "Kerzerslauf", "date": {"sam. 21.03.2015": {"year": 2015, "day": 21, "month": 3, "categories": {"15-M55": {"distance": 15, "rank": 61, "pace": 277000000000, "time": 4162.1}}, "weekday": "saturday", "livingplace": "Koppigen"}}, "location": "Kerzers"}}, "birth": 1960}