{"name": "Luethi Oscar", "sex": "M", "races": {"Lucerne Marathon, Luzern": {"latitude": 47.05016819999999, "longitude": 8.3093072, "race": "Lucerne Marathon, Luzern", "date": {"dim. 28.10.2012": {"year": 2012, "day": 28, "month": 10, "categories": {"S-Mann": {"distance": 8, "rank": 219, "pace": 368000000000, "time": 2966.0}}, "weekday": "sunday", "livingplace": "Basel"}}, "location": "Luzern"}, "Morat-Fribourg": {"latitude": 46.92922110000001, "longitude": 7.120184, "race": "Morat-Fribourg", "date": {"sam. 06.10.2007": {"year": 2007, "day": 6, "month": 10, "categories": {"C/M40": {"distance": 17, "rank": 498, "pace": 314000000000, "time": 5404.1}}, "weekday": "saturday", "livingplace": "Basel"}}, "location": "Murten"}, "Basler Stadtlauf": {"latitude": 47.5595986, "longitude": 7.5885761, "race": "Basler Stadtlauf", "date": {"sam. 30.11.2002": {"year": 2002, "day": 30, "month": 11, "categories": {"M": {"distance": 6, "rank": 291, "pace": 275000000000, "time": 1517.0}}, "weekday": "saturday", "livingplace": "Basel"}}, "location": "Basel"}, "Lausanne Marathon": {"latitude": 46.5196535, "longitude": 6.6322734, "race": "Lausanne Marathon", "date": {"dim. 31.10.2010": {"year": 2010, "day": 31, "month": 10, "categories": {"21-H3": {"distance": 21, "rank": 535, "pace": 314000000000, "time": 6629.9}}, "weekday": "sunday", "livingplace": "Basel"}}, "location": "Lausanne"}, "Z\u00fcrich Marathon, Teamrun und Cityrun": {"latitude": 47.3768866, "longitude": 8.541694, "race": "Z\u00fcrich Marathon, Teamrun und Cityrun", "date": {"dim. 26.04.2009": {"year": 2009, "day": 26, "month": 4, "categories": {"M40": {"distance": 42, "rank": 739, "pace": 381000000000, "time": 16093.2}}, "weekday": "sunday", "livingplace": "Basel"}, "dim. 20.04.2008": {"year": 2008, "day": 20, "month": 4, "categories": {"M40": {"distance": 42, "rank": 698, "pace": 348000000000, "time": 14703.5}}, "weekday": "sunday", "livingplace": "Basel"}}, "location": "Z\u00fcrich"}, "Dreil\u00e4nder-Lauf, Basel": {"latitude": 47.5595986, "longitude": 7.5885761, "race": "Dreil\u00e4nder-Lauf, Basel", "date": {"dim. 20.05.2007": {"year": 2007, "day": 20, "month": 5, "categories": {"21M40": {"distance": 21, "rank": 101, "pace": 327000000000, "time": 6905.6}}, "weekday": "sunday", "livingplace": "Basel"}}, "location": "Basel"}, "Kerzerslauf": {"latitude": 46.97488999999999, "longitude": 7.1954365, "race": "Kerzerslauf", "date": {"sam. 21.03.2009": {"year": 2009, "day": 21, "month": 3, "categories": {"15-M40": {"distance": 15, "rank": 435, "pace": 310000000000, "time": 4659.0}}, "weekday": "saturday", "livingplace": "Zurich"}, "sam. 15.03.2008": {"year": 2008, "day": 15, "month": 3, "categories": {"15/M40": {"distance": 15, "rank": 439, "pace": 306000000000, "time": 4592.2}}, "weekday": "saturday", "livingplace": "Basel"}, "sam. 17.03.2007": {"year": 2007, "day": 17, "month": 3, "categories": {"M40": {"distance": 15, "rank": 441, "pace": 303000000000, "time": 4548.8}}, "weekday": "saturday", "livingplace": "Basel"}}, "location": "Kerzers"}, "Int Greifenseelauf, Uster": {"latitude": 47.3482747, "longitude": 8.717873899999999, "race": "Int Greifenseelauf, Uster", "date": {"sam. 22.09.2007": {"year": 2007, "day": 22, "month": 9, "categories": {"H/M40": {"distance": 21, "rank": 738, "pace": 328000000000, "time": 6934.1}}, "weekday": "saturday", "livingplace": "Basel"}, "sam. 18.09.2004": {"year": 2004, "day": 18, "month": 9, "categories": {"H/M35": {"distance": 21, "rank": 943, "pace": 341000000000, "time": 7214.1}}, "weekday": "saturday", "livingplace": "Basel"}}, "location": "Uster"}}, "birth": 1966}