{"name": "Lustenberger Deborah", "sex": "F", "races": {"Basler Stadtlauf": {"latitude": 47.5595986, "longitude": 7.5885761, "race": "Basler Stadtlauf", "date": {"sam. 30.11.2013": {"year": 2013, "day": 30, "month": 11, "categories": {"F20": {"distance": 6, "rank": 60, "pace": 265000000000, "time": 1458.2}}, "weekday": "saturday", "livingplace": "Madiswil"}}, "location": "Basel"}, "Schweizer Frauenlauf Bern": {"latitude": 46.9479739, "longitude": 7.4474468, "race": "Schweizer Frauenlauf Bern", "date": {"dim. 09.06.2013": {"year": 2013, "day": 9, "month": 6, "categories": {"5-W20": {"distance": 5, "rank": 51, "pace": 278000000000, "time": 1394.8}}, "weekday": "sunday", "livingplace": "Madiswil"}}, "location": "Bern"}, "Langenthaler Stadtlauf": {"latitude": 47.2120786, "longitude": 7.790562299999999, "race": "Langenthaler Stadtlauf", "date": {"sam. 23.11.2013": {"year": 2013, "day": 23, "month": 11, "categories": {"JogF": {"distance": 5, "rank": 7, "pace": 253000000000, "time": 1269.3}}, "weekday": "saturday", "livingplace": "Madiswil"}}, "location": "Langenthal"}, "Ch\u00e4sitzerlouf, Kehrsatz": {"latitude": NaN, "longitude": NaN, "race": "Ch\u00e4sitzerlouf, Kehrsatz", "date": {"sam. 26.04.2014": {"year": 2014, "day": 26, "month": 4, "categories": {"4-Frau": {"distance": 4, "rank": 17, "pace": 295000000000, "time": 1242.2}}, "weekday": "saturday", "livingplace": "Madiswil"}}, "location": "Kehrsatz"}, "Kerzerslauf": {"latitude": 46.97488999999999, "longitude": 7.1954365, "race": "Kerzerslauf", "date": {"sam. 15.03.2014": {"year": 2014, "day": 15, "month": 3, "categories": {"5-F20": {"distance": 5, "rank": 31, "pace": 276000000000, "time": 1380.1}}, "weekday": "saturday", "livingplace": "Madiswil"}}, "location": "Kerzers"}, "Emmenlauf Utzenstorf": {"latitude": 47.12816670000001, "longitude": 7.5588034, "race": "Emmenlauf Utzenstorf", "date": {"mer. 21.08.2013": {"year": 2013, "day": 21, "month": 8, "categories": {"Volk_D": {"distance": 5, "rank": 4, "pace": 278000000000, "time": 1508.3}}, "weekday": "wednesday", "livingplace": "Madiswil"}}, "location": "Utzenstorf"}}, "birth": 1993}