{"name": "L\u00fcthi Lara", "sex": "F", "races": {"Derendinger Abendlauf, Derendingen": {"latitude": 47.1952433, "longitude": 7.585593099999999, "race": "Derendinger Abendlauf, Derendingen", "date": {"ven. 24.06.2011": {"year": 2011, "day": 24, "month": 6, "categories": {"VLF": {"distance": 6, "rank": 3, "pace": 260000000000, "time": 1487.0}}, "weekday": "friday", "livingplace": "Solothurn"}}, "location": "Derendingen"}, "Morat-Fribourg": {"latitude": 46.92922110000001, "longitude": 7.120184, "race": "Morat-Fribourg", "date": {"sam. 02.10.2010": {"year": 2010, "day": 2, "month": 10, "categories": {"17-JunF": {"distance": 17, "rank": 5, "pace": 318000000000, "time": 5470.8}}, "weekday": "saturday", "livingplace": "Solothurn"}, "sam. 01.10.2011": {"year": 2011, "day": 1, "month": 10, "categories": {"8-JoggF": {"distance": 9, "rank": 22, "pace": 305000000000, "time": 2624.6}}, "weekday": "saturday", "livingplace": "Solothurn"}}, "location": "Murten"}, "Basler Stadtlauf": {"latitude": 47.5595986, "longitude": 7.5885761, "race": "Basler Stadtlauf", "date": {"sam. 24.11.2012": {"year": 2012, "day": 24, "month": 11, "categories": {"F20": {"distance": 6, "rank": 49, "pace": 264000000000, "time": 1452.3}}, "weekday": "saturday", "livingplace": "Solothurn"}}, "location": "Basel"}, "Kerzerslauf": {"latitude": 46.97488999999999, "longitude": 7.1954365, "race": "Kerzerslauf", "date": {"sam. 21.03.2009": {"year": 2009, "day": 21, "month": 3, "categories": {"5-F05": {"distance": 5, "rank": 32, "pace": 274000000000, "time": 1370.4}}, "weekday": "saturday", "livingplace": "Solothurn"}, "sam. 18.03.2006": {"year": 2006, "day": 18, "month": 3, "categories": {"F-KU": {"distance": 5, "rank": 58, "pace": 315000000000, "time": 1578.0}}, "weekday": "saturday", "livingplace": "Solothurn"}, "sam. 19.03.2005": {"year": 2005, "day": 19, "month": 3, "categories": {"F-KU": {"distance": 5, "rank": 37, "pace": 297000000000, "time": 1489.6}}, "weekday": "saturday", "livingplace": "Solothurn"}, "sam. 17.03.2007": {"year": 2007, "day": 17, "month": 3, "categories": {"FKU": {"distance": 5, "rank": 35, "pace": 284000000000, "time": 1423.7}}, "weekday": "saturday", "livingplace": "Solothurn"}}, "location": "Kerzers"}, "Emmenlauf Utzenstorf": {"latitude": 47.12816670000001, "longitude": 7.5588034, "race": "Emmenlauf Utzenstorf", "date": {"mer. 15.08.2012": {"year": 2012, "day": 15, "month": 8, "categories": {"Damen1": {"distance": 11, "rank": 16, "pace": 338000000000, "time": 3551.4}}, "weekday": "wednesday", "livingplace": "Solothurn"}}, "location": "Utzenstorf"}, "Z\u00fcrcher Silvesterlauf, Z\u00fcrich": {"latitude": 47.3768866, "longitude": 8.541694, "race": "Z\u00fcrcher Silvesterlauf, Z\u00fcrich", "date": {"dim. 12.12.2010": {"year": 2010, "day": 12, "month": 12, "categories": {"8-DaHK": {"distance": 9, "rank": 25, "pace": 266000000000, "time": 2289.7}}, "weekday": "sunday", "livingplace": "Solothurn"}}, "location": "Z\u00fcrich"}}, "birth": 1991}