{"name": "Luthi Alexandre", "sex": "M", "races": {"BCN Tour #3 Dombresson": {"latitude": 46.999113, "longitude": 6.733554799999999, "race": "BCN Tour #3 Dombresson", "date": {"mer. 08.05.2013": {"year": 2013, "day": 8, "month": 5, "categories": {"HS2": {"distance": 10, "rank": 279, "pace": 327000000000, "time": 3239.7}}, "weekday": "wednesday", "livingplace": "Fontainemelon"}}, "location": "Les Ponts-de-Martel"}, "BCN Tour #2 La Chaux-de-Fonds": {"latitude": 47.0624261, "longitude": 6.9175754, "race": "BCN Tour #2 La Chaux-de-Fonds", "date": {"mer. 01.05.2013": {"year": 2013, "day": 1, "month": 5, "categories": {"HS2": {"distance": 11, "rank": 299, "pace": 342000000000, "time": 3659.6}}, "weekday": "wednesday", "livingplace": "Fontainemelon"}}, "location": "Ch\u00e9zard-St-Martin"}, "BCN Tour Les Ponts-de-Martel": {"latitude": 46.999113, "longitude": 6.733554799999999, "race": "BCN Tour Les Ponts-de-Martel", "date": {"mer. 09.05.2012": {"year": 2012, "day": 9, "month": 5, "categories": {"HS2": {"distance": 10, "rank": 306, "pace": 385000000000, "time": 3970.8}}, "weekday": "wednesday", "livingplace": "Fontainemelon"}}, "location": "Les Ponts-de-Martel"}, "La Trotteuse-Tissot, La Chaux-de-Fonds": {"latitude": 47.1034892, "longitude": 6.832783800000001, "race": "La Trotteuse-Tissot, La Chaux-de-Fonds", "date": {"sam. 14.12.2013": {"year": 2013, "day": 14, "month": 12, "categories": {"GC-H40": {"distance": 8, "rank": 64, "pace": 279000000000, "time": 2232.2}}, "weekday": "saturday", "livingplace": "Fontainemelon"}, "sam. 08.12.2012": {"year": 2012, "day": 8, "month": 12, "categories": {"GC-H40": {"distance": 8, "rank": 118, "pace": 376000000000, "time": 3012.0}}, "weekday": "saturday", "livingplace": "Jura"}}, "location": "La Chaux-de-Fonds"}, "BCN Tour #5 Colombier": {"latitude": 46.9262933, "longitude": 6.6324944, "race": "BCN Tour #5 Colombier", "date": {"mer. 22.05.2013": {"year": 2013, "day": 22, "month": 5, "categories": {"HS2": {"distance": 11, "rank": 206, "pace": 291000000000, "time": 3056.9}}, "weekday": "wednesday", "livingplace": "Fontainemelon"}}, "location": "Couvet"}, "BCN Tour #1 Corcelles": {"latitude": 46.9668714, "longitude": 6.8589727, "race": "BCN Tour #1 Corcelles", "date": {"mer. 24.04.2013": {"year": 2013, "day": 24, "month": 4, "categories": {"HS2": {"distance": 10, "rank": 290, "pace": 351000000000, "time": 3444.3}}, "weekday": "wednesday", "livingplace": "Fontainemelon"}}, "location": "Colombier NE"}, "BCN Tour #4 Fleurier": {"latitude": 47.1034892, "longitude": 6.832783800000001, "race": "BCN Tour #4 Fleurier", "date": {"mer. 15.05.2013": {"year": 2013, "day": 15, "month": 5, "categories": {"HS2": {"distance": 9, "rank": 179, "pace": 318000000000, "time": 2754.0}}, "weekday": "wednesday", "livingplace": "Fontainemelon"}}, "location": "La Chaux-de-Fonds"}, "BCN Tour #6 Neuch\u00e2tel": {"latitude": 46.9899874, "longitude": 6.9292732, "race": "BCN Tour #6 Neuch\u00e2tel", "date": {"mer. 29.05.2013": {"year": 2013, "day": 29, "month": 5, "categories": {"HS2": {"distance": 11, "rank": 214, "pace": 334000000000, "time": 3677.5}}, "weekday": "wednesday", "livingplace": "Fontainemelon"}}, "location": "Neuch\u00e2tel"}}, "birth": 1967}