{"name": "L\u00fcthi Katrin", "sex": "F", "races": {"Gippinger Stauseelauf": {"latitude": 47.5810513, "longitude": 8.2152586, "race": "Gippinger Stauseelauf", "date": {"jeu. 31.12.2015": {"year": 2015, "day": 31, "month": 12, "categories": {"7-JoggF": {"distance": 8, "rank": 87, "pace": 397000000000, "time": 2993.0}}, "weekday": "thursday", "livingplace": "Bleienbach"}}, "location": "Leuggern"}, "Luzerner Stadtlauf": {"latitude": 47.05016819999999, "longitude": 8.3093072, "race": "Luzerner Stadtlauf", "date": {"sam. 25.04.2015": {"year": 2015, "day": 25, "month": 4, "categories": {"K-26": {"distance": 4, "rank": 82, "pace": 403000000000, "time": 1561.7}}, "weekday": "saturday", "livingplace": "Bleienbach"}}, "location": "Luzern"}, "Basler Stadtlauf": {"latitude": 47.5595986, "longitude": 7.5885761, "race": "Basler Stadtlauf", "date": {"sam. 29.11.2014": {"year": 2014, "day": 29, "month": 11, "categories": {"F35": {"distance": 6, "rank": 251, "pace": 406000000000, "time": 2233.5}}, "weekday": "saturday", "livingplace": "Bleienbach"}}, "location": "Basel"}, "Schweizer Frauenlauf Bern": {"latitude": 46.9479739, "longitude": 7.4474468, "race": "Schweizer Frauenlauf Bern", "date": {"dim. 15.06.2014": {"year": 2014, "day": 15, "month": 6, "categories": {"5-W35": {"distance": 5, "rank": 402, "pace": 398000000000, "time": 1993.0}}, "weekday": "sunday", "livingplace": "Bleienbach"}, "dim. 14.06.2015": {"year": 2015, "day": 14, "month": 6, "categories": {"5-W35": {"distance": 5, "rank": 456, "pace": 420000000000, "time": 2100.8}}, "weekday": "sunday", "livingplace": "Bleienbach"}}, "location": "Bern"}, "Badener Limmat-Lauf, Baden": {"latitude": 48.5699281, "longitude": 8.5303972, "race": "Badener Limmat-Lauf, Baden", "date": {"sam. 28.03.2015": {"year": 2015, "day": 28, "month": 3, "categories": {"F30": {"distance": 13, "rank": 74, "pace": 501000000000, "time": 6611.0}}, "weekday": "saturday", "livingplace": "Bleienbach"}}, "location": "Baden"}, "Hallwilerseelauf, Beinwil am See": {"latitude": NaN, "longitude": NaN, "race": "Hallwilerseelauf, Beinwil am See", "date": {"sam. 11.10.2014": {"year": 2014, "day": 11, "month": 10, "categories": {"10-Frau": {"distance": 10, "rank": 742, "pace": 442000000000, "time": 4425.1}}, "weekday": "saturday", "livingplace": "Bleienbach"}, "sam. 10.10.2015": {"year": 2015, "day": 10, "month": 10, "categories": {"10-Frau": {"distance": 10, "rank": 677, "pace": 441000000000, "time": 4417.1}}, "weekday": "saturday", "livingplace": "Bleienbach"}}, "location": "Beinwil am See"}, "Emmenlauf Utzenstorf": {"latitude": 47.12816670000001, "longitude": 7.5588034, "race": "Emmenlauf Utzenstorf", "date": {"mer. 20.08.2014": {"year": 2014, "day": 20, "month": 8, "categories": {"Damen2": {"distance": 11, "rank": 42, "pace": 460000000000, "time": 4835.8}}, "weekday": "wednesday", "livingplace": "Bleienbach"}}, "location": "Utzenstorf"}}, "birth": 1979}