{"name": "Macellaro Luigi", "sex": "M", "races": {"Course de l'Escalade, Gen\u00e8ve": {"latitude": 46.2043907, "longitude": 6.1431577, "race": "Course de l'Escalade, Gen\u00e8ve", "date": {"sam. 06.12.2003": {"year": 2003, "day": 6, "month": 12, "categories": {"Hommes3": {"distance": 7, "rank": 461, "pace": 264000000000, "time": 1920.9}}, "weekday": "saturday", "livingplace": "Hauterive"}}, "location": "Gen\u00e8ve"}, "Grand Prix Craft, Neuch\u00e2tel": {"latitude": 46.9899874, "longitude": 6.9292732, "race": "Grand Prix Craft, Neuch\u00e2tel", "date": {"dim. 17.12.2006": {"year": 2006, "day": 17, "month": 12, "categories": {"HS2": {"distance": 7, "rank": 27, "pace": 247000000000, "time": 1734.8}}, "weekday": "sunday", "livingplace": "Neuchatel"}}, "location": "Neuch\u00e2tel"}, "Morat-Fribourg": {"latitude": 46.92922110000001, "longitude": 7.120184, "race": "Morat-Fribourg", "date": {"dim. 05.10.2003": {"year": 2003, "day": 5, "month": 10, "categories": {"M20": {"distance": 17, "rank": 846, "pace": 280000000000, "time": 4819.6}}, "weekday": "sunday", "livingplace": "Hauterive"}, "dim. 07.10.2001": {"year": 2001, "day": 7, "month": 10, "categories": {"M20": {"distance": 17, "rank": 1092, "pace": 291000000000, "time": 5000.4}}, "weekday": "sunday", "livingplace": "Hauterive"}, "dim. 06.10.2002": {"year": 2002, "day": 6, "month": 10, "categories": {"M20": {"distance": 17, "rank": 1018, "pace": 288000000000, "time": 4956.2}}, "weekday": "sunday", "livingplace": "Hauterive"}}, "location": "Murten"}, "BCN Tour Colombier": {"latitude": 46.9668714, "longitude": 6.8589727, "race": "BCN Tour Colombier", "date": {"mer. 23.04.2008": {"year": 2008, "day": 23, "month": 4, "categories": {"HS2": {"distance": 10, "rank": 95, "pace": 300000000000, "time": 3068.5}}, "weekday": "wednesday", "livingplace": "Aesa Sa"}}, "location": "Colombier NE"}, "Z\u00fcrich Marathon, Teamrun und Cityrun": {"latitude": 47.3768866, "longitude": 8.541694, "race": "Z\u00fcrich Marathon, Teamrun und Cityrun", "date": {"dim. 03.04.2005": {"year": 2005, "day": 3, "month": 4, "categories": {"M40": {"distance": 42, "rank": 549, "pace": 316000000000, "time": 13342.5}}, "weekday": "sunday", "livingplace": "Hauterive"}}, "location": "Z\u00fcrich"}}, "birth": 1964}