{"name": "M\u00e4der Marlise", "sex": "F", "races": {"Pfingstlauf Wohlen AG": {"latitude": 47.3493653, "longitude": 8.2768762, "race": "Pfingstlauf Wohlen AG", "date": {"sam. 30.05.2009": {"year": 2009, "day": 30, "month": 5, "categories": {"8-F30": {"distance": 8, "rank": 24, "pace": 354000000000, "time": 2904.2}}, "weekday": "saturday", "livingplace": "Widen"}, "sam. 10.05.2008": {"year": 2008, "day": 10, "month": 5, "categories": {"F30": {"distance": 8, "rank": 23, "pace": 369000000000, "time": 3029.3}}, "weekday": "saturday", "livingplace": "Rotkreuz"}, "sam. 11.06.2011": {"year": 2011, "day": 11, "month": 6, "categories": {"8-10-F40": {"distance": 10, "rank": 33, "pace": 339000000000, "time": 3393.4}}, "weekday": "saturday", "livingplace": "Widen"}}, "location": "Wohlen AG"}, "Schweizer Frauenlauf Bern": {"latitude": 46.9479739, "longitude": 7.4474468, "race": "Schweizer Frauenlauf Bern", "date": {"dim. 10.06.2012": {"year": 2012, "day": 10, "month": 6, "categories": {"10-W40": {"distance": 10, "rank": 313, "pace": 333000000000, "time": 3339.3}}, "weekday": "sunday", "livingplace": "Hermetschwil Staffeln"}}, "location": "Bern"}, "SwissCityMarathon - Lucerne, Luzern": {"latitude": 47.05016819999999, "longitude": 8.3093072, "race": "SwissCityMarathon - Lucerne, Luzern", "date": {"dim. 25.10.2015": {"year": 2015, "day": 25, "month": 10, "categories": {"H-W40": {"distance": 21, "rank": 135, "pace": 333000000000, "time": 7044.4}}, "weekday": "sunday", "livingplace": "Hermetschwil Staffeln"}}, "location": "Luzern"}, "ASICS Bremgarter Reusslauf": {"latitude": 47.34917739999999, "longitude": 8.3397905, "race": "ASICS Bremgarter Reusslauf", "date": {"sam. 25.02.2012": {"year": 2012, "day": 25, "month": 2, "categories": {"F40": {"distance": 11, "rank": 159, "pace": 327000000000, "time": 3605.4}}, "weekday": "saturday", "livingplace": "Hermetschwil Staffeln"}}, "location": "Bremgarten AG"}, "Int Greifenseelauf, Uster": {"latitude": 47.3482747, "longitude": 8.717873899999999, "race": "Int Greifenseelauf, Uster", "date": {"sam. 22.09.2007": {"year": 2007, "day": 22, "month": 9, "categories": {"K/W35": {"distance": 21, "rank": 288, "pace": 367000000000, "time": 7766.2}}, "weekday": "saturday", "livingplace": "Rotkreuz"}}, "location": "Uster"}}, "birth": 1971}