{"name": "Maier Andrea", "sex": "F", "races": {"Morat-Fribourg": {"latitude": 46.92922110000001, "longitude": 7.120184, "race": "Morat-Fribourg", "date": {"sam. 03.10.2009": {"year": 2009, "day": 3, "month": 10, "categories": {"C-W35": {"distance": 17, "rank": 27, "pace": 296000000000, "time": 5098.2}}, "weekday": "saturday", "livingplace": "Grandvaux"}}, "location": "Murten"}, "Tour du Pays de Vaud etape 2 - Genolier": {"latitude": 46.5955273, "longitude": 6.7702883, "race": "Tour du Pays de Vaud etape 2 - Genolier", "date": {"mer. 20.08.2008": {"year": 2008, "day": 20, "month": 8, "categories": {"DamSen1": {"distance": 8, "rank": 16, "pace": 301000000000, "time": 2502.1}}, "weekday": "wednesday", "livingplace": "Grandvaux"}}, "location": "M\u00e9zi\u00e8res VD"}, "Tour du Pays de Vaud etape 3 - Aubonne": {"latitude": 46.7829756, "longitude": 6.5728678, "race": "Tour du Pays de Vaud etape 3 - Aubonne", "date": {"mer. 27.08.2008": {"year": 2008, "day": 27, "month": 8, "categories": {"DamSen1": {"distance": 8, "rank": 14, "pace": 321000000000, "time": 2508.8}}, "weekday": "wednesday", "livingplace": "Grandvaux"}}, "location": "Champvent"}, "Tour du Pays de Vaud etape 1 - Le Mont sur Lausanne": {"latitude": 46.7784736, "longitude": 6.641183, "race": "Tour du Pays de Vaud etape 1 - Le Mont sur Lausanne", "date": {"mer. 13.08.2008": {"year": 2008, "day": 13, "month": 8, "categories": {"DamSen1": {"distance": 8, "rank": 15, "pace": 294000000000, "time": 2475.5}}, "weekday": "wednesday", "livingplace": "Chenaux"}}, "location": "Yverdon-les-Bains"}, "20km de Lausanne": {"latitude": 46.5196535, "longitude": 6.6322734, "race": "20km de Lausanne", "date": {"sam. 24.04.2010": {"year": 2010, "day": 24, "month": 4, "categories": {"10-F30": {"distance": 10, "rank": 23, "pace": 290000000000, "time": 2901.5}}, "weekday": "saturday", "livingplace": "Grandvaux"}}, "location": "Lausanne"}, "Schweizer Frauenlauf Bern": {"latitude": 46.9479739, "longitude": 7.4474468, "race": "Schweizer Frauenlauf Bern", "date": {"dim. 13.06.2010": {"year": 2010, "day": 13, "month": 6, "categories": {"10-W35": {"distance": 10, "rank": 24, "pace": 279000000000, "time": 2791.0}}, "weekday": "sunday", "livingplace": "Grandvaux"}}, "location": "Bern"}}, "birth": 1974}