{"name": "Maillard S\u00e9bastien", "sex": "M", "races": {"Tour du Chablais #1 Roche": {"latitude": 46.2957462, "longitude": 6.9916269, "race": "Tour du Chablais #1 Roche", "date": {"mer. 07.04.2010": {"year": 2010, "day": 7, "month": 4, "categories": {"M-M20": {"distance": 9, "rank": 76, "pace": 249000000000, "time": 2233.8}}, "weekday": "wednesday", "livingplace": "Ollon"}}, "location": "Ollon VD"}, "Tour du Chablais #2 Rennaz": {"latitude": 46.3835529, "longitude": 6.854975199999999, "race": "Tour du Chablais #2 Rennaz", "date": {"mer. 04.05.2011": {"year": 2011, "day": 4, "month": 5, "categories": {"M-M20": {"distance": 9, "rank": 84, "pace": 255000000000, "time": 2386.0}}, "weekday": "wednesday", "livingplace": "Ollon"}}, "location": "Bouveret"}, "Tour du Chablais #3 Bex": {"latitude": 46.1782231, "longitude": 7.0223787, "race": "Tour du Chablais #3 Bex", "date": {"mer. 21.04.2010": {"year": 2010, "day": 21, "month": 4, "categories": {"M-M20": {"distance": 10, "rank": 73, "pace": 263000000000, "time": 2635.0}}, "weekday": "wednesday", "livingplace": "Ollon"}}, "location": "Evionnaz"}, "Morat-Fribourg": {"latitude": 46.92922110000001, "longitude": 7.120184, "race": "Morat-Fribourg", "date": {"sam. 03.10.2009": {"year": 2009, "day": 3, "month": 10, "categories": {"C-M20": {"distance": 17, "rank": 648, "pace": 286000000000, "time": 4915.2}}, "weekday": "saturday", "livingplace": "Ollon"}, "sam. 04.10.2008": {"year": 2008, "day": 4, "month": 10, "categories": {"C-M20": {"distance": 17, "rank": 1134, "pace": 308000000000, "time": 5296.5}}, "weekday": "saturday", "livingplace": "Ollon"}, "sam. 02.10.2010": {"year": 2010, "day": 2, "month": 10, "categories": {"17-M20": {"distance": 17, "rank": 550, "pace": 284000000000, "time": 4882.9}}, "weekday": "saturday", "livingplace": "Ollon"}}, "location": "Murten"}, "Tour du Chablais #3 Le Bouveret": {"latitude": 46.1782231, "longitude": 7.0223787, "race": "Tour du Chablais #3 Le Bouveret", "date": {"mer. 11.05.2011": {"year": 2011, "day": 11, "month": 5, "categories": {"M-M20": {"distance": 10, "rank": 111, "pace": 262000000000, "time": 2623.4}}, "weekday": "wednesday", "livingplace": "Ollon"}}, "location": "Evionnaz"}, "Tour du Chablais #4 Morgins": {"latitude": NaN, "longitude": NaN, "race": "Tour du Chablais #4 Morgins", "date": {"mer. 18.05.2011": {"year": 2011, "day": 18, "month": 5, "categories": {"M-M20": {"distance": 8, "rank": 97, "pace": 278000000000, "time": 2324.2}}, "weekday": "wednesday", "livingplace": "Ollon"}}, "location": "Les Mosses"}, "20km de Lausanne": {"latitude": 46.5196535, "longitude": 6.6322734, "race": "20km de Lausanne", "date": {"sam. 30.04.2011": {"year": 2011, "day": 30, "month": 4, "categories": {"20-H30": {"distance": 20, "rank": 406, "pace": 289000000000, "time": 5797.7}}, "weekday": "saturday", "livingplace": "Se bouger pour sa sante 1"}, "sam. 24.04.2010": {"year": 2010, "day": 24, "month": 4, "categories": {"20-H30": {"distance": 20, "rank": 209, "pace": 278000000000, "time": 5579.6}}, "weekday": "saturday", "livingplace": "Ollon"}}, "location": "Lausanne"}, "Tour du Chablais #1 Lavey": {"latitude": 46.2957462, "longitude": 6.9916269, "race": "Tour du Chablais #1 Lavey", "date": {"mer. 27.04.2011": {"year": 2011, "day": 27, "month": 4, "categories": {"M-M20": {"distance": 9, "rank": 75, "pace": 252000000000, "time": 2276.6}}, "weekday": "wednesday", "livingplace": "Ollon"}}, "location": "Ollon VD"}, "Tour du Chablais #4 Champ\u00e9ry": {"latitude": NaN, "longitude": NaN, "race": "Tour du Chablais #4 Champ\u00e9ry", "date": {"mer. 02.05.2012": {"year": 2012, "day": 2, "month": 5, "categories": {"M-M20": {"distance": 8, "rank": 172, "pace": 312000000000, "time": 2591.2}}, "weekday": "wednesday", "livingplace": "Ollon"}}, "location": "Les Mosses"}, "Tour du Chablais #5 Leysin": {"latitude": 46.3603257, "longitude": 6.931504599999999, "race": "Tour du Chablais #5 Leysin", "date": {"mer. 05.05.2010": {"year": 2010, "day": 5, "month": 5, "categories": {"M-M20": {"distance": 8, "rank": 62, "pace": 279000000000, "time": 2362.0}}, "weekday": "wednesday", "livingplace": "Ollon"}}, "location": "Roche VD"}, "Tour du Chablais #5 Bex": {"latitude": 46.3603257, "longitude": 6.931504599999999, "race": "Tour du Chablais #5 Bex", "date": {"mer. 09.05.2012": {"year": 2012, "day": 9, "month": 5, "categories": {"M-M20": {"distance": 9, "rank": 142, "pace": 300000000000, "time": 2663.4}}, "weekday": "wednesday", "livingplace": "Ollon"}}, "location": "Roche VD"}, "Tour du Chablais #6 Mouthey": {"latitude": 46.3190253, "longitude": 6.970566, "race": "Tour du Chablais #6 Mouthey", "date": {"mer. 12.05.2010": {"year": 2010, "day": 12, "month": 5, "categories": {"M-M20": {"distance": 9, "rank": 87, "pace": 253000000000, "time": 2329.0}}, "weekday": "wednesday", "livingplace": "Ollon"}}, "location": "Aigle"}, "Tour du Chablais #1 Montreux": {"latitude": 46.2957462, "longitude": 6.9916269, "race": "Tour du Chablais #1 Montreux", "date": {"mer. 11.04.2012": {"year": 2012, "day": 11, "month": 4, "categories": {"M-M20": {"distance": 8, "rank": 108, "pace": 283000000000, "time": 2152.9}}, "weekday": "wednesday", "livingplace": "Ollon"}}, "location": "Ollon VD"}, "Tour du Chablais #5 Les Mosses": {"latitude": 46.3603257, "longitude": 6.931504599999999, "race": "Tour du Chablais #5 Les Mosses", "date": {"mer. 25.05.2011": {"year": 2011, "day": 25, "month": 5, "categories": {"M-M20": {"distance": 8, "rank": 167, "pace": 321000000000, "time": 2568.4}}, "weekday": "wednesday", "livingplace": "Ollon"}}, "location": "Roche VD"}, "Tour du Chablais #6 Aigle": {"latitude": 46.3190253, "longitude": 6.970566, "race": "Tour du Chablais #6 Aigle", "date": {"mer. 01.06.2011": {"year": 2011, "day": 1, "month": 6, "categories": {"M-M20": {"distance": 10, "rank": 168, "pace": 286000000000, "time": 2919.3}}, "weekday": "wednesday", "livingplace": "Ollon"}}, "location": "Aigle"}, "Tour du Chablais #2 St-Gingolph": {"latitude": 46.3835529, "longitude": 6.854975199999999, "race": "Tour du Chablais #2 St-Gingolph", "date": {"mer. 14.04.2010": {"year": 2010, "day": 14, "month": 4, "categories": {"M-M20": {"distance": 8, "rank": 65, "pace": 274000000000, "time": 2288.4}}, "weekday": "wednesday", "livingplace": "Ollon"}}, "location": "Bouveret"}, "Tour du Chablais #4 Yvorne": {"latitude": NaN, "longitude": NaN, "race": "Tour du Chablais #4 Yvorne", "date": {"mer. 28.04.2010": {"year": 2010, "day": 28, "month": 4, "categories": {"M-M20": {"distance": 8, "rank": 73, "pace": 271000000000, "time": 2247.8}}, "weekday": "wednesday", "livingplace": "Ollon"}}, "location": "Les Mosses"}, "Tour du Chablais #2 Bex": {"latitude": 46.3835529, "longitude": 6.854975199999999, "race": "Tour du Chablais #2 Bex", "date": {"mer. 18.04.2012": {"year": 2012, "day": 18, "month": 4, "categories": {"M-M20": {"distance": 8, "rank": 192, "pace": 326000000000, "time": 2610.6}}, "weekday": "wednesday", "livingplace": "Ollon"}}, "location": "Bouveret"}, "Tour du Chablais #6 Montreux": {"latitude": 46.3190253, "longitude": 6.970566, "race": "Tour du Chablais #6 Montreux", "date": {"mer. 16.05.2012": {"year": 2012, "day": 16, "month": 5, "categories": {"M-M20": {"distance": 9, "rank": 199, "pace": 305000000000, "time": 2825.9}}, "weekday": "wednesday", "livingplace": "Ollon"}}, "location": "Aigle"}}, "birth": 1977}