{"name": "Ma\u00eetre Thierry", "sex": "M", "races": {"Morat-Fribourg": {"latitude": 46.92922110000001, "longitude": 7.120184, "race": "Morat-Fribourg", "date": {"sam. 04.10.2014": {"year": 2014, "day": 4, "month": 10, "categories": {"17-M50": {"distance": 17, "rank": 320, "pace": 329000000000, "time": 5664.7}}, "weekday": "saturday", "livingplace": "Saignelegier"}}, "location": "Murten"}, "La Trotteuse-Tissot, La Chaux-de-Fonds": {"latitude": 47.1034892, "longitude": 6.832783800000001, "race": "La Trotteuse-Tissot, La Chaux-de-Fonds", "date": {"sam. 14.12.2013": {"year": 2013, "day": 14, "month": 12, "categories": {"GC-H50": {"distance": 8, "rank": 59, "pace": 318000000000, "time": 2547.4}}, "weekday": "saturday", "livingplace": "Saignelegier"}}, "location": "La Chaux-de-Fonds"}, "Lausanne Marathon": {"latitude": 46.5196535, "longitude": 6.6322734, "race": "Lausanne Marathon", "date": {"dim. 27.10.2013": {"year": 2013, "day": 27, "month": 10, "categories": {"21-H4": {"distance": 21, "rank": 228, "pace": 323000000000, "time": 6835.2}}, "weekday": "sunday", "livingplace": "Saignelegier"}}, "location": "Lausanne"}, "SwissCityMarathon - Lucerne, Luzern": {"latitude": 47.05016819999999, "longitude": 8.3093072, "race": "SwissCityMarathon - Lucerne, Luzern", "date": {"dim. 25.10.2015": {"year": 2015, "day": 25, "month": 10, "categories": {"M-M50": {"distance": 42, "rank": 94, "pace": 338000000000, "time": 14284.1}}, "weekday": "sunday", "livingplace": "Saignelegier"}}, "location": "Luzern"}, "20km de Lausanne": {"latitude": 46.5196535, "longitude": 6.6322734, "race": "20km de Lausanne", "date": {"sam. 25.04.2015": {"year": 2015, "day": 25, "month": 4, "categories": {"20-H50": {"distance": 20, "rank": 152, "pace": 307000000000, "time": 6146.5}}, "weekday": "saturday", "livingplace": "Ccmj"}}, "location": "Lausanne"}, "Kerzerslauf": {"latitude": 46.97488999999999, "longitude": 7.1954365, "race": "Kerzerslauf", "date": {"sam. 21.03.2015": {"year": 2015, "day": 21, "month": 3, "categories": {"15-M50": {"distance": 15, "rank": 326, "pace": 315000000000, "time": 4737.8}}, "weekday": "saturday", "livingplace": "Saignelegier"}, "sam. 15.03.2014": {"year": 2014, "day": 15, "month": 3, "categories": {"15-M50": {"distance": 15, "rank": 360, "pace": 322000000000, "time": 4834.9}}, "weekday": "saturday", "livingplace": "Saignelegier"}}, "location": "Kerzers"}}, "birth": 1963}