{"name": "Mamone Sabine", "sex": "F", "races": {"Tour du pays de Vaud #1 \u2013 St  Prex": {"latitude": 46.7784736, "longitude": 6.641183, "race": "Tour du pays de Vaud #1 \u2013 St  Prex", "date": {"mer. 11.08.2010": {"year": 2010, "day": 11, "month": 8, "categories": {"Dam": {"distance": 8, "rank": 25, "pace": 401000000000, "time": 3372.2}}, "weekday": "wednesday", "livingplace": "Forel Lavaux"}}, "location": "Yverdon-les-Bains"}, "Tour du Pays de Vaud #2 - Genolier": {"latitude": 46.5955273, "longitude": 6.7702883, "race": "Tour du Pays de Vaud #2 - Genolier", "date": {"mer. 17.08.2011": {"year": 2011, "day": 17, "month": 8, "categories": {"D-Dam": {"distance": 9, "rank": 29, "pace": 357000000000, "time": 3040.7}}, "weekday": "wednesday", "livingplace": "Forel Lavaux"}}, "location": "M\u00e9zi\u00e8res VD"}, "Tour du Pays de Vaud #5 - La Sarraz": {"latitude": 46.5993131, "longitude": 6.539251200000001, "race": "Tour du Pays de Vaud #5 - La Sarraz", "date": {"mer. 08.09.2010": {"year": 2010, "day": 8, "month": 9, "categories": {"Dam": {"distance": 9, "rank": 30, "pace": 395000000000, "time": 3597.8}}, "weekday": "wednesday", "livingplace": "Forel Lavaux"}}, "location": "Penthaz"}, "Tour du pays de Vaud #6 - St  Prex": {"latitude": 46.4829113, "longitude": 6.458343500000001, "race": "Tour du pays de Vaud #6 - St  Prex", "date": {"mer. 14.09.2011": {"year": 2011, "day": 14, "month": 9, "categories": {"D-Dam": {"distance": 9, "rank": 33, "pace": 348000000000, "time": 3000.5}}, "weekday": "wednesday", "livingplace": "Forel Lavaux"}}, "location": "St-Prex"}, "20km de Lausanne": {"latitude": 46.5196535, "longitude": 6.6322734, "race": "20km de Lausanne", "date": {"sam. 30.04.2011": {"year": 2011, "day": 30, "month": 4, "categories": {"10-F20": {"distance": 10, "rank": 364, "pace": 359000000000, "time": 3599.5}}, "weekday": "saturday", "livingplace": "Henniez"}}, "location": "Lausanne"}}, "birth": 1982}