{"name": "Manetsch Ramon", "sex": "M", "races": {"Kerzerslauf": {"latitude": 46.97488999999999, "longitude": 7.1954365, "race": "Kerzerslauf", "date": {"sam. 21.03.2015": {"year": 2015, "day": 21, "month": 3, "categories": {"15-M20": {"distance": 15, "rank": 79, "pace": 234000000000, "time": 3517.8}}, "weekday": "saturday", "livingplace": "Bern"}}, "location": "Kerzers"}, "Bl\u00fcemlisalp-Lauf, Reichenbach": {"latitude": 46.6254387, "longitude": 7.6940529, "race": "Bl\u00fcemlisalp-Lauf, Reichenbach", "date": {"dim. 24.05.2015": {"year": 2015, "day": 24, "month": 5, "categories": {"M20": {"distance": 16, "rank": 5, "pace": 274000000000, "time": 4409.7}}, "weekday": "sunday", "livingplace": "gantrischbike.ch"}}, "location": "Reichenbach im Kandertal"}, "Thuner Stadtlauf, Thun": {"latitude": 46.7579868, "longitude": 7.6279881, "race": "Thuner Stadtlauf, Thun", "date": {"dim. 22.08.2010": {"year": 2010, "day": 22, "month": 8, "categories": {"10-M20": {"distance": 10, "rank": 11, "pace": 235000000000, "time": 2353.8}}, "weekday": "sunday", "livingplace": "Reutigen"}}, "location": "Thun"}, "Morat-Fribourg": {"latitude": 46.92922110000001, "longitude": 7.120184, "race": "Morat-Fribourg", "date": {"sam. 04.10.2008": {"year": 2008, "day": 4, "month": 10, "categories": {"C-M20": {"distance": 17, "rank": 204, "pace": 253000000000, "time": 4360.7}}, "weekday": "saturday", "livingplace": "Reutigen"}}, "location": "Murten"}, "ASICS Bremgarter Reusslauf": {"latitude": 47.34917739999999, "longitude": 8.3397905, "race": "ASICS Bremgarter Reusslauf", "date": {"sam. 27.02.2010": {"year": 2010, "day": 27, "month": 2, "categories": {"M20": {"distance": 11, "rank": 37, "pace": 222000000000, "time": 2444.7}}, "weekday": "saturday", "livingplace": "Reutigen"}}, "location": "Bremgarten AG"}, "Ch\u00e4sitzerlouf, Kehrsatz": {"latitude": NaN, "longitude": NaN, "race": "Ch\u00e4sitzerlouf, Kehrsatz", "date": {"sam. 26.04.2014": {"year": 2014, "day": 26, "month": 4, "categories": {"12-M20": {"distance": 12, "rank": 16, "pace": 231000000000, "time": 2773.9}}, "weekday": "saturday", "livingplace": "Bern"}}, "location": "Kehrsatz"}, "Burgdorfer Stadtlauf, Burgdorf": {"latitude": 45.277123, "longitude": -115.9129022, "race": "Burgdorfer Stadtlauf, Burgdorf", "date": {"sam. 13.09.2008": {"year": 2008, "day": 13, "month": 9, "categories": {"MHK": {"distance": 8, "rank": 9, "pace": 243000000000, "time": 1944.3}}, "weekday": "saturday", "livingplace": "Reutigen"}}, "location": "Burgdorf"}, "Jungfrau-Marathon, Interlaken": {"latitude": NaN, "longitude": NaN, "race": "Jungfrau-Marathon, Interlaken", "date": {"sam. 06.09.2008": {"year": 2008, "day": 6, "month": 9, "categories": {"M20": {"distance": 42, "rank": 324, "pace": 408000000000, "time": 17228.9}}, "weekday": "saturday", "livingplace": "Reutigen"}}, "location": "Interlaken"}}, "birth": 1987}