{"name": "Mann Tanya", "sex": "F", "races": {"Tour du Chablais #1 Roche": {"latitude": 46.2957462, "longitude": 6.9916269, "race": "Tour du Chablais #1 Roche", "date": {"mer. 07.04.2010": {"year": 2010, "day": 7, "month": 4, "categories": {"F-F20": {"distance": 9, "rank": 26, "pace": 290000000000, "time": 2601.0}}, "weekday": "wednesday", "livingplace": "Chesieres"}}, "location": "Ollon VD"}, "Tour du Chablais #2 Rennaz": {"latitude": 46.3835529, "longitude": 6.854975199999999, "race": "Tour du Chablais #2 Rennaz", "date": {"mer. 04.05.2011": {"year": 2011, "day": 4, "month": 5, "categories": {"F-F20": {"distance": 9, "rank": 13, "pace": 282000000000, "time": 2637.0}}, "weekday": "wednesday", "livingplace": "Chesieres"}}, "location": "Bouveret"}, "Tour du Chablais #3 Bex": {"latitude": 46.1782231, "longitude": 7.0223787, "race": "Tour du Chablais #3 Bex", "date": {"mer. 21.04.2010": {"year": 2010, "day": 21, "month": 4, "categories": {"F-F20": {"distance": 10, "rank": 27, "pace": 297000000000, "time": 2977.1}}, "weekday": "wednesday", "livingplace": "Chesieres"}}, "location": "Evionnaz"}, "Tour du Chablais #3 Le Bouveret": {"latitude": 46.1782231, "longitude": 7.0223787, "race": "Tour du Chablais #3 Le Bouveret", "date": {"mer. 11.05.2011": {"year": 2011, "day": 11, "month": 5, "categories": {"F-F20": {"distance": 10, "rank": 24, "pace": 288000000000, "time": 2883.2}}, "weekday": "wednesday", "livingplace": "Chesieres"}}, "location": "Evionnaz"}, "Tour du Chablais #4 Morgins": {"latitude": NaN, "longitude": NaN, "race": "Tour du Chablais #4 Morgins", "date": {"mer. 18.05.2011": {"year": 2011, "day": 18, "month": 5, "categories": {"F-F20": {"distance": 8, "rank": 20, "pace": 299000000000, "time": 2498.4}}, "weekday": "wednesday", "livingplace": "Chesieres"}}, "location": "Les Mosses"}, "Tour du Chablais #1 Lavey": {"latitude": 46.2957462, "longitude": 6.9916269, "race": "Tour du Chablais #1 Lavey", "date": {"mer. 27.04.2011": {"year": 2011, "day": 27, "month": 4, "categories": {"F-F20": {"distance": 9, "rank": 13, "pace": 280000000000, "time": 2520.1}}, "weekday": "wednesday", "livingplace": "Chesieres"}}, "location": "Ollon VD"}, "Tour du Chablais #5 Leysin": {"latitude": 46.3603257, "longitude": 6.931504599999999, "race": "Tour du Chablais #5 Leysin", "date": {"mer. 05.05.2010": {"year": 2010, "day": 5, "month": 5, "categories": {"F-F20": {"distance": 8, "rank": 27, "pace": 320000000000, "time": 2711.6}}, "weekday": "wednesday", "livingplace": "Chesieres"}}, "location": "Roche VD"}, "Tour du Chablais #6 Mouthey": {"latitude": 46.3190253, "longitude": 6.970566, "race": "Tour du Chablais #6 Mouthey", "date": {"mer. 12.05.2010": {"year": 2010, "day": 12, "month": 5, "categories": {"F-F20": {"distance": 9, "rank": 24, "pace": 285000000000, "time": 2623.7}}, "weekday": "wednesday", "livingplace": "Chesieres"}}, "location": "Aigle"}, "Tour du Chablais #5 Les Mosses": {"latitude": 46.3603257, "longitude": 6.931504599999999, "race": "Tour du Chablais #5 Les Mosses", "date": {"mer. 25.05.2011": {"year": 2011, "day": 25, "month": 5, "categories": {"F-F20": {"distance": 8, "rank": 23, "pace": 308000000000, "time": 2464.1}}, "weekday": "wednesday", "livingplace": "Chesieres"}}, "location": "Roche VD"}, "Tour du Chablais #6 Aigle": {"latitude": 46.3190253, "longitude": 6.970566, "race": "Tour du Chablais #6 Aigle", "date": {"mer. 01.06.2011": {"year": 2011, "day": 1, "month": 6, "categories": {"F-F20": {"distance": 10, "rank": 31, "pace": 279000000000, "time": 2850.0}}, "weekday": "wednesday", "livingplace": "Chesieres"}}, "location": "Aigle"}, "Tour du Chablais #2 St-Gingolph": {"latitude": 46.3835529, "longitude": 6.854975199999999, "race": "Tour du Chablais #2 St-Gingolph", "date": {"mer. 14.04.2010": {"year": 2010, "day": 14, "month": 4, "categories": {"F-F20": {"distance": 8, "rank": 23, "pace": 320000000000, "time": 2674.7}}, "weekday": "wednesday", "livingplace": "Chesieres"}}, "location": "Bouveret"}, "Tour du Chablais #4 Yvorne": {"latitude": NaN, "longitude": NaN, "race": "Tour du Chablais #4 Yvorne", "date": {"mer. 28.04.2010": {"year": 2010, "day": 28, "month": 4, "categories": {"F-F20": {"distance": 8, "rank": 27, "pace": 317000000000, "time": 2626.6}}, "weekday": "wednesday", "livingplace": "Chesieres"}}, "location": "Les Mosses"}}, "birth": 1975}