{"name": "Mann Eric", "sex": "M", "races": {"Tour de Presinge": {"latitude": 46.21860299999999, "longitude": 6.2535283, "race": "Tour de Presinge", "date": {"dim. 18.03.2012": {"year": 2012, "day": 18, "month": 3, "categories": {"10-H2": {"distance": 10, "rank": 34, "pace": 261000000000, "time": 2618.3}}, "weekday": "sunday", "livingplace": "La Rippe"}, "dim. 17.03.2013": {"year": 2013, "day": 17, "month": 3, "categories": {"10-H2": {"distance": 10, "rank": 29, "pace": 261000000000, "time": 2616.2}}, "weekday": "sunday", "livingplace": "La Rippe"}}, "location": "Presinge"}, "Tour du Pays de Vaud #2 - Genolier": {"latitude": 46.5955273, "longitude": 6.7702883, "race": "Tour du Pays de Vaud #2 - Genolier", "date": {"mer. 15.08.2012": {"year": 2012, "day": 15, "month": 8, "categories": {"H-Sen2": {"distance": 9, "rank": 55, "pace": 275000000000, "time": 2344.2}}, "weekday": "wednesday", "livingplace": "La Rippe"}}, "location": "M\u00e9zi\u00e8res VD"}, "Course de l'Escalade, Gen\u00e8ve": {"latitude": 46.2043907, "longitude": 6.1431577, "race": "Course de l'Escalade, Gen\u00e8ve", "date": {"sam. 03.12.2011": {"year": 2011, "day": 3, "month": 12, "categories": {"H-H3": {"distance": 7, "rank": 346, "pace": 271000000000, "time": 1968.9}}, "weekday": "saturday", "livingplace": "La Rippe"}}, "location": "Gen\u00e8ve"}, "Tour du Pays de Vaud #3 - Mezi\u00e8res": {"latitude": 46.7784736, "longitude": 6.641183, "race": "Tour du Pays de Vaud #3 - Mezi\u00e8res", "date": {"mer. 22.08.2012": {"year": 2012, "day": 22, "month": 8, "categories": {"H-Sen2": {"distance": 8, "rank": 69, "pace": 302000000000, "time": 2544.2}}, "weekday": "wednesday", "livingplace": "La Rippe"}}, "location": "Yverdon-les-Bains"}, "Tour du pays de Vaud #1 - Penthaz": {"latitude": 46.5993131, "longitude": 6.539251200000001, "race": "Tour du pays de Vaud #1 - Penthaz", "date": {"mer. 08.08.2012": {"year": 2012, "day": 8, "month": 8, "categories": {"H-Sen2": {"distance": 9, "rank": 61, "pace": 281000000000, "time": 2397.7}}, "weekday": "wednesday", "livingplace": "La Rippe"}}, "location": "Penthaz"}, "Tour du Pays de Vaud #4 - La Sarraz": {"latitude": 46.7088129, "longitude": 6.5707689, "race": "Tour du Pays de Vaud #4 - La Sarraz", "date": {"mer. 29.08.2012": {"year": 2012, "day": 29, "month": 8, "categories": {"H-Sen2": {"distance": 9, "rank": 65, "pace": 273000000000, "time": 2321.5}}, "weekday": "wednesday", "livingplace": "La Rippe"}}, "location": "Chavornay"}}, "birth": 1968}