{"name": "Marchon Cyril", "sex": "M", "races": {"Groupe E Tour Fribourg #1 Gurmels": {"latitude": 46.81832, "longitude": 6.977279999999999, "race": "Groupe E Tour Fribourg #1 Gurmels", "date": {"mer. 29.08.2012": {"year": 2012, "day": 29, "month": 8, "categories": {"HJ": {"distance": 8, "rank": 2, "pace": 256000000000, "time": 2154.4}}, "weekday": "wednesday", "livingplace": "Belfaux"}}, "location": "Cousset"}, "Morat-Fribourg": {"latitude": 46.92922110000001, "longitude": 7.120184, "race": "Morat-Fribourg", "date": {"sam. 05.10.2013": {"year": 2013, "day": 5, "month": 10, "categories": {"17-M20": {"distance": 17, "rank": 347, "pace": 261000000000, "time": 4559.2}}, "weekday": "saturday", "livingplace": "Belfaux"}, "sam. 01.10.2011": {"year": 2011, "day": 1, "month": 10, "categories": {"17-JunH": {"distance": 17, "rank": 33, "pace": 295000000000, "time": 5072.4}}, "weekday": "saturday", "livingplace": "Belfaux"}, "sam. 03.10.2015": {"year": 2015, "day": 3, "month": 10, "categories": {"17-M20": {"distance": 17, "rank": 194, "pace": 255000000000, "time": 4385.9}}, "weekday": "saturday", "livingplace": "Belfaux"}, "sam. 04.10.2014": {"year": 2014, "day": 4, "month": 10, "categories": {"17-M20": {"distance": 17, "rank": 441, "pace": 273000000000, "time": 4690.3}}, "weekday": "saturday", "livingplace": "Belfaux"}}, "location": "Murten"}, "Corrida Bulloise, Bulle": {"latitude": 46.6154512, "longitude": 7.057726799999999, "race": "Corrida Bulloise, Bulle", "date": {"sam. 21.11.2015": {"year": 2015, "day": 21, "month": 11, "categories": {"8-M20": {"distance": 8, "rank": 41, "pace": 233000000000, "time": 1906.8}}, "weekday": "saturday", "livingplace": "Belfaux"}}, "location": "Bulle"}, "Groupe E Tour Fribourg #3 Estavayer-le-Lac": {"latitude": 46.97488999999999, "longitude": 7.1954365, "race": "Groupe E Tour Fribourg #3 Estavayer-le-Lac", "date": {"mer. 12.09.2012": {"year": 2012, "day": 12, "month": 9, "categories": {"HJ": {"distance": 10, "rank": 3, "pace": 241000000000, "time": 2377.6}}, "weekday": "wednesday", "livingplace": "Belfaux"}}, "location": "Kerzers"}, "Groupe E Tour Fribourg #4 Montagny": {"latitude": 46.6585092, "longitude": 6.877722, "race": "Groupe E Tour Fribourg #4 Montagny", "date": {"mer. 11.09.2013": {"year": 2013, "day": 11, "month": 9, "categories": {"HE": {"distance": 10, "rank": 10, "pace": 243000000000, "time": 2388.9}}, "weekday": "wednesday", "livingplace": "Belfaux"}}, "location": "Siviriez"}, "20km de Lausanne": {"latitude": 46.5196535, "longitude": 6.6322734, "race": "20km de Lausanne", "date": {"sam. 25.04.2015": {"year": 2015, "day": 25, "month": 4, "categories": {"20-H20": {"distance": 20, "rank": 112, "pace": 257000000000, "time": 5156.1}}, "weekday": "saturday", "livingplace": "Trilogie Running Team"}}, "location": "Lausanne"}, "Groupe E Tour Fribourg #4 Siviriez": {"latitude": 46.6585092, "longitude": 6.877722, "race": "Groupe E Tour Fribourg #4 Siviriez", "date": {"mer. 19.09.2012": {"year": 2012, "day": 19, "month": 9, "categories": {"HJ": {"distance": 9, "rank": 3, "pace": 258000000000, "time": 2428.1}}, "weekday": "wednesday", "livingplace": "Belfaux"}}, "location": "Siviriez"}, "Kerzerslauf": {"latitude": 46.97488999999999, "longitude": 7.1954365, "race": "Kerzerslauf", "date": {"sam. 21.03.2015": {"year": 2015, "day": 21, "month": 3, "categories": {"15-M20": {"distance": 15, "rank": 183, "pace": 259000000000, "time": 3889.7}}, "weekday": "saturday", "livingplace": "Belfaux"}}, "location": "Kerzers"}, "Lausanne Marathon": {"latitude": 46.5196535, "longitude": 6.6322734, "race": "Lausanne Marathon", "date": {"dim. 26.10.2014": {"year": 2014, "day": 26, "month": 10, "categories": {"21-H20": {"distance": 21, "rank": 164, "pace": 278000000000, "time": 5876.4}}, "weekday": "sunday", "livingplace": "Belfaux"}}, "location": "Lausanne"}, "Zermatt Marathon, Zermatt": {"latitude": NaN, "longitude": NaN, "race": "Zermatt Marathon, Zermatt", "date": {"sam. 04.07.2015": {"year": 2015, "day": 4, "month": 7, "categories": {"U-M18": {"distance": 46, "rank": 19, "pace": 469000000000, "time": 21411.3}}, "weekday": "saturday", "livingplace": "Trilogie Running Team"}}, "location": "Zermatt"}, "Groupe E Tour Fribourg #5 Fribourg": {"latitude": 46.8128615, "longitude": 7.131657799999999, "race": "Groupe E Tour Fribourg #5 Fribourg", "date": {"mer. 18.09.2013": {"year": 2013, "day": 18, "month": 9, "categories": {"HE": {"distance": 10, "rank": 12, "pace": 242000000000, "time": 2424.6}}, "weekday": "wednesday", "livingplace": "Belfaux"}, "mer. 26.09.2012": {"year": 2012, "day": 26, "month": 9, "categories": {"HJ": {"distance": 11, "rank": 3, "pace": 248000000000, "time": 2659.2}}, "weekday": "wednesday", "livingplace": "Belfaux"}}, "location": "Givisiez"}, "Groupe E Tour Fribourg #3 Charmey": {"latitude": 46.97488999999999, "longitude": 7.1954365, "race": "Groupe E Tour Fribourg #3 Charmey", "date": {"mer. 04.09.2013": {"year": 2013, "day": 4, "month": 9, "categories": {"HE": {"distance": 11, "rank": 11, "pace": 267000000000, "time": 2908.8}}, "weekday": "wednesday", "livingplace": "Belfaux"}}, "location": "Kerzers"}, "Course de l'Avent, Fribourg": {"latitude": 46.8064773, "longitude": 7.161971899999999, "race": "Course de l'Avent, Fribourg", "date": {"dim. 23.11.2014": {"year": 2014, "day": 23, "month": 11, "categories": {"E-H20": {"distance": 7, "rank": 13, "pace": 235000000000, "time": 1745.8}}, "weekday": "sunday", "livingplace": "Belfaux"}, "dim. 25.11.2012": {"year": 2012, "day": 25, "month": 11, "categories": {"E-HJun": {"distance": 7, "rank": 2, "pace": 254000000000, "time": 1692.2}}, "weekday": "sunday", "livingplace": "Belfaux"}}, "location": "Fribourg"}, "Groupe E Tour Fribourg #2 Plafayon": {"latitude": 46.6175845, "longitude": 7.1654493, "race": "Groupe E Tour Fribourg #2 Plafayon", "date": {"mer. 05.09.2012": {"year": 2012, "day": 5, "month": 9, "categories": {"HJ": {"distance": 9, "rank": 5, "pace": 248000000000, "time": 2322.0}}, "weekday": "wednesday", "livingplace": "Belfaux"}}, "location": "Charmey (Gruy\u00e8re)"}, "Burgdorfer Stadtlauf, Burgdorf": {"latitude": 45.277123, "longitude": -115.9129022, "race": "Burgdorfer Stadtlauf, Burgdorf", "date": {"sam. 14.09.2013": {"year": 2013, "day": 14, "month": 9, "categories": {"5-HKMann": {"distance": 5, "rank": 4, "pace": 236000000000, "time": 1182.3}}, "weekday": "saturday", "livingplace": "Belfaux"}}, "location": "Burgdorf"}, "Groupe E Tour Fribourg #2 Kerzers": {"latitude": 46.6175845, "longitude": 7.1654493, "race": "Groupe E Tour Fribourg #2 Kerzers", "date": {"mer. 28.08.2013": {"year": 2013, "day": 28, "month": 8, "categories": {"HE": {"distance": 12, "rank": 8, "pace": 245000000000, "time": 2901.8}}, "weekday": "wednesday", "livingplace": "Belfaux"}}, "location": "Charmey (Gruy\u00e8re)"}}, "birth": 1993}