{"name": "Marchand Jimmy", "sex": "M", "races": {"BCN Tour La Br\u00e9vine": {"latitude": 46.999113, "longitude": 6.733554799999999, "race": "BCN Tour La Br\u00e9vine", "date": {"mer. 04.05.2011": {"year": 2011, "day": 4, "month": 5, "categories": {"HV2": {"distance": 10, "rank": 27, "pace": 366000000000, "time": 3665.9}}, "weekday": "wednesday", "livingplace": "Villeret"}}, "location": "Les Ponts-de-Martel"}, "Course de l'Escalade, Gen\u00e8ve": {"latitude": 46.2043907, "longitude": 6.1431577, "race": "Course de l'Escalade, Gen\u00e8ve", "date": {"sam. 06.12.2003": {"year": 2003, "day": 6, "month": 12, "categories": {"Hommes5": {"distance": 7, "rank": 66, "pace": 283000000000, "time": 2054.0}}, "weekday": "saturday", "livingplace": "Villeret"}}, "location": "Gen\u00e8ve"}, "La Trotteuse-Tissot, La Chaux-de-Fonds": {"latitude": 47.1034892, "longitude": 6.832783800000001, "race": "La Trotteuse-Tissot, La Chaux-de-Fonds", "date": {"sam. 12.12.2015": {"year": 2015, "day": 12, "month": 12, "categories": {"GC-H60": {"distance": 8, "rank": 32, "pace": 423000000000, "time": 3389.8}}, "weekday": "saturday", "livingplace": "Villeret"}, "sam. 18.12.2010": {"year": 2010, "day": 18, "month": 12, "categories": {"GC-H60": {"distance": 8, "rank": 23, "pace": 348000000000, "time": 2790.3}}, "weekday": "saturday", "livingplace": "Villeret"}, "sam. 17.12.2011": {"year": 2011, "day": 17, "month": 12, "categories": {"GC-H60": {"distance": 8, "rank": 28, "pace": 351000000000, "time": 2809.5}}, "weekday": "saturday", "livingplace": "Villeret"}, "sam. 14.12.2013": {"year": 2013, "day": 14, "month": 12, "categories": {"GC-H60": {"distance": 8, "rank": 22, "pace": 371000000000, "time": 2975.2}}, "weekday": "saturday", "livingplace": "Villeret"}}, "location": "La Chaux-de-Fonds"}, "BCN Tour Fontaine Cernier": {"latitude": 47.0624261, "longitude": 6.9175754, "race": "BCN Tour Fontaine Cernier", "date": {"mer. 27.04.2011": {"year": 2011, "day": 27, "month": 4, "categories": {"HV2": {"distance": 10, "rank": 24, "pace": 337000000000, "time": 3472.2}}, "weekday": "wednesday", "livingplace": "Villeret"}}, "location": "Ch\u00e9zard-St-Martin"}, "BCN Tour Le Landeron": {"latitude": 46.9668714, "longitude": 6.8589727, "race": "BCN Tour Le Landeron", "date": {"mer. 22.04.2009": {"year": 2009, "day": 22, "month": 4, "categories": {"HV2": {"distance": 11, "rank": 29, "pace": 354000000000, "time": 3935.8}}, "weekday": "wednesday", "livingplace": "Villeret"}}, "location": "Colombier NE"}, "BCN Tour #5 Colombier": {"latitude": 46.9262933, "longitude": 6.6324944, "race": "BCN Tour #5 Colombier", "date": {"mer. 22.05.2013": {"year": 2013, "day": 22, "month": 5, "categories": {"HV2": {"distance": 11, "rank": 31, "pace": 338000000000, "time": 3555.5}}, "weekday": "wednesday", "livingplace": "Villeret"}}, "location": "Couvet"}, "BCN Tour Le Locle": {"latitude": 46.999113, "longitude": 6.733554799999999, "race": "BCN Tour Le Locle", "date": {"mer. 05.05.2010": {"year": 2010, "day": 5, "month": 5, "categories": {"HV2": {"distance": 11, "rank": 25, "pace": 354000000000, "time": 3858.7}}, "weekday": "wednesday", "livingplace": "Villeret"}}, "location": "Les Ponts-de-Martel"}, "BCN Tour Neuch\u00e2tel": {"latitude": 46.9899874, "longitude": 6.9292732, "race": "BCN Tour Neuch\u00e2tel", "date": {"mer. 26.05.2010": {"year": 2010, "day": 26, "month": 5, "categories": {"HV2": {"distance": 10, "rank": 34, "pace": 462000000000, "time": 4483.8}}, "weekday": "wednesday", "livingplace": "Villeret"}, "mer. 25.05.2011": {"year": 2011, "day": 25, "month": 5, "categories": {"HV2": {"distance": 11, "rank": 25, "pace": 373000000000, "time": 4263.1}}, "weekday": "wednesday", "livingplace": "Villeret"}}, "location": "Neuch\u00e2tel"}, "BCN Tour Auvernier": {"latitude": 46.9668714, "longitude": 6.8589727, "race": "BCN Tour Auvernier", "date": {"mer. 20.04.2011": {"year": 2011, "day": 20, "month": 4, "categories": {"HV2": {"distance": 11, "rank": 25, "pace": 377000000000, "time": 4072.4}}, "weekday": "wednesday", "livingplace": "Villeret"}}, "location": "Colombier NE"}, "BCN Tour Colombier": {"latitude": 46.9668714, "longitude": 6.8589727, "race": "BCN Tour Colombier", "date": {"mer. 16.05.2012": {"year": 2012, "day": 16, "month": 5, "categories": {"HV2": {"distance": 11, "rank": 31, "pace": 362000000000, "time": 3915.4}}, "weekday": "wednesday", "livingplace": "Villeret"}, "mer. 23.04.2008": {"year": 2008, "day": 23, "month": 4, "categories": {"HV2": {"distance": 10, "rank": 14, "pace": 329000000000, "time": 3360.8}}, "weekday": "wednesday", "livingplace": "Villeret"}, "mer. 21.04.2010": {"year": 2010, "day": 21, "month": 4, "categories": {"HV2": {"distance": 10, "rank": 32, "pace": 395000000000, "time": 3957.8}}, "weekday": "wednesday", "livingplace": "Villeret"}}, "location": "Colombier NE"}, "BCN Tour La Chaux-de-Fonds": {"latitude": 47.1034892, "longitude": 6.832783800000001, "race": "BCN Tour La Chaux-de-Fonds", "date": {"mer. 11.05.2011": {"year": 2011, "day": 11, "month": 5, "categories": {"HV2": {"distance": 11, "rank": 32, "pace": 447000000000, "time": 4788.1}}, "weekday": "wednesday", "livingplace": "Villeret"}}, "location": "La Chaux-de-Fonds"}, "BCN Tour #6 Neuch\u00e2tel": {"latitude": 46.9899874, "longitude": 6.9292732, "race": "BCN Tour #6 Neuch\u00e2tel", "date": {"mer. 29.05.2013": {"year": 2013, "day": 29, "month": 5, "categories": {"HV2": {"distance": 11, "rank": 29, "pace": 381000000000, "time": 4196.5}}, "weekday": "wednesday", "livingplace": "Villeret"}}, "location": "Neuch\u00e2tel"}, "Maratona Ticino, Tenero": {"latitude": NaN, "longitude": NaN, "race": "Maratona Ticino, Tenero", "date": {"dim. 08.11.2009": {"year": 2009, "day": 8, "month": 11, "categories": {"M-M60": {"distance": 42, "rank": 8, "pace": 367000000000, "time": 15497.7}}, "weekday": "sunday", "livingplace": "Villeret"}}, "location": "Tenero"}, "BCN Tour Ponts-de-Martel": {"latitude": 47.0624261, "longitude": 6.9175754, "race": "BCN Tour Ponts-de-Martel", "date": {"mer. 28.04.2010": {"year": 2010, "day": 28, "month": 4, "categories": {"HV2": {"distance": 11, "rank": 35, "pace": 433000000000, "time": 4852.7}}, "weekday": "wednesday", "livingplace": "Villeret"}}, "location": "Ch\u00e9zard-St-Martin"}, "BCN Tour Les Ponts de Martel": {"latitude": 46.9262933, "longitude": 6.6324944, "race": "BCN Tour Les Ponts de Martel", "date": {"mer. 18.05.2011": {"year": 2011, "day": 18, "month": 5, "categories": {"HV2": {"distance": 13, "rank": 20, "pace": 363000000000, "time": 4652.1}}, "weekday": "wednesday", "livingplace": "Villeret"}}, "location": "Couvet"}, "BCN Tour M\u00f4tier": {"latitude": 46.9262933, "longitude": 6.6324944, "race": "BCN Tour M\u00f4tier", "date": {"mer. 19.05.2010": {"year": 2010, "day": 19, "month": 5, "categories": {"HV2": {"distance": 10, "rank": 22, "pace": 323000000000, "time": 3205.7}}, "weekday": "wednesday", "livingplace": "Villeret"}}, "location": "Couvet"}, "BCN Tour Boudry": {"latitude": 46.9668714, "longitude": 6.8589727, "race": "BCN Tour Boudry", "date": {"mer. 26.04.2006": {"year": 2006, "day": 26, "month": 4, "categories": {"HV2": {"distance": 10, "rank": 14, "pace": 322000000000, "time": 3292.2}}, "weekday": "wednesday", "livingplace": "Villeret"}}, "location": "Colombier NE"}, "BCN Tour La Chaux-de-fonds": {"latitude": 47.1034892, "longitude": 6.832783800000001, "race": "BCN Tour La Chaux-de-fonds", "date": {"mer. 12.05.2010": {"year": 2010, "day": 12, "month": 5, "categories": {"HV2": {"distance": 11, "rank": 29, "pace": 439000000000, "time": 4697.7}}, "weekday": "wednesday", "livingplace": "Villeret"}}, "location": "La Chaux-de-Fonds"}, "Kerzerslauf": {"latitude": 46.97488999999999, "longitude": 7.1954365, "race": "Kerzerslauf", "date": {"sam. 15.03.2008": {"year": 2008, "day": 15, "month": 3, "categories": {"15/M65": {"distance": 15, "rank": 26, "pace": 311000000000, "time": 4673.0}}, "weekday": "saturday", "livingplace": "Villeret"}}, "location": "Kerzers"}, "BCN Tour #3 Dombresson": {"latitude": 46.999113, "longitude": 6.733554799999999, "race": "BCN Tour #3 Dombresson", "date": {"mer. 08.05.2013": {"year": 2013, "day": 8, "month": 5, "categories": {"HV2": {"distance": 10, "rank": 35, "pace": 363000000000, "time": 3598.5}}, "weekday": "wednesday", "livingplace": "Villeret"}}, "location": "Les Ponts-de-Martel"}}, "birth": 1939}