{"name": "Marc Karen", "sex": "F", "races": {"20km de Lausanne": {"latitude": 46.5196535, "longitude": 6.6322734, "race": "20km de Lausanne", "date": {"sam. 25.04.2015": {"year": 2015, "day": 25, "month": 4, "categories": {"20-F20": {"distance": 20, "rank": 231, "pace": 352000000000, "time": 7055.7}}, "weekday": "saturday", "livingplace": "FSL/CMS c'est ma sante"}}, "location": "Lausanne"}, "Morat-Fribourg": {"latitude": 46.92922110000001, "longitude": 7.120184, "race": "Morat-Fribourg", "date": {"sam. 05.10.2013": {"year": 2013, "day": 5, "month": 10, "categories": {"17-W20": {"distance": 17, "rank": 531, "pace": 379000000000, "time": 6629.0}}, "weekday": "saturday", "livingplace": "La Chaux de Fonds"}, "sam. 03.10.2015": {"year": 2015, "day": 3, "month": 10, "categories": {"17-W20": {"distance": 17, "rank": 334, "pace": 351000000000, "time": 6035.1}}, "weekday": "saturday", "livingplace": "Palezieux"}, "sam. 04.10.2014": {"year": 2014, "day": 4, "month": 10, "categories": {"17-W20": {"distance": 17, "rank": 570, "pace": 395000000000, "time": 6795.4}}, "weekday": "saturday", "livingplace": "Bonvillars"}}, "location": "Murten"}, "Kerzerslauf": {"latitude": 46.97488999999999, "longitude": 7.1954365, "race": "Kerzerslauf", "date": {"sam. 21.03.2015": {"year": 2015, "day": 21, "month": 3, "categories": {"15-F20": {"distance": 15, "rank": 325, "pace": 357000000000, "time": 5365.6}}, "weekday": "saturday", "livingplace": "Bonvillars"}, "sam. 15.03.2014": {"year": 2014, "day": 15, "month": 3, "categories": {"15-F20": {"distance": 15, "rank": 341, "pace": 357000000000, "time": 5360.3}}, "weekday": "saturday", "livingplace": "La Chaux de Fonds"}}, "location": "Kerzers"}, "Corrida Bulloise, Bulle": {"latitude": 46.6154512, "longitude": 7.057726799999999, "race": "Corrida Bulloise, Bulle", "date": {"sam. 21.11.2015": {"year": 2015, "day": 21, "month": 11, "categories": {"6-F20": {"distance": 6, "rank": 106, "pace": 312000000000, "time": 1922.1}}, "weekday": "saturday", "livingplace": "Palezieux"}}, "location": "Bulle"}, "Schweizer Frauenlauf Bern": {"latitude": 46.9479739, "longitude": 7.4474468, "race": "Schweizer Frauenlauf Bern", "date": {"dim. 14.06.2015": {"year": 2015, "day": 14, "month": 6, "categories": {"10-W20": {"distance": 10, "rank": 1039, "pace": 453000000000, "time": 4535.1}}, "weekday": "sunday", "livingplace": "Palezieux Village"}}, "location": "Bern"}}, "birth": 1989}