{"name": "Maregrande Andrea", "sex": "F", "races": {"Tour du Chablais #1 Roche": {"latitude": 46.2957462, "longitude": 6.9916269, "race": "Tour du Chablais #1 Roche", "date": {"mer. 07.04.2010": {"year": 2010, "day": 7, "month": 4, "categories": {"F-F50": {"distance": 9, "rank": 38, "pace": 389000000000, "time": 3490.2}}, "weekday": "wednesday", "livingplace": "Monthey"}}, "location": "Ollon VD"}, "Tour du Chablais #6 Mouthey": {"latitude": 46.3190253, "longitude": 6.970566, "race": "Tour du Chablais #6 Mouthey", "date": {"mer. 12.05.2010": {"year": 2010, "day": 12, "month": 5, "categories": {"F-F50": {"distance": 9, "rank": 34, "pace": 381000000000, "time": 3512.4}}, "weekday": "wednesday", "livingplace": "Monthey"}}, "location": "Aigle"}, "Tour du Chablais #4 Yvorne": {"latitude": NaN, "longitude": NaN, "race": "Tour du Chablais #4 Yvorne", "date": {"mer. 28.04.2010": {"year": 2010, "day": 28, "month": 4, "categories": {"F-F50": {"distance": 8, "rank": 37, "pace": 423000000000, "time": 3505.5}}, "weekday": "wednesday", "livingplace": "Monthey"}}, "location": "Les Mosses"}, "Morat-Fribourg": {"latitude": 46.92922110000001, "longitude": 7.120184, "race": "Morat-Fribourg", "date": {"sam. 03.10.2009": {"year": 2009, "day": 3, "month": 10, "categories": {"C-W50": {"distance": 17, "rank": 132, "pace": 417000000000, "time": 7161.1}}, "weekday": "saturday", "livingplace": "Monthey"}, "dim. 07.10.2001": {"year": 2001, "day": 7, "month": 10, "categories": {"W40": {"distance": 17, "rank": 171, "pace": 404000000000, "time": 6940.6}}, "weekday": "sunday", "livingplace": "Bex"}, "dim. 06.10.2002": {"year": 2002, "day": 6, "month": 10, "categories": {"W45": {"distance": 17, "rank": 127, "pace": 398000000000, "time": 6839.9}}, "weekday": "sunday", "livingplace": "Bex"}}, "location": "Murten"}, "Tour du Chablais #3 Bex": {"latitude": 46.1782231, "longitude": 7.0223787, "race": "Tour du Chablais #3 Bex", "date": {"mer. 21.04.2010": {"year": 2010, "day": 21, "month": 4, "categories": {"F-F50": {"distance": 10, "rank": 34, "pace": 399000000000, "time": 3995.0}}, "weekday": "wednesday", "livingplace": "Monthey"}}, "location": "Evionnaz"}, "Tour du Chablais #5 Leysin": {"latitude": 46.3603257, "longitude": 6.931504599999999, "race": "Tour du Chablais #5 Leysin", "date": {"mer. 05.05.2010": {"year": 2010, "day": 5, "month": 5, "categories": {"F-F50": {"distance": 8, "rank": 28, "pace": 436000000000, "time": 3689.1}}, "weekday": "wednesday", "livingplace": "Monthey"}}, "location": "Roche VD"}, "Tour du Chablais #2 St-Gingolph": {"latitude": 46.3835529, "longitude": 6.854975199999999, "race": "Tour du Chablais #2 St-Gingolph", "date": {"mer. 14.04.2010": {"year": 2010, "day": 14, "month": 4, "categories": {"F-F50": {"distance": 8, "rank": 34, "pace": 424000000000, "time": 3547.2}}, "weekday": "wednesday", "livingplace": "Monthey"}}, "location": "Bouveret"}}, "birth": 1957}