{"name": "Marendaz Edgar", "sex": "M", "races": {"Montreux - Les Rochers de Naye": {"latitude": 46.4312213, "longitude": 6.9106799, "race": "Montreux - Les Rochers de Naye", "date": {"dim. 29.06.2003": {"year": 2003, "day": 29, "month": 6, "categories": {"Se": {"distance": 20, "rank": 53, "pace": 434000000000, "time": 8824.2}}, "weekday": "sunday", "livingplace": "Cheseaux Noreaz"}}, "location": "Montreux"}, "Course de l'Escalade, Gen\u00e8ve": {"latitude": 46.2043907, "longitude": 6.1431577, "race": "Course de l'Escalade, Gen\u00e8ve", "date": {"sam. 02.12.2006": {"year": 2006, "day": 2, "month": 12, "categories": {"Hommes2": {"distance": 7, "rank": 253, "pace": 248000000000, "time": 1800.7}}, "weekday": "saturday", "livingplace": "Cheseaux Noreaz"}}, "location": "Gen\u00e8ve"}, "20km de Lausanne": {"latitude": 46.5196535, "longitude": 6.6322734, "race": "20km de Lausanne", "date": {"sam. 28.04.2007": {"year": 2007, "day": 28, "month": 4, "categories": {"20H30": {"distance": 20, "rank": 105, "pace": 262000000000, "time": 5241.9}}, "weekday": "saturday", "livingplace": "Cheseaux Noreaz"}}, "location": "Lausanne"}, "Morat-Fribourg": {"latitude": 46.92922110000001, "longitude": 7.120184, "race": "Morat-Fribourg", "date": {"dim. 07.10.2001": {"year": 2001, "day": 7, "month": 10, "categories": {"M20": {"distance": 17, "rank": 260, "pace": 249000000000, "time": 4278.7}}, "weekday": "sunday", "livingplace": "Cheseaux Noreaz"}, "dim. 06.10.2002": {"year": 2002, "day": 6, "month": 10, "categories": {"M20": {"distance": 17, "rank": 466, "pace": 262000000000, "time": 4505.9}}, "weekday": "sunday", "livingplace": "Cheseaux Noreaz"}}, "location": "Murten"}, "Tour du Pays de Vaud etape 1 - Le Mont sur Lausanne": {"latitude": 46.7784736, "longitude": 6.641183, "race": "Tour du Pays de Vaud etape 1 - Le Mont sur Lausanne", "date": {"mer. 13.08.2008": {"year": 2008, "day": 13, "month": 8, "categories": {"HomSen1": {"distance": 8, "rank": 54, "pace": 273000000000, "time": 2297.8}}, "weekday": "wednesday", "livingplace": "Cheseaux Noreaz"}}, "location": "Yverdon-les-Bains"}}, "birth": 1972}