{"name": "Maret Sylvain", "sex": "M", "races": {"Tour du Chablais #6 Monthey": {"latitude": 46.3190253, "longitude": 6.970566, "race": "Tour du Chablais #6 Monthey", "date": {"mer. 08.05.2013": {"year": 2013, "day": 8, "month": 5, "categories": {"M-M20": {"distance": 9, "rank": 28, "pace": 226000000000, "time": 2112.4}}, "weekday": "wednesday", "livingplace": "Versegeres"}}, "location": "Aigle"}, "Humani'Trail, Les Diablerets": {"latitude": 46.351389, "longitude": 7.158055999999999, "race": "Humani'Trail, Les Diablerets", "date": {"sam. 21.09.2013": {"year": 2013, "day": 21, "month": 9, "categories": {"25-HS": {"distance": 25, "rank": 14, "pace": 482000000000, "time": 12059.5}}, "weekday": "saturday", "livingplace": "Versegeres"}}, "location": "Les Diablerets"}, "Corrida Bulloise, Bulle": {"latitude": 46.6154512, "longitude": 7.057726799999999, "race": "Corrida Bulloise, Bulle", "date": {"sam. 15.11.2014": {"year": 2014, "day": 15, "month": 11, "categories": {"8-M20": {"distance": 8, "rank": 35, "pace": 232000000000, "time": 1890.9}}, "weekday": "saturday", "livingplace": "Versegeres"}}, "location": "Bulle"}, "Tour du Chablais #6 Aigle": {"latitude": 46.3190253, "longitude": 6.970566, "race": "Tour du Chablais #6 Aigle", "date": {"mer. 01.06.2011": {"year": 2011, "day": 1, "month": 6, "categories": {"M-M20": {"distance": 10, "rank": 39, "pace": 230000000000, "time": 2354.1}}, "weekday": "wednesday", "livingplace": "Versegeres"}}, "location": "Aigle"}, "Tour du Chablais #4 St  Maurice": {"latitude": NaN, "longitude": NaN, "race": "Tour du Chablais #4 St  Maurice", "date": {"mer. 24.04.2013": {"year": 2013, "day": 24, "month": 4, "categories": {"M-M20": {"distance": 10, "rank": 32, "pace": 232000000000, "time": 2325.9}}, "weekday": "wednesday", "livingplace": "Versegeres"}}, "location": "Les Mosses"}, "Tour du Chablais #5 Morgins": {"latitude": 46.3603257, "longitude": 6.931504599999999, "race": "Tour du Chablais #5 Morgins", "date": {"mer. 01.05.2013": {"year": 2013, "day": 1, "month": 5, "categories": {"M-M20": {"distance": 8, "rank": 31, "pace": 240000000000, "time": 1831.5}}, "weekday": "wednesday", "livingplace": "Versegeres"}}, "location": "Roche VD"}, "Tour du Chablais #2 St-Gingolph": {"latitude": 46.3835529, "longitude": 6.854975199999999, "race": "Tour du Chablais #2 St-Gingolph", "date": {"mer. 14.04.2010": {"year": 2010, "day": 14, "month": 4, "categories": {"M-M20": {"distance": 8, "rank": 28, "pace": 248000000000, "time": 2079.1}}, "weekday": "wednesday", "livingplace": "Versegeres"}}, "location": "Bouveret"}}, "birth": 1978}