{"name": "Marella Domenico", "sex": "M", "races": {"20km de Lausanne": {"latitude": 46.5196535, "longitude": 6.6322734, "race": "20km de Lausanne", "date": {"sam. 24.04.2010": {"year": 2010, "day": 24, "month": 4, "categories": {"20-H30": {"distance": 20, "rank": 18, "pace": 227000000000, "time": 4558.4}}, "weekday": "saturday", "livingplace": "Les Amis de la Course"}, "sam. 26.04.2003": {"year": 2003, "day": 26, "month": 4, "categories": {"11": {"distance": 20, "rank": 165, "pace": 255000000000, "time": 5118.7}}, "weekday": "saturday", "livingplace": "Terlizzi"}}, "location": "Lausanne"}, "Tour du Pays de Vaud #3 - Chavornay": {"latitude": 46.7784736, "longitude": 6.641183, "race": "Tour du Pays de Vaud #3 - Chavornay", "date": {"mer. 28.08.2013": {"year": 2013, "day": 28, "month": 8, "categories": {"H-Sen1": {"distance": 9, "rank": 16, "pace": 232000000000, "time": 2073.4}}, "weekday": "wednesday", "livingplace": "Solbiate Olona "}}, "location": "Yverdon-les-Bains"}, "Stralugano, Lugano": {"latitude": 46.0036778, "longitude": 8.951051999999999, "race": "Stralugano, Lugano", "date": {"dim. 30.09.2012": {"year": 2012, "day": 30, "month": 9, "categories": {"30-M20": {"distance": 30, "rank": 15, "pace": 232000000000, "time": 6963.6}}, "weekday": "sunday", "livingplace": "Solbiate Olona "}}, "location": "Lugano"}, "Tour du Pays de Vaud printanier #1 Chavornay": {"latitude": 46.3832683, "longitude": 6.2347852, "race": "Tour du Pays de Vaud printanier #1 Chavornay", "date": {"mer. 30.05.2012": {"year": 2012, "day": 30, "month": 5, "categories": {"H-Sen1": {"distance": 9, "rank": 5, "pace": 230000000000, "time": 2061.4}}, "weekday": "wednesday", "livingplace": "Chavornay"}}, "location": "Nyon"}, "Z\u00fcrich Marathon, Teamrun und Cityrun": {"latitude": 47.3768866, "longitude": 8.541694, "race": "Z\u00fcrich Marathon, Teamrun und Cityrun", "date": {"dim. 07.04.2013": {"year": 2013, "day": 7, "month": 4, "categories": {"42-M30": {"distance": 42, "rank": 20, "pace": 243000000000, "time": 10282.5}}, "weekday": "sunday", "livingplace": "Solbiate Olona "}}, "location": "Z\u00fcrich"}}, "birth": 1976}