{"name": "Marguet David", "sex": "M", "races": {"Course en f\u00f4ret, Romont": {"latitude": 46.691887, "longitude": 6.9118086, "race": "Course en f\u00f4ret, Romont", "date": {"dim. 15.09.2002": {"year": 2002, "day": 15, "month": 9, "categories": {"H20": {"distance": 15, "rank": 77, "pace": 253000000000, "time": 3723.5}}, "weekday": "sunday", "livingplace": "Payerne"}}, "location": "Romont FR"}, "Morat-Fribourg": {"latitude": 46.92922110000001, "longitude": 7.120184, "race": "Morat-Fribourg", "date": {"dim. 06.10.2002": {"year": 2002, "day": 6, "month": 10, "categories": {"M20": {"distance": 17, "rank": 606, "pace": 270000000000, "time": 4637.1}}, "weekday": "sunday", "livingplace": "Payerne"}}, "location": "Murten"}, "20km de Lausanne": {"latitude": 46.5196535, "longitude": 6.6322734, "race": "20km de Lausanne", "date": {"sam. 26.04.2003": {"year": 2003, "day": 26, "month": 4, "categories": {"11": {"distance": 20, "rank": 245, "pace": 264000000000, "time": 5292.6}}, "weekday": "saturday", "livingplace": "Payerne"}}, "location": "Lausanne"}, "Bieler Lauftage, Biel Bienne": {"latitude": 47.1367785, "longitude": 7.2467909, "race": "Bieler Lauftage, Biel Bienne", "date": {"ven. 15.06.2007": {"year": 2007, "day": 15, "month": 6, "categories": {"M/M35": {"distance": 42, "rank": 15, "pace": 393000000000, "time": 16619.4}}, "weekday": "friday", "livingplace": "Payerne"}, "ven. 09.06.2006": {"year": 2006, "day": 9, "month": 6, "categories": {"M/M30": {"distance": 42, "rank": 8, "pace": 313000000000, "time": 13245.5}}, "weekday": "friday", "livingplace": "Payerne"}, "ven. 17.06.2005": {"year": 2005, "day": 17, "month": 6, "categories": {"100/M30": {"distance": 100, "rank": 22, "pace": 386000000000, "time": 38685.9}}, "weekday": "friday", "livingplace": "Payerne"}}, "location": "Biel/Bienne"}, "Z\u00fcrich Marathon, Teamrun und Cityrun": {"latitude": 47.3768866, "longitude": 8.541694, "race": "Z\u00fcrich Marathon, Teamrun und Cityrun", "date": {"dim. 09.04.2006": {"year": 2006, "day": 9, "month": 4, "categories": {"M30": {"distance": 42, "rank": 473, "pace": 290000000000, "time": 12278.7}}, "weekday": "sunday", "livingplace": "Payerne"}, "dim. 03.04.2005": {"year": 2005, "day": 3, "month": 4, "categories": {"M30": {"distance": 42, "rank": 818, "pace": 311000000000, "time": 13156.7}}, "weekday": "sunday", "livingplace": "Payerne"}}, "location": "Z\u00fcrich"}}, "birth": 1972}