{"name": "Marilly Alexandre", "sex": "M", "races": {"BCN Tour #2 La Chaux-de-Fonds": {"latitude": 47.0624261, "longitude": 6.9175754, "race": "BCN Tour #2 La Chaux-de-Fonds", "date": {"mer. 01.05.2013": {"year": 2013, "day": 1, "month": 5, "categories": {"HE": {"distance": 11, "rank": 85, "pace": 267000000000, "time": 2860.5}}, "weekday": "wednesday", "livingplace": "Morteau"}}, "location": "Ch\u00e9zard-St-Martin"}, "BCN Tour #1 Corcelles": {"latitude": 46.9668714, "longitude": 6.8589727, "race": "BCN Tour #1 Corcelles", "date": {"mer. 24.04.2013": {"year": 2013, "day": 24, "month": 4, "categories": {"HE": {"distance": 10, "rank": 81, "pace": 271000000000, "time": 2663.3}}, "weekday": "wednesday", "livingplace": "Morteau"}}, "location": "Colombier NE"}, "BCN Tour La Chaux-de-Fonds": {"latitude": 47.1034892, "longitude": 6.832783800000001, "race": "BCN Tour La Chaux-de-Fonds", "date": {"mer. 11.05.2011": {"year": 2011, "day": 11, "month": 5, "categories": {"HE": {"distance": 11, "rank": 41, "pace": 303000000000, "time": 3242.1}}, "weekday": "wednesday", "livingplace": "Morteau"}}, "location": "La Chaux-de-Fonds"}, "BCN Tour La Br\u00e9vine": {"latitude": 46.999113, "longitude": 6.733554799999999, "race": "BCN Tour La Br\u00e9vine", "date": {"mer. 04.05.2011": {"year": 2011, "day": 4, "month": 5, "categories": {"HE": {"distance": 10, "rank": 45, "pace": 270000000000, "time": 2704.8}}, "weekday": "wednesday", "livingplace": "Morteau"}}, "location": "Les Ponts-de-Martel"}, "BCN Tour Fontaine Cernier": {"latitude": 47.0624261, "longitude": 6.9175754, "race": "BCN Tour Fontaine Cernier", "date": {"mer. 27.04.2011": {"year": 2011, "day": 27, "month": 4, "categories": {"HE": {"distance": 10, "rank": 52, "pace": 259000000000, "time": 2668.2}}, "weekday": "wednesday", "livingplace": "Morteau"}}, "location": "Ch\u00e9zard-St-Martin"}, "BCN Tour Neuch\u00e2tel": {"latitude": 46.9899874, "longitude": 6.9292732, "race": "BCN Tour Neuch\u00e2tel", "date": {"mer. 25.05.2011": {"year": 2011, "day": 25, "month": 5, "categories": {"HE": {"distance": 11, "rank": 61, "pace": 282000000000, "time": 3214.8}}, "weekday": "wednesday", "livingplace": "Morteau"}}, "location": "Neuch\u00e2tel"}, "BCN Tour Les Ponts de Martel": {"latitude": 46.9262933, "longitude": 6.6324944, "race": "BCN Tour Les Ponts de Martel", "date": {"mer. 18.05.2011": {"year": 2011, "day": 18, "month": 5, "categories": {"HE": {"distance": 13, "rank": 47, "pace": 276000000000, "time": 3543.1}}, "weekday": "wednesday", "livingplace": "Morteau"}}, "location": "Couvet"}, "BCN Tour Couvet": {"latitude": 47.0624261, "longitude": 6.9175754, "race": "BCN Tour Couvet", "date": {"mer. 02.05.2012": {"year": 2012, "day": 2, "month": 5, "categories": {"HE": {"distance": 11, "rank": 63, "pace": 285000000000, "time": 3179.8}}, "weekday": "wednesday", "livingplace": "Morteau"}}, "location": "Ch\u00e9zard-St-Martin"}, "BCN Tour Auvernier": {"latitude": 46.9668714, "longitude": 6.8589727, "race": "BCN Tour Auvernier", "date": {"mer. 20.04.2011": {"year": 2011, "day": 20, "month": 4, "categories": {"HE": {"distance": 11, "rank": 61, "pace": 284000000000, "time": 3067.7}}, "weekday": "wednesday", "livingplace": "Morteau"}}, "location": "Colombier NE"}, "BCN Tour Cornaux": {"latitude": 46.9668714, "longitude": 6.8589727, "race": "BCN Tour Cornaux", "date": {"mer. 25.04.2012": {"year": 2012, "day": 25, "month": 4, "categories": {"HE": {"distance": 11, "rank": 56, "pace": 299000000000, "time": 3296.4}}, "weekday": "wednesday", "livingplace": "Morteau"}}, "location": "Colombier NE"}, "BCN Tour #6 Neuch\u00e2tel": {"latitude": 46.9899874, "longitude": 6.9292732, "race": "BCN Tour #6 Neuch\u00e2tel", "date": {"mer. 29.05.2013": {"year": 2013, "day": 29, "month": 5, "categories": {"HE": {"distance": 11, "rank": 130, "pace": 291000000000, "time": 3206.4}}, "weekday": "wednesday", "livingplace": "Morteau"}}, "location": "Neuch\u00e2tel"}}, "birth": 1984}