{"name": "Mariethoz Jacques", "sex": "M", "races": {"Tour du Chablais #2 Rennaz": {"latitude": 46.3835529, "longitude": 6.854975199999999, "race": "Tour du Chablais #2 Rennaz", "date": {"mer. 04.05.2011": {"year": 2011, "day": 4, "month": 5, "categories": {"M-M40": {"distance": 9, "rank": 111, "pace": 286000000000, "time": 2681.0}}, "weekday": "wednesday", "livingplace": "Massongex"}}, "location": "Bouveret"}, "Tour du Chablais #1 Roche": {"latitude": 46.2957462, "longitude": 6.9916269, "race": "Tour du Chablais #1 Roche", "date": {"mer. 03.04.2013": {"year": 2013, "day": 3, "month": 4, "categories": {"M-M40": {"distance": 9, "rank": 106, "pace": 301000000000, "time": 2673.5}}, "weekday": "wednesday", "livingplace": "Massongex"}}, "location": "Ollon VD"}, "Morat-Fribourg": {"latitude": 46.92922110000001, "longitude": 7.120184, "race": "Morat-Fribourg", "date": {"sam. 06.10.2012": {"year": 2012, "day": 6, "month": 10, "categories": {"17-M40": {"distance": 17, "rank": 622, "pace": 341000000000, "time": 5960.1}}, "weekday": "saturday", "livingplace": "Massongex"}}, "location": "Murten"}, "Tour du Chablais #4 Morgins": {"latitude": NaN, "longitude": NaN, "race": "Tour du Chablais #4 Morgins", "date": {"mer. 18.05.2011": {"year": 2011, "day": 18, "month": 5, "categories": {"M-M40": {"distance": 8, "rank": 112, "pace": 318000000000, "time": 2656.7}}, "weekday": "wednesday", "livingplace": "Massongex"}}, "location": "Les Mosses"}, "Tour du Chablais #3 Le Bouveret": {"latitude": 46.1782231, "longitude": 7.0223787, "race": "Tour du Chablais #3 Le Bouveret", "date": {"mer. 11.05.2011": {"year": 2011, "day": 11, "month": 5, "categories": {"M-M40": {"distance": 10, "rank": 133, "pace": 306000000000, "time": 3063.7}}, "weekday": "wednesday", "livingplace": "Massongex"}}, "location": "Evionnaz"}, "Tour du Chablais #6 Monthey": {"latitude": 46.3190253, "longitude": 6.970566, "race": "Tour du Chablais #6 Monthey", "date": {"mer. 08.05.2013": {"year": 2013, "day": 8, "month": 5, "categories": {"M-M40": {"distance": 9, "rank": 116, "pace": 304000000000, "time": 2838.4}}, "weekday": "wednesday", "livingplace": "Massongex"}}, "location": "Aigle"}, "Tour du Chablais #1 Lavey": {"latitude": 46.2957462, "longitude": 6.9916269, "race": "Tour du Chablais #1 Lavey", "date": {"mer. 27.04.2011": {"year": 2011, "day": 27, "month": 4, "categories": {"M-M40": {"distance": 9, "rank": 100, "pace": 292000000000, "time": 2632.1}}, "weekday": "wednesday", "livingplace": "Massongex"}}, "location": "Ollon VD"}, "Tour du Chablais #1 Martigny": {"latitude": 46.2957462, "longitude": 6.9916269, "race": "Tour du Chablais #1 Martigny", "date": {"mer. 23.04.2014": {"year": 2014, "day": 23, "month": 4, "categories": {"M-M40": {"distance": 9, "rank": 99, "pace": 300000000000, "time": 2556.7}}, "weekday": "wednesday", "livingplace": "Massongex"}}, "location": "Ollon VD"}, "Tour du Chablais #5 Bex": {"latitude": 46.3603257, "longitude": 6.931504599999999, "race": "Tour du Chablais #5 Bex", "date": {"mer. 09.05.2012": {"year": 2012, "day": 9, "month": 5, "categories": {"M-M40": {"distance": 9, "rank": 101, "pace": 297000000000, "time": 2634.1}}, "weekday": "wednesday", "livingplace": "Massongex"}}, "location": "Roche VD"}, "Tour du Chablais #4 Champ\u00e9ry": {"latitude": NaN, "longitude": NaN, "race": "Tour du Chablais #4 Champ\u00e9ry", "date": {"mer. 02.05.2012": {"year": 2012, "day": 2, "month": 5, "categories": {"M-M40": {"distance": 8, "rank": 105, "pace": 300000000000, "time": 2495.6}}, "weekday": "wednesday", "livingplace": "Massongex"}}, "location": "Les Mosses"}, "Tour du Chablais #1 Montreux": {"latitude": 46.2957462, "longitude": 6.9916269, "race": "Tour du Chablais #1 Montreux", "date": {"mer. 11.04.2012": {"year": 2012, "day": 11, "month": 4, "categories": {"M-M40": {"distance": 8, "rank": 117, "pace": 305000000000, "time": 2323.1}}, "weekday": "wednesday", "livingplace": "Massongex"}}, "location": "Ollon VD"}, "Tour du Chablais #5 Les Mosses": {"latitude": 46.3603257, "longitude": 6.931504599999999, "race": "Tour du Chablais #5 Les Mosses", "date": {"mer. 25.05.2011": {"year": 2011, "day": 25, "month": 5, "categories": {"M-M40": {"distance": 8, "rank": 84, "pace": 318000000000, "time": 2547.9}}, "weekday": "wednesday", "livingplace": "Massongex"}}, "location": "Roche VD"}, "Tour du Chablais #6 Aigle": {"latitude": 46.3190253, "longitude": 6.970566, "race": "Tour du Chablais #6 Aigle", "date": {"mer. 01.06.2011": {"year": 2011, "day": 1, "month": 6, "categories": {"M-M40": {"distance": 10, "rank": 126, "pace": 306000000000, "time": 3129.0}}, "weekday": "wednesday", "livingplace": "Massongex"}}, "location": "Aigle"}, "Tour du Chablais #4 St  Maurice": {"latitude": NaN, "longitude": NaN, "race": "Tour du Chablais #4 St  Maurice", "date": {"mer. 24.04.2013": {"year": 2013, "day": 24, "month": 4, "categories": {"M-M40": {"distance": 10, "rank": 109, "pace": 305000000000, "time": 3057.2}}, "weekday": "wednesday", "livingplace": "Massongex"}}, "location": "Les Mosses"}, "Tour du Chablais #2 Bex": {"latitude": 46.3835529, "longitude": 6.854975199999999, "race": "Tour du Chablais #2 Bex", "date": {"mer. 18.04.2012": {"year": 2012, "day": 18, "month": 4, "categories": {"M-M40": {"distance": 8, "rank": 106, "pace": 293000000000, "time": 2350.0}}, "weekday": "wednesday", "livingplace": "Massongex"}}, "location": "Bouveret"}, "Tour du Chablais #3 Collombey-Muraz": {"latitude": 46.1782231, "longitude": 7.0223787, "race": "Tour du Chablais #3 Collombey-Muraz", "date": {"mer. 25.04.2012": {"year": 2012, "day": 25, "month": 4, "categories": {"M-M40": {"distance": 9, "rank": 125, "pace": 311000000000, "time": 2800.5}}, "weekday": "wednesday", "livingplace": "Massongex"}}, "location": "Evionnaz"}, "Tour du Chablais #6 Montreux": {"latitude": 46.3190253, "longitude": 6.970566, "race": "Tour du Chablais #6 Montreux", "date": {"mer. 16.05.2012": {"year": 2012, "day": 16, "month": 5, "categories": {"M-M40": {"distance": 9, "rank": 132, "pace": 296000000000, "time": 2742.2}}, "weekday": "wednesday", "livingplace": "Massongex"}}, "location": "Aigle"}}, "birth": 1969}