{"name": "Marmier Daniel", "sex": "M", "races": {"Tour du Pays de Vaud printanier #2 Yverdon-les-Bains": {"latitude": 46.6698891, "longitude": 6.7975224, "race": "Tour du Pays de Vaud printanier #2 Yverdon-les-Bains", "date": {"mer. 11.06.2014": {"year": 2014, "day": 11, "month": 6, "categories": {"H-Sen2": {"distance": 9, "rank": 56, "pace": 367000000000, "time": 3347.8}}, "weekday": "wednesday", "livingplace": "Bern"}}, "location": "Moudon"}, "Tour du Pays de Vaud #4, La Sarraz": {"latitude": 46.7088129, "longitude": 6.5707689, "race": "Tour du Pays de Vaud #4, La Sarraz", "date": {"mer. 03.09.2014": {"year": 2014, "day": 3, "month": 9, "categories": {"H-Sen2": {"distance": 9, "rank": 96, "pace": 316000000000, "time": 2690.0}}, "weekday": "wednesday", "livingplace": "Bern"}}, "location": "Chavornay"}, "Tour du Pays de Vaud printanier #3 - Yens": {"latitude": 46.7829756, "longitude": 6.5728678, "race": "Tour du Pays de Vaud printanier #3 - Yens", "date": {"mer. 18.06.2014": {"year": 2014, "day": 18, "month": 6, "categories": {"H-Sen2": {"distance": 9, "rank": 54, "pace": 308000000000, "time": 2809.5}}, "weekday": "wednesday", "livingplace": "Bern"}}, "location": "Champvent"}, "Tour du Pays de Vaud printanier #1 Moudon": {"latitude": 46.3832683, "longitude": 6.2347852, "race": "Tour du Pays de Vaud printanier #1 Moudon", "date": {"mer. 04.06.2014": {"year": 2014, "day": 4, "month": 6, "categories": {"H-Sen2": {"distance": 8, "rank": 40, "pace": 312000000000, "time": 2627.0}}, "weekday": "wednesday", "livingplace": "Bern"}}, "location": "Nyon"}, "Morat-Fribourg": {"latitude": 46.92922110000001, "longitude": 7.120184, "race": "Morat-Fribourg", "date": {"sam. 05.10.2013": {"year": 2013, "day": 5, "month": 10, "categories": {"17-M40": {"distance": 17, "rank": 652, "pace": 333000000000, "time": 5818.6}}, "weekday": "saturday", "livingplace": "Bern"}, "sam. 03.10.2015": {"year": 2015, "day": 3, "month": 10, "categories": {"17-M40": {"distance": 17, "rank": 532, "pace": 341000000000, "time": 5863.4}}, "weekday": "saturday", "livingplace": "Bern"}, "sam. 04.10.2014": {"year": 2014, "day": 4, "month": 10, "categories": {"17-M40": {"distance": 17, "rank": 515, "pace": 332000000000, "time": 5703.4}}, "weekday": "saturday", "livingplace": "Bern"}}, "location": "Murten"}, "20km de Lausanne": {"latitude": 46.5196535, "longitude": 6.6322734, "race": "20km de Lausanne", "date": {"sam. 25.04.2015": {"year": 2015, "day": 25, "month": 4, "categories": {"20-H40": {"distance": 20, "rank": 385, "pace": 325000000000, "time": 6511.2}}, "weekday": "saturday", "livingplace": "Bern"}, "sam. 26.04.2014": {"year": 2014, "day": 26, "month": 4, "categories": {"20-H40": {"distance": 20, "rank": 357, "pace": 331000000000, "time": 6635.3}}, "weekday": "saturday", "livingplace": "Bern"}}, "location": "Lausanne"}, "Groupe E Tour Fribourg #5, Givisiez": {"latitude": 46.8128615, "longitude": 7.131657799999999, "race": "Groupe E Tour Fribourg #5, Givisiez", "date": {"mer. 17.09.2014": {"year": 2014, "day": 17, "month": 9, "categories": {"H-Sen2": {"distance": 10, "rank": 62, "pace": 334000000000, "time": 3433.1}}, "weekday": "wednesday", "livingplace": "Bern"}}, "location": "Givisiez"}, "Kerzerslauf": {"latitude": 46.97488999999999, "longitude": 7.1954365, "race": "Kerzerslauf", "date": {"sam. 15.03.2014": {"year": 2014, "day": 15, "month": 3, "categories": {"15-M40": {"distance": 15, "rank": 431, "pace": 324000000000, "time": 4863.7}}, "weekday": "saturday", "livingplace": "Bern"}}, "location": "Kerzers"}}, "birth": 1972}