{"name": "Marques Davide", "sex": "M", "races": {"BCN Tour #4 Fleurier": {"latitude": 47.1034892, "longitude": 6.832783800000001, "race": "BCN Tour #4 Fleurier", "date": {"mer. 15.05.2013": {"year": 2013, "day": 15, "month": 5, "categories": {"HE": {"distance": 9, "rank": 195, "pace": 300000000000, "time": 2600.7}}, "weekday": "wednesday", "livingplace": "St Aubin Sauges"}}, "location": "La Chaux-de-Fonds"}, "BCN Tour #6 Neuch\u00e2tel": {"latitude": 46.9899874, "longitude": 6.9292732, "race": "BCN Tour #6 Neuch\u00e2tel", "date": {"mer. 29.05.2013": {"year": 2013, "day": 29, "month": 5, "categories": {"HE": {"distance": 11, "rank": 111, "pace": 287000000000, "time": 3161.3}}, "weekday": "wednesday", "livingplace": "St Aubin Sauges"}}, "location": "Neuch\u00e2tel"}, "Groupe E Tour Fribourg #1 Siviriez": {"latitude": 46.81832, "longitude": 6.977279999999999, "race": "Groupe E Tour Fribourg #1 Siviriez", "date": {"mer. 21.08.2013": {"year": 2013, "day": 21, "month": 8, "categories": {"HE": {"distance": 10, "rank": 17, "pace": 271000000000, "time": 2664.2}}, "weekday": "wednesday", "livingplace": "Peseux"}}, "location": "Cousset"}, "Groupe E Tour Fribourg #3 Charmey": {"latitude": 46.97488999999999, "longitude": 7.1954365, "race": "Groupe E Tour Fribourg #3 Charmey", "date": {"mer. 04.09.2013": {"year": 2013, "day": 4, "month": 9, "categories": {"HE": {"distance": 11, "rank": 22, "pace": 301000000000, "time": 3281.1}}, "weekday": "wednesday", "livingplace": "Peseux"}}, "location": "Kerzers"}, "BCN Tour #5 Colombier": {"latitude": 46.9262933, "longitude": 6.6324944, "race": "BCN Tour #5 Colombier", "date": {"mer. 22.05.2013": {"year": 2013, "day": 22, "month": 5, "categories": {"HE": {"distance": 11, "rank": 128, "pace": 263000000000, "time": 2762.5}}, "weekday": "wednesday", "livingplace": "St Aubin Sauges"}}, "location": "Couvet"}, "BCN Tour #1 Corcelles": {"latitude": 46.9668714, "longitude": 6.8589727, "race": "BCN Tour #1 Corcelles", "date": {"mer. 24.04.2013": {"year": 2013, "day": 24, "month": 4, "categories": {"HE": {"distance": 10, "rank": 157, "pace": 297000000000, "time": 2911.8}}, "weekday": "wednesday", "livingplace": "St Aubin Sauges"}}, "location": "Colombier NE"}, "Groupe E Tour Fribourg #4 Montagny": {"latitude": 46.6585092, "longitude": 6.877722, "race": "Groupe E Tour Fribourg #4 Montagny", "date": {"mer. 11.09.2013": {"year": 2013, "day": 11, "month": 9, "categories": {"HE": {"distance": 10, "rank": 19, "pace": 265000000000, "time": 2603.2}}, "weekday": "wednesday", "livingplace": "Peseux"}}, "location": "Siviriez"}, "BCN Tour #3 Dombresson": {"latitude": 46.999113, "longitude": 6.733554799999999, "race": "BCN Tour #3 Dombresson", "date": {"mer. 08.05.2013": {"year": 2013, "day": 8, "month": 5, "categories": {"HE": {"distance": 10, "rank": 159, "pace": 284000000000, "time": 2816.5}}, "weekday": "wednesday", "livingplace": "St Aubin Sauges"}}, "location": "Les Ponts-de-Martel"}, "BCN Tour #2 La Chaux-de-Fonds": {"latitude": 47.0624261, "longitude": 6.9175754, "race": "BCN Tour #2 La Chaux-de-Fonds", "date": {"mer. 01.05.2013": {"year": 2013, "day": 1, "month": 5, "categories": {"HE": {"distance": 11, "rank": 143, "pace": 281000000000, "time": 3015.1}}, "weekday": "wednesday", "livingplace": "St Aubin Sauges"}}, "location": "Ch\u00e9zard-St-Martin"}}, "birth": 1985}