{"name": "Marra Claudia", "sex": "F", "races": {"Badener Limmat-Lauf, Baden": {"latitude": 48.5699281, "longitude": 8.5303972, "race": "Badener Limmat-Lauf, Baden", "date": {"sam. 26.03.2011": {"year": 2011, "day": 26, "month": 3, "categories": {"F30": {"distance": 13, "rank": 27, "pace": 345000000000, "time": 4558.1}}, "weekday": "saturday", "livingplace": "Bassersdorf"}}, "location": "Baden"}, "Z\u00fcrich Marathon, Teamrun und Cityrun": {"latitude": 47.3768866, "longitude": 8.541694, "race": "Z\u00fcrich Marathon, Teamrun und Cityrun", "date": {"dim. 22.04.2012": {"year": 2012, "day": 22, "month": 4, "categories": {"42-W30": {"distance": 42, "rank": 77, "pace": 340000000000, "time": 14354.7}}, "weekday": "sunday", "livingplace": "Dietlikon"}}, "location": "Z\u00fcrich"}, "IWB Basel Marathon": {"latitude": 47.5595986, "longitude": 7.5885761, "race": "IWB Basel Marathon", "date": {"dim. 23.09.2012": {"year": 2012, "day": 23, "month": 9, "categories": {"H-21-F30": {"distance": 21, "rank": 88, "pace": 364000000000, "time": 7683.2}}, "weekday": "sunday", "livingplace": "Dietlikon"}, "dim. 22.09.2013": {"year": 2013, "day": 22, "month": 9, "categories": {"H-21-F30": {"distance": 21, "rank": 79, "pace": 374000000000, "time": 7905.7}}, "weekday": "sunday", "livingplace": "Dietlikon"}}, "location": "Basel"}, "ASICS Bremgarter Reusslauf": {"latitude": 47.34917739999999, "longitude": 8.3397905, "race": "ASICS Bremgarter Reusslauf", "date": {"sam. 25.02.2012": {"year": 2012, "day": 25, "month": 2, "categories": {"F30": {"distance": 11, "rank": 126, "pace": 324000000000, "time": 3567.4}}, "weekday": "saturday", "livingplace": "www.ultratriathlon.ch"}, "sam. 26.02.2011": {"year": 2011, "day": 26, "month": 2, "categories": {"F30": {"distance": 11, "rank": 117, "pace": 325000000000, "time": 3579.6}}, "weekday": "saturday", "livingplace": "mega joule.ch"}}, "location": "Bremgarten AG"}, "Winterthur Marathon": {"latitude": 39.8088766, "longitude": -75.6037351, "race": "Winterthur Marathon", "date": {"dim. 29.05.2011": {"year": 2011, "day": 29, "month": 5, "categories": {"H-F30": {"distance": 21, "rank": 76, "pace": 351000000000, "time": 7374.5}}, "weekday": "sunday", "livingplace": "mega joule.ch"}}, "location": "Winterthur"}}, "birth": 1975}