{"name": "Martins Evann", "sex": "M", "races": {"Lausanne Marathon": {"latitude": 46.5196535, "longitude": 6.6322734, "race": "Lausanne Marathon", "date": {"sam. 24.10.2015": {"year": 2015, "day": 24, "month": 10, "categories": {"M-Gar3": {"distance": 2, "rank": 55, "pace": 282000000000, "time": 423.6}}, "weekday": "saturday", "livingplace": "Fiez"}, "dim. 26.10.2014": {"year": 2014, "day": 26, "month": 10, "categories": {"M-Gar2": {"distance": 1, "rank": 54, "pace": 317000000000, "time": 381.3}}, "weekday": "sunday", "livingplace": "Fiez"}}, "location": "Lausanne"}, "Morat-Fribourg": {"latitude": 46.92922110000001, "longitude": 7.120184, "race": "Morat-Fribourg", "date": {"sam. 05.10.2013": {"year": 2013, "day": 5, "month": 10, "categories": {"EcolMD": {"distance": 1, "rank": 102, "pace": 275000000000, "time": 193.0}}, "weekday": "saturday", "livingplace": "Fiez"}, "sam. 06.10.2012": {"year": 2012, "day": 6, "month": 10, "categories": {"EcolMD": {"distance": 1, "rank": 155, "pace": 301000000000, "time": 210.8}}, "weekday": "saturday", "livingplace": "Fiez"}, "sam. 03.10.2015": {"year": 2015, "day": 3, "month": 10, "categories": {"EcolMC": {"distance": 1, "rank": 92, "pace": 258000000000, "time": 362.3}}, "weekday": "saturday", "livingplace": "Fiez"}}, "location": "Murten"}, "Course de l'Avent, Yverdon": {"latitude": 46.8064773, "longitude": 7.161971899999999, "race": "Course de l'Avent, Yverdon", "date": {"dim. 27.11.2011": {"year": 2011, "day": 27, "month": 11, "categories": {"O-Garc1": {"distance": 1, "rank": 12, "pace": 383000000000, "time": 556.4}}, "weekday": "sunday", "livingplace": "Fiez"}}, "location": "Fribourg"}, "10km, Payerne": {"latitude": 46.8220266, "longitude": 6.9405663, "race": "10km, Payerne", "date": {"sam. 16.04.2011": {"year": 2011, "day": 16, "month": 4, "categories": {"M U06": {"distance": 0, "rank": 7, "pace": 323000000000, "time": 97.0}}, "weekday": "saturday", "livingplace": "Fiez"}}, "location": "Payerne"}, "Les Traine-Savates, Cheseaux-sur-Lausanne": {"latitude": 46.585452, "longitude": 6.6047712, "race": "Les Traine-Savates, Cheseaux-sur-Lausanne", "date": {"sam. 18.04.2015": {"year": 2015, "day": 18, "month": 4, "categories": {"U10M": {"distance": 2, "rank": 36, "pace": 302000000000, "time": 513.8}}, "weekday": "saturday", "livingplace": "Fiez"}, "sam. 14.04.2012": {"year": 2012, "day": 14, "month": 4, "categories": {"U10M": {"distance": 2, "rank": 73, "pace": 410000000000, "time": 698.3}}, "weekday": "saturday", "livingplace": "Fiez"}}, "location": "Cheseaux-sur-Lausanne"}, "20km de Lausanne": {"latitude": 46.5196535, "longitude": 6.6322734, "race": "20km de Lausanne", "date": {"sam. 25.04.2015": {"year": 2015, "day": 25, "month": 4, "categories": {"2-H11": {"distance": 2, "rank": 341, "pace": 315000000000, "time": 631.5}}, "weekday": "saturday", "livingplace": "Fiez"}, "sam. 26.04.2014": {"year": 2014, "day": 26, "month": 4, "categories": {"2-PoussM": {"distance": 2, "rank": 175, "pace": 334000000000, "time": 669.7}}, "weekday": "saturday", "livingplace": "Fiez"}}, "location": "Lausanne"}, "BCN Tour #6 Neuch\u00e2tel": {"latitude": 46.9899874, "longitude": 6.9292732, "race": "BCN Tour #6 Neuch\u00e2tel", "date": {"mer. 29.05.2013": {"year": 2013, "day": 29, "month": 5, "categories": {"KGP": {"distance": 0, "rank": 67, "pace": 286000000000, "time": 143.2}}, "weekday": "wednesday", "livingplace": "Fiez"}}, "location": "Neuch\u00e2tel"}}, "birth": 2006}