{"name": "Martin Gustavo", "sex": "M", "races": {"IWB Basel Marathon": {"latitude": 47.5595986, "longitude": 7.5885761, "race": "IWB Basel Marathon", "date": {"dim. 28.09.2014": {"year": 2014, "day": 28, "month": 9, "categories": {"21-M30": {"distance": 21, "rank": 4, "pace": 229000000000, "time": 4850.5}}, "weekday": "sunday", "livingplace": "Basel"}, "dim. 22.09.2013": {"year": 2013, "day": 22, "month": 9, "categories": {"M-42-M30": {"distance": 42, "rank": 3, "pace": 253000000000, "time": 10714.8}}, "weekday": "sunday", "livingplace": "Basel"}}, "location": "Basel"}, "ASICS Bremgarter Reusslauf": {"latitude": 47.34917739999999, "longitude": 8.3397905, "race": "ASICS Bremgarter Reusslauf", "date": {"sam. 23.02.2013": {"year": 2013, "day": 23, "month": 2, "categories": {"11-M30": {"distance": 11, "rank": 72, "pace": 233000000000, "time": 2566.7}}, "weekday": "saturday", "livingplace": "Tria Basilea"}, "sam. 28.02.2015": {"year": 2015, "day": 28, "month": 2, "categories": {"11-M30": {"distance": 11, "rank": 36, "pace": 222000000000, "time": 2442.7}}, "weekday": "saturday", "livingplace": "Roche"}}, "location": "Bremgarten AG"}, "Basler Stadtlauf": {"latitude": 47.5595986, "longitude": 7.5885761, "race": "Basler Stadtlauf", "date": {"sam. 30.11.2013": {"year": 2013, "day": 30, "month": 11, "categories": {"M35": {"distance": 6, "rank": 16, "pace": 216000000000, "time": 1190.7}}, "weekday": "saturday", "livingplace": "Basel"}}, "location": "Basel"}, "Birslauf Basel": {"latitude": 47.5595986, "longitude": 7.5885761, "race": "Birslauf Basel", "date": {"sam. 06.04.2013": {"year": 2013, "day": 6, "month": 4, "categories": {"M\u00e4nner": {"distance": 10, "rank": 28, "pace": 223000000000, "time": 2233.3}}, "weekday": "saturday", "livingplace": "Basel"}}, "location": "Basel"}, "Lausanne Marathon": {"latitude": 46.5196535, "longitude": 6.6322734, "race": "Lausanne Marathon", "date": {"dim. 26.10.2014": {"year": 2014, "day": 26, "month": 10, "categories": {"42-H30": {"distance": 42, "rank": 14, "pace": 254000000000, "time": 10731.6}}, "weekday": "sunday", "livingplace": "Basel"}}, "location": "Lausanne"}, "SwissCityMarathon - Lucerne, Luzern": {"latitude": 47.05016819999999, "longitude": 8.3093072, "race": "SwissCityMarathon - Lucerne, Luzern", "date": {"dim. 25.10.2015": {"year": 2015, "day": 25, "month": 10, "categories": {"M-M35": {"distance": 42, "rank": 11, "pace": 246000000000, "time": 10413.1}}, "weekday": "sunday", "livingplace": "Basel"}, "dim. 27.10.2013": {"year": 2013, "day": 27, "month": 10, "categories": {"H-M30": {"distance": 21, "rank": 22, "pace": 228000000000, "time": 4823.7}}, "weekday": "sunday", "livingplace": "Basel"}}, "location": "Luzern"}, "Dreil\u00e4nder-Lauf, Basel": {"latitude": 47.5595986, "longitude": 7.5885761, "race": "Dreil\u00e4nder-Lauf, Basel", "date": {"dim. 26.05.2013": {"year": 2013, "day": 26, "month": 5, "categories": {"21M30": {"distance": 21, "rank": 7, "pace": 226000000000, "time": 4776.9}}, "weekday": "sunday", "livingplace": "Basel"}}, "location": "Basel"}, "Kerzerslauf": {"latitude": 46.97488999999999, "longitude": 7.1954365, "race": "Kerzerslauf", "date": {"sam. 21.03.2015": {"year": 2015, "day": 21, "month": 3, "categories": {"15-M35": {"distance": 15, "rank": 26, "pace": 232000000000, "time": 3482.0}}, "weekday": "saturday", "livingplace": "Basel"}}, "location": "Kerzers"}}, "birth": 1977}