{"name": "Marti Fabian", "sex": "M", "races": {"Groupe E Tour Fribourg #3, Kerzers": {"latitude": 46.97488999999999, "longitude": 7.1954365, "race": "Groupe E Tour Fribourg #3, Kerzers", "date": {"mer. 03.09.2014": {"year": 2014, "day": 3, "month": 9, "categories": {"Pouss-M": {"distance": 1, "rank": 9, "pace": 389000000000, "time": 233.8}}, "weekday": "wednesday", "livingplace": "Sonceboz Sombeval"}}, "location": "Kerzers"}, "Groupe E Tour Fribourg #3 Estavayer-le-Lac": {"latitude": 46.97488999999999, "longitude": 7.1954365, "race": "Groupe E Tour Fribourg #3 Estavayer-le-Lac", "date": {"mer. 12.09.2012": {"year": 2012, "day": 12, "month": 9, "categories": {"KGM": {"distance": 0, "rank": 1, "pace": 445000000000, "time": 222.6}}, "weekday": "wednesday", "livingplace": "Sonceboz Sombeval"}}, "location": "Kerzers"}, "Groupe E Tour Fribourg #2 Kerzers": {"latitude": 46.6175845, "longitude": 7.1654493, "race": "Groupe E Tour Fribourg #2 Kerzers", "date": {"mer. 28.08.2013": {"year": 2013, "day": 28, "month": 8, "categories": {"KGM": {"distance": 1, "rank": 1, "pace": 450000000000, "time": 270.0}}, "weekday": "wednesday", "livingplace": "Sonceboz Sombeval"}}, "location": "Charmey (Gruy\u00e8re)"}, "BCN Tour #1 Corcelles": {"latitude": 46.9668714, "longitude": 6.8589727, "race": "BCN Tour #1 Corcelles", "date": {"mer. 24.04.2013": {"year": 2013, "day": 24, "month": 4, "categories": {"KGM": {"distance": 0, "rank": 21, "pace": 435000000000, "time": 217.8}}, "weekday": "wednesday", "livingplace": "Sonceboz Sombeval"}}, "location": "Colombier NE"}, "Groupe E Tour Fribourg #4 Montagny": {"latitude": 46.6585092, "longitude": 6.877722, "race": "Groupe E Tour Fribourg #4 Montagny", "date": {"mer. 11.09.2013": {"year": 2013, "day": 11, "month": 9, "categories": {"KGM": {"distance": 1, "rank": 2, "pace": 304000000000, "time": 164.6}}, "weekday": "wednesday", "livingplace": "Sonceboz Sombeval"}}, "location": "Siviriez"}, "Groupe E Tour Fribourg #4 Siviriez": {"latitude": 46.6585092, "longitude": 6.877722, "race": "Groupe E Tour Fribourg #4 Siviriez", "date": {"mer. 19.09.2012": {"year": 2012, "day": 19, "month": 9, "categories": {"KGM": {"distance": 1, "rank": 3, "pace": 412000000000, "time": 231.0}}, "weekday": "wednesday", "livingplace": "Sonceboz Sombeval"}}, "location": "Siviriez"}, "BCN Tour #4 Fleurier": {"latitude": 47.1034892, "longitude": 6.832783800000001, "race": "BCN Tour #4 Fleurier", "date": {"mer. 15.05.2013": {"year": 2013, "day": 15, "month": 5, "categories": {"KGM": {"distance": 0, "rank": 12, "pace": 271000000000, "time": 135.9}}, "weekday": "wednesday", "livingplace": "Sonceboz Sombeval"}}, "location": "La Chaux-de-Fonds"}, "BCN Tour #2 La Chaux-de-Fonds": {"latitude": 47.0624261, "longitude": 6.9175754, "race": "BCN Tour #2 La Chaux-de-Fonds", "date": {"mer. 01.05.2013": {"year": 2013, "day": 1, "month": 5, "categories": {"KGM": {"distance": 0, "rank": 33, "pace": 421000000000, "time": 168.6}}, "weekday": "wednesday", "livingplace": "Sonceboz Sombeval"}}, "location": "Ch\u00e9zard-St-Martin"}, "Groupe E Tour Fribourg #4, Siviriez": {"latitude": 46.6585092, "longitude": 6.877722, "race": "Groupe E Tour Fribourg #4, Siviriez", "date": {"mer. 10.09.2014": {"year": 2014, "day": 10, "month": 9, "categories": {"Pouss-M": {"distance": 1, "rank": 11, "pace": 334000000000, "time": 187.3}}, "weekday": "wednesday", "livingplace": "Sonceboz Sombeval"}}, "location": "Siviriez"}, "Groupe E Tour Fribourg #3 Charmey": {"latitude": 46.97488999999999, "longitude": 7.1954365, "race": "Groupe E Tour Fribourg #3 Charmey", "date": {"mer. 04.09.2013": {"year": 2013, "day": 4, "month": 9, "categories": {"KGM": {"distance": 1, "rank": 1, "pace": 345000000000, "time": 190.0}}, "weekday": "wednesday", "livingplace": "Sonceboz Sombeval"}}, "location": "Kerzers"}, "BCN Tour #6 Neuch\u00e2tel": {"latitude": 46.9899874, "longitude": 6.9292732, "race": "BCN Tour #6 Neuch\u00e2tel", "date": {"mer. 29.05.2013": {"year": 2013, "day": 29, "month": 5, "categories": {"KGM": {"distance": 0, "rank": 23, "pace": 321000000000, "time": 160.5}}, "weekday": "wednesday", "livingplace": "Sonceboz Sombeval"}}, "location": "Neuch\u00e2tel"}, "Groupe E Tour Fribourg #2, Charmey": {"latitude": 46.6175845, "longitude": 7.1654493, "race": "Groupe E Tour Fribourg #2, Charmey", "date": {"mer. 27.08.2014": {"year": 2014, "day": 27, "month": 8, "categories": {"Pouss-M": {"distance": 1, "rank": 7, "pace": 288000000000, "time": 158.8}}, "weekday": "wednesday", "livingplace": "Sonceboz Sombeval"}}, "location": "Charmey (Gruy\u00e8re)"}, "Groupe E Tour Fribourg #5 Fribourg": {"latitude": 46.8128615, "longitude": 7.131657799999999, "race": "Groupe E Tour Fribourg #5 Fribourg", "date": {"mer. 18.09.2013": {"year": 2013, "day": 18, "month": 9, "categories": {"KGM": {"distance": 0, "rank": 1, "pace": 297000000000, "time": 142.8}}, "weekday": "wednesday", "livingplace": "Sonceboz Sombeval"}, "mer. 26.09.2012": {"year": 2012, "day": 26, "month": 9, "categories": {"KGM": {"distance": 0, "rank": 2, "pace": 413000000000, "time": 198.6}}, "weekday": "wednesday", "livingplace": "Sonceboz Sombeval"}}, "location": "Givisiez"}, "Groupe E Tour Fribourg #1 Siviriez": {"latitude": 46.81832, "longitude": 6.977279999999999, "race": "Groupe E Tour Fribourg #1 Siviriez", "date": {"mer. 21.08.2013": {"year": 2013, "day": 21, "month": 8, "categories": {"KGM": {"distance": 1, "rank": 1, "pace": 372000000000, "time": 208.4}}, "weekday": "wednesday", "livingplace": "Sonceboz Sombeval"}}, "location": "Cousset"}, "BCN Tour #5 Colombier": {"latitude": 46.9262933, "longitude": 6.6324944, "race": "BCN Tour #5 Colombier", "date": {"mer. 22.05.2013": {"year": 2013, "day": 22, "month": 5, "categories": {"KGM": {"distance": 0, "rank": 12, "pace": 397000000000, "time": 198.7}}, "weekday": "wednesday", "livingplace": "Sonceboz Sombeval"}}, "location": "Couvet"}, "Groupe E Tour Fribourg #5, Givisiez": {"latitude": 46.8128615, "longitude": 7.131657799999999, "race": "Groupe E Tour Fribourg #5, Givisiez", "date": {"mer. 17.09.2014": {"year": 2014, "day": 17, "month": 9, "categories": {"Pouss-M": {"distance": 1, "rank": 16, "pace": 481000000000, "time": 289.1}}, "weekday": "wednesday", "livingplace": "Sonceboz Sombeval"}}, "location": "Givisiez"}, "Groupe E Tour Fribourg #1, Cousset": {"latitude": 46.81832, "longitude": 6.977279999999999, "race": "Groupe E Tour Fribourg #1, Cousset", "date": {"mer. 20.08.2014": {"year": 2014, "day": 20, "month": 8, "categories": {"Pouss-M": {"distance": 1, "rank": 10, "pace": 352000000000, "time": 190.5}}, "weekday": "wednesday", "livingplace": "Sonceboz Sombeval"}}, "location": "Cousset"}, "BCN Tour #3 Dombresson": {"latitude": 46.999113, "longitude": 6.733554799999999, "race": "BCN Tour #3 Dombresson", "date": {"mer. 08.05.2013": {"year": 2013, "day": 8, "month": 5, "categories": {"KGM": {"distance": 1, "rank": 26, "pace": 409000000000, "time": 245.6}}, "weekday": "wednesday", "livingplace": "Sonceboz Sombeval"}}, "location": "Les Ponts-de-Martel"}}, "birth": 2008}