{"name": "Martignier Patrice", "sex": "M", "races": {"Morat-Fribourg": {"latitude": 46.92922110000001, "longitude": 7.120184, "race": "Morat-Fribourg", "date": {"sam. 06.10.2007": {"year": 2007, "day": 6, "month": 10, "categories": {"C/M20": {"distance": 17, "rank": 214, "pace": 254000000000, "time": 4370.5}}, "weekday": "saturday", "livingplace": "Eclepens"}}, "location": "Murten"}, "20km de Lausanne": {"latitude": 46.5196535, "longitude": 6.6322734, "race": "20km de Lausanne", "date": {"sam. 28.04.2007": {"year": 2007, "day": 28, "month": 4, "categories": {"10H30": {"distance": 10, "rank": 50, "pace": 248000000000, "time": 2486.9}}, "weekday": "saturday", "livingplace": "Eclepens"}, "sam. 22.04.2006": {"year": 2006, "day": 22, "month": 4, "categories": {"10/H30": {"distance": 10, "rank": 73, "pace": 266000000000, "time": 2660.3}}, "weekday": "saturday", "livingplace": "Eclepens"}}, "location": "Lausanne"}, "Course de l'Escalade, Gen\u00e8ve": {"latitude": 46.2043907, "longitude": 6.1431577, "race": "Course de l'Escalade, Gen\u00e8ve", "date": {"sam. 01.12.2007": {"year": 2007, "day": 1, "month": 12, "categories": {"Hommes2": {"distance": 7, "rank": 66, "pace": 233000000000, "time": 1694.7}}, "weekday": "saturday", "livingplace": "Eclepens"}, "sam. 02.12.2006": {"year": 2006, "day": 2, "month": 12, "categories": {"Hommes2": {"distance": 7, "rank": 87, "pace": 232000000000, "time": 1684.1}}, "weekday": "saturday", "livingplace": "Eclepens"}}, "location": "Gen\u00e8ve"}, "Kerzerslauf": {"latitude": 46.97488999999999, "longitude": 7.1954365, "race": "Kerzerslauf", "date": {"sam. 17.03.2007": {"year": 2007, "day": 17, "month": 3, "categories": {"M20": {"distance": 15, "rank": 176, "pace": 249000000000, "time": 3740.5}}, "weekday": "saturday", "livingplace": "Eclepens"}}, "location": "Kerzers"}, "Tour du Pays de Vaud etape 3 - Aubonne": {"latitude": 46.7829756, "longitude": 6.5728678, "race": "Tour du Pays de Vaud etape 3 - Aubonne", "date": {"mer. 29.08.2007": {"year": 2007, "day": 29, "month": 8, "categories": {"HS1": {"distance": 8, "rank": 10, "pace": 248000000000, "time": 2015.6}}, "weekday": "wednesday", "livingplace": "Eclepens"}}, "location": "Champvent"}}, "birth": 1976}