{"name": "Martin Jean-Christophe", "sex": "M", "races": {"Tour du Pays de Vaud #2 - Genolier": {"latitude": 46.5955273, "longitude": 6.7702883, "race": "Tour du Pays de Vaud #2 - Genolier", "date": {"mer. 17.08.2011": {"year": 2011, "day": 17, "month": 8, "categories": {"H-Sen3": {"distance": 9, "rank": 52, "pace": 323000000000, "time": 2747.0}}, "weekday": "wednesday", "livingplace": "Bremblens"}}, "location": "M\u00e9zi\u00e8res VD"}, "Tour du pays de Vaud #6 - St  Prex": {"latitude": 46.4829113, "longitude": 6.458343500000001, "race": "Tour du pays de Vaud #6 - St  Prex", "date": {"mer. 14.09.2011": {"year": 2011, "day": 14, "month": 9, "categories": {"H-Sen3": {"distance": 9, "rank": 78, "pace": 308000000000, "time": 2655.5}}, "weekday": "wednesday", "livingplace": "Bremblens"}}, "location": "St-Prex"}, "Semi-Marathon de la C\u00f4te, Allaman-Nyon": {"latitude": 46.3832683, "longitude": 6.2347852, "race": "Semi-Marathon de la C\u00f4te, Allaman-Nyon", "date": {"dim. 14.09.2014": {"year": 2014, "day": 14, "month": 9, "categories": {"21-H50": {"distance": 21, "rank": 84, "pace": 338000000000, "time": 7133.9}}, "weekday": "sunday", "livingplace": "Bremblens"}}, "location": "Nyon"}, "Tour du pays de Vaud #1 - Mezi\u00e8res": {"latitude": 46.7784736, "longitude": 6.641183, "race": "Tour du pays de Vaud #1 - Mezi\u00e8res", "date": {"mer. 10.08.2011": {"year": 2011, "day": 10, "month": 8, "categories": {"H-Sen3": {"distance": 9, "rank": 71, "pace": 318000000000, "time": 2711.3}}, "weekday": "wednesday", "livingplace": "Bremblens"}}, "location": "Yverdon-les-Bains"}, "Tour du pays de Vaud #5 - Penthaz": {"latitude": 46.5993131, "longitude": 6.539251200000001, "race": "Tour du pays de Vaud #5 - Penthaz", "date": {"mer. 07.09.2011": {"year": 2011, "day": 7, "month": 9, "categories": {"H-Sen3": {"distance": 8, "rank": 69, "pace": 360000000000, "time": 3006.2}}, "weekday": "wednesday", "livingplace": "Bremblens"}}, "location": "Penthaz"}, "20km de Lausanne": {"latitude": 46.5196535, "longitude": 6.6322734, "race": "20km de Lausanne", "date": {"sam. 27.04.2013": {"year": 2013, "day": 27, "month": 4, "categories": {"10-H50": {"distance": 10, "rank": 128, "pace": 308000000000, "time": 3083.9}}, "weekday": "saturday", "livingplace": "Les blaireaux"}, "sam. 28.04.2012": {"year": 2012, "day": 28, "month": 4, "categories": {"10-H50": {"distance": 10, "rank": 111, "pace": 318000000000, "time": 3189.0}}, "weekday": "saturday", "livingplace": "Bremblens"}}, "location": "Lausanne"}, "Tour du Pays de Vaud #4 - La Sarraz": {"latitude": 46.7088129, "longitude": 6.5707689, "race": "Tour du Pays de Vaud #4 - La Sarraz", "date": {"mer. 29.08.2012": {"year": 2012, "day": 29, "month": 8, "categories": {"H-Sen3": {"distance": 9, "rank": 83, "pace": 321000000000, "time": 2733.1}}, "weekday": "wednesday", "livingplace": "Bremblens"}, "mer. 04.09.2013": {"year": 2013, "day": 4, "month": 9, "categories": {"H-Sen3": {"distance": 9, "rank": 71, "pace": 338000000000, "time": 2873.6}}, "weekday": "wednesday", "livingplace": "Bremblens"}}, "location": "Chavornay"}}, "birth": 1960}