{"name": "Martinet Nathalie", "sex": "F", "races": {"Les Traine-Savates, Cheseaux-sur-Lausanne": {"latitude": 46.585452, "longitude": 6.6047712, "race": "Les Traine-Savates, Cheseaux-sur-Lausanne", "date": {"sam. 09.04.2011": {"year": 2011, "day": 9, "month": 4, "categories": {"10-W40": {"distance": 10, "rank": 38, "pace": 317000000000, "time": 3301.8}}, "weekday": "saturday", "livingplace": "Sullens"}, "sam. 12.04.2014": {"year": 2014, "day": 12, "month": 4, "categories": {"10-W40": {"distance": 10, "rank": 23, "pace": 318000000000, "time": 3275.4}}, "weekday": "saturday", "livingplace": "Sullens"}}, "location": "Cheseaux-sur-Lausanne"}, "20km de Lausanne": {"latitude": 46.5196535, "longitude": 6.6322734, "race": "20km de Lausanne", "date": {"sam. 26.04.2014": {"year": 2014, "day": 26, "month": 4, "categories": {"20-F45": {"distance": 20, "rank": 37, "pace": 322000000000, "time": 6451.0}}, "weekday": "saturday", "livingplace": "Sullens"}}, "location": "Lausanne"}, "Morat-Fribourg": {"latitude": 46.92922110000001, "longitude": 7.120184, "race": "Morat-Fribourg", "date": {"dim. 05.10.2003": {"year": 2003, "day": 5, "month": 10, "categories": {"W20": {"distance": 17, "rank": 90, "pace": 309000000000, "time": 5307.2}}, "weekday": "sunday", "livingplace": "Jouxtens Mezery"}, "dim. 07.10.2001": {"year": 2001, "day": 7, "month": 10, "categories": {"W20": {"distance": 17, "rank": 83, "pace": 310000000000, "time": 5334.9}}, "weekday": "sunday", "livingplace": "Jouxtens Mezery"}}, "location": "Murten"}, "Tour du pays de Vaud #1 - Penthaz": {"latitude": 46.5993131, "longitude": 6.539251200000001, "race": "Tour du pays de Vaud #1 - Penthaz", "date": {"mer. 14.08.2013": {"year": 2013, "day": 14, "month": 8, "categories": {"D-Sen2": {"distance": 9, "rank": 29, "pace": 322000000000, "time": 2749.8}}, "weekday": "wednesday", "livingplace": "Sullens"}}, "location": "Penthaz"}, "Kerzerslauf": {"latitude": 46.97488999999999, "longitude": 7.1954365, "race": "Kerzerslauf", "date": {"sam. 15.03.2014": {"year": 2014, "day": 15, "month": 3, "categories": {"15-F45": {"distance": 15, "rank": 179, "pace": 340000000000, "time": 5100.0}}, "weekday": "saturday", "livingplace": "Sullens"}}, "location": "Kerzers"}}, "birth": 1969}