{"name": "Martino Deborah", "sex": "F", "races": {"Tour du pays de Vaud #1 - Penthaz": {"latitude": 46.5993131, "longitude": 6.539251200000001, "race": "Tour du pays de Vaud #1 - Penthaz", "date": {"mer. 14.08.2013": {"year": 2013, "day": 14, "month": 8, "categories": {"D-Dam": {"distance": 9, "rank": 41, "pace": 371000000000, "time": 3171.4}}, "weekday": "wednesday", "livingplace": "Renens"}, "mer. 08.08.2012": {"year": 2012, "day": 8, "month": 8, "categories": {"D-Dam": {"distance": 9, "rank": 35, "pace": 338000000000, "time": 2887.2}}, "weekday": "wednesday", "livingplace": "Renens"}}, "location": "Penthaz"}, "Tour du Pays de Vaud #4 - La Sarraz": {"latitude": 46.7088129, "longitude": 6.5707689, "race": "Tour du Pays de Vaud #4 - La Sarraz", "date": {"mer. 29.08.2012": {"year": 2012, "day": 29, "month": 8, "categories": {"D-Dam": {"distance": 9, "rank": 36, "pace": 338000000000, "time": 2880.4}}, "weekday": "wednesday", "livingplace": "Renens"}, "mer. 04.09.2013": {"year": 2013, "day": 4, "month": 9, "categories": {"D-Dam": {"distance": 9, "rank": 33, "pace": 355000000000, "time": 3023.5}}, "weekday": "wednesday", "livingplace": "Renens"}}, "location": "Chavornay"}, "Tour du Pays de Vaud #2 - Mezi\u00e8res": {"latitude": 46.5955273, "longitude": 6.7702883, "race": "Tour du Pays de Vaud #2 - Mezi\u00e8res", "date": {"mer. 21.08.2013": {"year": 2013, "day": 21, "month": 8, "categories": {"D-Dam": {"distance": 8, "rank": 36, "pace": 388000000000, "time": 3147.2}}, "weekday": "wednesday", "livingplace": "Renens"}}, "location": "M\u00e9zi\u00e8res VD"}, "20km de Lausanne": {"latitude": 46.5196535, "longitude": 6.6322734, "race": "20km de Lausanne", "date": {"sam. 25.04.2015": {"year": 2015, "day": 25, "month": 4, "categories": {"10-F20": {"distance": 10, "rank": 457, "pace": 341000000000, "time": 3412.7}}, "weekday": "saturday", "livingplace": "Renens"}}, "location": "Lausanne"}, "Tour du Pays de Vaud #3 - Chavornay": {"latitude": 46.7784736, "longitude": 6.641183, "race": "Tour du Pays de Vaud #3 - Chavornay", "date": {"mer. 28.08.2013": {"year": 2013, "day": 28, "month": 8, "categories": {"D-Dam": {"distance": 9, "rank": 29, "pace": 336000000000, "time": 2994.9}}, "weekday": "wednesday", "livingplace": "Renens"}}, "location": "Yverdon-les-Bains"}}, "birth": 1992}