{"name": "Martinez Nicolas", "sex": "M", "races": {"BCN Tour #3 Dombresson": {"latitude": 46.999113, "longitude": 6.733554799999999, "race": "BCN Tour #3 Dombresson", "date": {"mer. 08.05.2013": {"year": 2013, "day": 8, "month": 5, "categories": {"KG4": {"distance": 3, "rank": 5, "pace": 225000000000, "time": 564.0}}, "weekday": "wednesday", "livingplace": "Le Locle"}}, "location": "Les Ponts-de-Martel"}, "BCN Tour #6 Neuch\u00e2tel": {"latitude": 46.9899874, "longitude": 6.9292732, "race": "BCN Tour #6 Neuch\u00e2tel", "date": {"mer. 29.05.2013": {"year": 2013, "day": 29, "month": 5, "categories": {"KG4": {"distance": 2, "rank": 3, "pace": 190000000000, "time": 419.6}}, "weekday": "wednesday", "livingplace": "Le Locle"}}, "location": "Neuch\u00e2tel"}, "BCN Tour #5 Colombier": {"latitude": 46.9262933, "longitude": 6.6324944, "race": "BCN Tour #5 Colombier", "date": {"mer. 22.05.2013": {"year": 2013, "day": 22, "month": 5, "categories": {"KG4": {"distance": 2, "rank": 2, "pace": 206000000000, "time": 476.0}}, "weekday": "wednesday", "livingplace": "Le Locle"}}, "location": "Couvet"}, "20km de Lausanne": {"latitude": 46.5196535, "longitude": 6.6322734, "race": "20km de Lausanne", "date": {"sam. 25.04.2009": {"year": 2009, "day": 25, "month": 4, "categories": {"EcolD-M": {"distance": 2, "rank": 21, "pace": 259000000000, "time": 519.7}}, "weekday": "saturday", "livingplace": "Lausanne"}, "sam. 25.04.2015": {"year": 2015, "day": 25, "month": 4, "categories": {"4-H17": {"distance": 4, "rank": 17, "pace": 217000000000, "time": 870.1}}, "weekday": "saturday", "livingplace": "Le Locle"}}, "location": "Lausanne"}, "BCN Tour #1 Corcelles": {"latitude": 46.9668714, "longitude": 6.8589727, "race": "BCN Tour #1 Corcelles", "date": {"mer. 24.04.2013": {"year": 2013, "day": 24, "month": 4, "categories": {"KG4": {"distance": 3, "rank": 9, "pace": 260000000000, "time": 728.4}}, "weekday": "wednesday", "livingplace": "Le Locle"}}, "location": "Colombier NE"}, "Kerzerslauf": {"latitude": 46.97488999999999, "longitude": 7.1954365, "race": "Kerzerslauf", "date": {"sam. 21.03.2015": {"year": 2015, "day": 21, "month": 3, "categories": {"5-U18M": {"distance": 5, "rank": 15, "pace": 233000000000, "time": 1168.0}}, "weekday": "saturday", "livingplace": "Le Locle"}}, "location": "Kerzers"}, "BCN Tour #4 Fleurier": {"latitude": 47.1034892, "longitude": 6.832783800000001, "race": "BCN Tour #4 Fleurier", "date": {"mer. 15.05.2013": {"year": 2013, "day": 15, "month": 5, "categories": {"KG4": {"distance": 3, "rank": 5, "pace": 213000000000, "time": 534.6}}, "weekday": "wednesday", "livingplace": "Le Locle"}}, "location": "La Chaux-de-Fonds"}}, "birth": 1999}