{"name": "Martinez Gonzales Nicolas", "sex": "M", "races": {"BCN Tour La Chaux-de-Fonds": {"latitude": 46.9262933, "longitude": 6.6324944, "race": "BCN Tour La Chaux-de-Fonds", "date": {"mer. 23.05.2012": {"year": 2012, "day": 23, "month": 5, "categories": {"KG3": {"distance": 4, "rank": 7, "pace": 260000000000, "time": 936.3}}, "weekday": "wednesday", "livingplace": "Les Brenets"}}, "location": "Couvet"}, "BCN Tour Les Ponts-de-Martel": {"latitude": 46.999113, "longitude": 6.733554799999999, "race": "BCN Tour Les Ponts-de-Martel", "date": {"mer. 09.05.2012": {"year": 2012, "day": 9, "month": 5, "categories": {"KG3": {"distance": 4, "rank": 9, "pace": 255000000000, "time": 971.6}}, "weekday": "wednesday", "livingplace": "Les Brenets"}}, "location": "Les Ponts-de-Martel"}, "BCN Tour Neuch\u00e2tel": {"latitude": 46.9899874, "longitude": 6.9292732, "race": "BCN Tour Neuch\u00e2tel", "date": {"mer. 30.05.2012": {"year": 2012, "day": 30, "month": 5, "categories": {"KG3": {"distance": 3, "rank": 6, "pace": 230000000000, "time": 714.9}}, "weekday": "wednesday", "livingplace": "Les Brenets"}}, "location": "Neuch\u00e2tel"}, "BCN Tour Couvet": {"latitude": 47.0624261, "longitude": 6.9175754, "race": "BCN Tour Couvet", "date": {"mer. 02.05.2012": {"year": 2012, "day": 2, "month": 5, "categories": {"KG3": {"distance": 4, "rank": 6, "pace": 253000000000, "time": 938.7}}, "weekday": "wednesday", "livingplace": "Les Brenets"}}, "location": "Ch\u00e9zard-St-Martin"}, "BCN Tour Colombier": {"latitude": 47.1034892, "longitude": 6.832783800000001, "race": "BCN Tour Colombier", "date": {"mer. 16.05.2012": {"year": 2012, "day": 16, "month": 5, "categories": {"KG3": {"distance": 3, "rank": 6, "pace": 243000000000, "time": 731.9}}, "weekday": "wednesday", "livingplace": "Les Brenets"}}, "location": "La Chaux-de-Fonds"}, "BCN Tour Cornaux": {"latitude": 46.9668714, "longitude": 6.8589727, "race": "BCN Tour Cornaux", "date": {"mer. 25.04.2012": {"year": 2012, "day": 25, "month": 4, "categories": {"KG3": {"distance": 3, "rank": 5, "pace": 237000000000, "time": 666.3}}, "weekday": "wednesday", "livingplace": "Les Brenets"}}, "location": "Colombier NE"}}, "birth": 1999}