{"name": "Massonnet Jonathan", "sex": "M", "races": {"10km, Payerne": {"latitude": 46.8220266, "longitude": 6.9405663, "race": "10km, Payerne", "date": {"sam. 10.03.2012": {"year": 2012, "day": 10, "month": 3, "categories": {"M30": {"distance": 10, "rank": 80, "pace": 314000000000, "time": 3140.5}}, "weekday": "saturday", "livingplace": "Marly"}}, "location": "Payerne"}, "Tour du Pays de Vaud #3 - Mezi\u00e8res": {"latitude": 46.7784736, "longitude": 6.641183, "race": "Tour du Pays de Vaud #3 - Mezi\u00e8res", "date": {"mer. 22.08.2012": {"year": 2012, "day": 22, "month": 8, "categories": {"H-Sen1": {"distance": 8, "rank": 146, "pace": 352000000000, "time": 2963.0}}, "weekday": "wednesday", "livingplace": "Neyruz"}}, "location": "Yverdon-les-Bains"}, "Tour du Pays de Vaud printanier #1 Moudon": {"latitude": 46.3832683, "longitude": 6.2347852, "race": "Tour du Pays de Vaud printanier #1 Moudon", "date": {"mer. 04.06.2014": {"year": 2014, "day": 4, "month": 6, "categories": {"H-Sen1": {"distance": 8, "rank": 94, "pace": 343000000000, "time": 2889.0}}, "weekday": "wednesday", "livingplace": "Neyruz"}}, "location": "Nyon"}, "Morat-Fribourg": {"latitude": 46.92922110000001, "longitude": 7.120184, "race": "Morat-Fribourg", "date": {"sam. 05.10.2013": {"year": 2013, "day": 5, "month": 10, "categories": {"17-M20": {"distance": 17, "rank": 2329, "pace": 411000000000, "time": 7175.4}}, "weekday": "saturday", "livingplace": "Neyruz"}}, "location": "Murten"}, "Tour du Pays de Vaud #2, Mezi\u00e8res": {"latitude": 46.5955273, "longitude": 6.7702883, "race": "Tour du Pays de Vaud #2, Mezi\u00e8res", "date": {"mer. 20.08.2014": {"year": 2014, "day": 20, "month": 8, "categories": {"H-Sen1": {"distance": 8, "rank": 121, "pace": 367000000000, "time": 2977.5}}, "weekday": "wednesday", "livingplace": "Neyruz"}}, "location": "M\u00e9zi\u00e8res VD"}, "Tour du Pays de Vaud #3 - Chavornay": {"latitude": 46.7784736, "longitude": 6.641183, "race": "Tour du Pays de Vaud #3 - Chavornay", "date": {"mer. 28.08.2013": {"year": 2013, "day": 28, "month": 8, "categories": {"H-Sen1": {"distance": 9, "rank": 144, "pace": 333000000000, "time": 2966.9}}, "weekday": "wednesday", "livingplace": "Neyruz"}}, "location": "Yverdon-les-Bains"}, "Tour du pays de Vaud #5 - Penthaz": {"latitude": 46.5993131, "longitude": 6.539251200000001, "race": "Tour du pays de Vaud #5 - Penthaz", "date": {"mer. 07.09.2011": {"year": 2011, "day": 7, "month": 9, "categories": {"H-Sen1": {"distance": 8, "rank": 139, "pace": 369000000000, "time": 3087.8}}, "weekday": "wednesday", "livingplace": "Fribourg"}}, "location": "Penthaz"}, "Tour du pays de Vaud #1 - Penthaz": {"latitude": 46.5993131, "longitude": 6.539251200000001, "race": "Tour du pays de Vaud #1 - Penthaz", "date": {"mer. 08.08.2012": {"year": 2012, "day": 8, "month": 8, "categories": {"H-Sen1": {"distance": 9, "rank": 145, "pace": 324000000000, "time": 2771.0}}, "weekday": "wednesday", "livingplace": "Neyruz"}}, "location": "Penthaz"}, "Tour du Pays de Vaud #4 - La Sarraz": {"latitude": 46.7088129, "longitude": 6.5707689, "race": "Tour du Pays de Vaud #4 - La Sarraz", "date": {"mer. 29.08.2012": {"year": 2012, "day": 29, "month": 8, "categories": {"H-Sen1": {"distance": 9, "rank": 142, "pace": 309000000000, "time": 2632.3}}, "weekday": "wednesday", "livingplace": "Neyruz"}}, "location": "Chavornay"}, "Les Traine-Savates, Cheseaux-sur-Lausanne": {"latitude": 46.585452, "longitude": 6.6047712, "race": "Les Traine-Savates, Cheseaux-sur-Lausanne", "date": {"sam. 12.04.2014": {"year": 2014, "day": 12, "month": 4, "categories": {"10-M20": {"distance": 10, "rank": 196, "pace": 303000000000, "time": 3123.4}}, "weekday": "saturday", "livingplace": "Neyruz"}}, "location": "Cheseaux-sur-Lausanne"}}, "birth": 1981}