{"name": "Masset Jean-Bernard", "sex": "M", "races": {"Tour du Pays de Vaud etape 5 - La Sarraz": {"latitude": 46.5993131, "longitude": 6.539251200000001, "race": "Tour du Pays de Vaud etape 5 - La Sarraz", "date": {"mer. 09.09.2009": {"year": 2009, "day": 9, "month": 9, "categories": {"HS2": {"distance": 9, "rank": 144, "pace": 337000000000, "time": 2834.7}}, "weekday": "wednesday", "livingplace": "Lausanne"}}, "location": "Penthaz"}, "Tour du pays de Vaud #1 \u2013 St  Prex": {"latitude": 46.7784736, "longitude": 6.641183, "race": "Tour du pays de Vaud #1 \u2013 St  Prex", "date": {"mer. 11.08.2010": {"year": 2010, "day": 11, "month": 8, "categories": {"HSen3": {"distance": 8, "rank": 76, "pace": 358000000000, "time": 3012.1}}, "weekday": "wednesday", "livingplace": "Lausanne"}}, "location": "Yverdon-les-Bains"}, "Morat-Fribourg": {"latitude": 46.92922110000001, "longitude": 7.120184, "race": "Morat-Fribourg", "date": {"sam. 05.10.2013": {"year": 2013, "day": 5, "month": 10, "categories": {"17-M50": {"distance": 17, "rank": 458, "pace": 350000000000, "time": 6123.3}}, "weekday": "saturday", "livingplace": "Lausanne"}, "sam. 01.10.2011": {"year": 2011, "day": 1, "month": 10, "categories": {"17-M50": {"distance": 17, "rank": 379, "pace": 346000000000, "time": 5950.4}}, "weekday": "saturday", "livingplace": "Lausanne"}, "sam. 06.10.2012": {"year": 2012, "day": 6, "month": 10, "categories": {"17-M50": {"distance": 17, "rank": 418, "pace": 358000000000, "time": 6255.2}}, "weekday": "saturday", "livingplace": "Lausanne"}, "sam. 04.10.2014": {"year": 2014, "day": 4, "month": 10, "categories": {"17-M50": {"distance": 17, "rank": 492, "pace": 375000000000, "time": 6451.4}}, "weekday": "saturday", "livingplace": "Auboranges"}}, "location": "Murten"}, "Tour du Pays de Vaud #2, Mezi\u00e8res": {"latitude": 46.5955273, "longitude": 6.7702883, "race": "Tour du Pays de Vaud #2, Mezi\u00e8res", "date": {"mer. 20.08.2014": {"year": 2014, "day": 20, "month": 8, "categories": {"H-Sen3": {"distance": 8, "rank": 70, "pace": 371000000000, "time": 3011.1}}, "weekday": "wednesday", "livingplace": "Lausanne"}}, "location": "M\u00e9zi\u00e8res VD"}, "Tour du pays de Vaud #1 - Mezi\u00e8res": {"latitude": 46.7784736, "longitude": 6.641183, "race": "Tour du pays de Vaud #1 - Mezi\u00e8res", "date": {"mer. 10.08.2011": {"year": 2011, "day": 10, "month": 8, "categories": {"H-Sen3": {"distance": 9, "rank": 77, "pace": 327000000000, "time": 2780.4}}, "weekday": "wednesday", "livingplace": "Lausanne"}}, "location": "Yverdon-les-Bains"}, "Tour du Pays de Vaud #3 - Mezi\u00e8res": {"latitude": 46.7784736, "longitude": 6.641183, "race": "Tour du Pays de Vaud #3 - Mezi\u00e8res", "date": {"mer. 22.08.2012": {"year": 2012, "day": 22, "month": 8, "categories": {"H-Sen3": {"distance": 8, "rank": 78, "pace": 357000000000, "time": 3003.7}}, "weekday": "wednesday", "livingplace": "Lausanne"}}, "location": "Yverdon-les-Bains"}, "Tour du Pays de Vaud etape 1 - Le Mont sur Lausanne": {"latitude": 46.7784736, "longitude": 6.641183, "race": "Tour du Pays de Vaud etape 1 - Le Mont sur Lausanne", "date": {"mer. 13.08.2008": {"year": 2008, "day": 13, "month": 8, "categories": {"HomSen2": {"distance": 8, "rank": 111, "pace": 319000000000, "time": 2687.6}}, "weekday": "wednesday", "livingplace": "Lausanne"}}, "location": "Yverdon-les-Bains"}, "Tour du Pays de Vaud #5 - La Sarraz": {"latitude": 46.5993131, "longitude": 6.539251200000001, "race": "Tour du Pays de Vaud #5 - La Sarraz", "date": {"mer. 08.09.2010": {"year": 2010, "day": 8, "month": 9, "categories": {"HSen3": {"distance": 9, "rank": 67, "pace": 342000000000, "time": 3116.6}}, "weekday": "wednesday", "livingplace": "Lausanne"}}, "location": "Penthaz"}, "Tour du Pays de Vaud #2 - Mezi\u00e8res": {"latitude": 46.5955273, "longitude": 6.7702883, "race": "Tour du Pays de Vaud #2 - Mezi\u00e8res", "date": {"mer. 21.08.2013": {"year": 2013, "day": 21, "month": 8, "categories": {"H-Sen3": {"distance": 8, "rank": 73, "pace": 363000000000, "time": 2942.8}}, "weekday": "wednesday", "livingplace": "Lausanne"}}, "location": "M\u00e9zi\u00e8res VD"}, "Tour du Pays de Vaud #3, Chavornay": {"latitude": 46.7784736, "longitude": 6.641183, "race": "Tour du Pays de Vaud #3, Chavornay", "date": {"mer. 27.08.2014": {"year": 2014, "day": 27, "month": 8, "categories": {"H-Sen3": {"distance": 9, "rank": 72, "pace": 346000000000, "time": 2983.2}}, "weekday": "wednesday", "livingplace": "Lausanne"}}, "location": "Yverdon-les-Bains"}, "Tour du Pays de Vaud etape 2 - Genolier": {"latitude": 46.5955273, "longitude": 6.7702883, "race": "Tour du Pays de Vaud etape 2 - Genolier", "date": {"mer. 20.08.2008": {"year": 2008, "day": 20, "month": 8, "categories": {"HomSen2": {"distance": 8, "rank": 110, "pace": 319000000000, "time": 2652.9}}, "weekday": "wednesday", "livingplace": "Lausanne"}, "mer. 19.08.2009": {"year": 2009, "day": 19, "month": 8, "categories": {"HSen2": {"distance": 8, "rank": 141, "pace": 352000000000, "time": 2851.3}}, "weekday": "wednesday", "livingplace": "Lausanne"}}, "location": "M\u00e9zi\u00e8res VD"}, "Tour du Pays de Vaud #3 - Chavornay": {"latitude": 46.7784736, "longitude": 6.641183, "race": "Tour du Pays de Vaud #3 - Chavornay", "date": {"mer. 28.08.2013": {"year": 2013, "day": 28, "month": 8, "categories": {"H-Sen3": {"distance": 9, "rank": 84, "pace": 330000000000, "time": 2941.0}}, "weekday": "wednesday", "livingplace": "Lausanne"}}, "location": "Yverdon-les-Bains"}, "Tour du pays de Vaud #5 - Penthaz": {"latitude": 46.5993131, "longitude": 6.539251200000001, "race": "Tour du pays de Vaud #5 - Penthaz", "date": {"mer. 07.09.2011": {"year": 2011, "day": 7, "month": 9, "categories": {"H-Sen3": {"distance": 8, "rank": 66, "pace": 357000000000, "time": 2985.6}}, "weekday": "wednesday", "livingplace": "Lausanne"}}, "location": "Penthaz"}, "Tour du Pays de Vaud #4 - La Sarraz": {"latitude": 46.7088129, "longitude": 6.5707689, "race": "Tour du Pays de Vaud #4 - La Sarraz", "date": {"mer. 29.08.2012": {"year": 2012, "day": 29, "month": 8, "categories": {"H-Sen3": {"distance": 9, "rank": 87, "pace": 325000000000, "time": 2763.1}}, "weekday": "wednesday", "livingplace": "Lausanne"}, "mer. 04.09.2013": {"year": 2013, "day": 4, "month": 9, "categories": {"H-Sen3": {"distance": 9, "rank": 80, "pace": 347000000000, "time": 2951.1}}, "weekday": "wednesday", "livingplace": "Lausanne"}}, "location": "Chavornay"}, "Tour du pays de Vaud #1 - Penthaz": {"latitude": 46.5993131, "longitude": 6.539251200000001, "race": "Tour du pays de Vaud #1 - Penthaz", "date": {"mer. 08.08.2012": {"year": 2012, "day": 8, "month": 8, "categories": {"H-Sen3": {"distance": 9, "rank": 66, "pace": 336000000000, "time": 2869.3}}, "weekday": "wednesday", "livingplace": "Lausanne"}}, "location": "Penthaz"}}, "birth": 1960}