{"name": "Masserey Pierre", "sex": "M", "races": {"Tour du Chablais #2 Rennaz": {"latitude": 46.3835529, "longitude": 6.854975199999999, "race": "Tour du Chablais #2 Rennaz", "date": {"mer. 04.05.2011": {"year": 2011, "day": 4, "month": 5, "categories": {"M-EC3": {"distance": 3, "rank": 28, "pace": 259000000000, "time": 830.4}}, "weekday": "wednesday", "livingplace": "Les Neyres"}}, "location": "Bouveret"}, "Tour du Chablais #1 Roche": {"latitude": 46.2957462, "longitude": 6.9916269, "race": "Tour du Chablais #1 Roche", "date": {"mer. 03.04.2013": {"year": 2013, "day": 3, "month": 4, "categories": {"M-EC2": {"distance": 3, "rank": 28, "pace": 288000000000, "time": 895.5}}, "weekday": "wednesday", "livingplace": "Collombey"}}, "location": "Ollon VD"}, "Tour du Chablais #6 Mouthey": {"latitude": 46.3190253, "longitude": 6.970566, "race": "Tour du Chablais #6 Mouthey", "date": {"mer. 12.05.2010": {"year": 2010, "day": 12, "month": 5, "categories": {"M-EC3": {"distance": 3, "rank": 36, "pace": 275000000000, "time": 881.0}}, "weekday": "wednesday", "livingplace": "Collombey"}}, "location": "Aigle"}, "Course Titz\u00e9 de no\u00ebl Sion": {"latitude": 46.2331221, "longitude": 7.360625999999999, "race": "Course Titz\u00e9 de no\u00ebl Sion", "date": {"sam. 08.12.2007": {"year": 2007, "day": 8, "month": 12, "categories": {"EMC": {"distance": 1, "rank": 16, "pace": 267000000000, "time": 267.4}}, "weekday": "saturday", "livingplace": "Collombey"}}, "location": "Sion"}, "Tour du Chablais #6 Monthey": {"latitude": 46.3190253, "longitude": 6.970566, "race": "Tour du Chablais #6 Monthey", "date": {"mer. 08.05.2013": {"year": 2013, "day": 8, "month": 5, "categories": {"M-EC2": {"distance": 3, "rank": 35, "pace": 280000000000, "time": 882.1}}, "weekday": "wednesday", "livingplace": "Collombey"}}, "location": "Aigle"}, "Sierre-Zinal, Sierre": {"latitude": 46.29413110000001, "longitude": 7.533536199999999, "race": "Sierre-Zinal, Sierre", "date": {"dim. 12.08.2012": {"year": 2012, "day": 12, "month": 8, "categories": {"Jun_Homm": {"distance": 19, "rank": 49, "pace": 425000000000, "time": 8082.7}}, "weekday": "sunday", "livingplace": "Les Neyres"}, "dim. 11.08.2013": {"year": 2013, "day": 11, "month": 8, "categories": {"Jun_Homm": {"distance": 19, "rank": 75, "pace": 486000000000, "time": 9245.4}}, "weekday": "sunday", "livingplace": "Collombey"}}, "location": "Sierre"}, "Tour du Chablais #4 St  Maurice": {"latitude": NaN, "longitude": NaN, "race": "Tour du Chablais #4 St  Maurice", "date": {"mer. 24.04.2013": {"year": 2013, "day": 24, "month": 4, "categories": {"M-EC2": {"distance": 3, "rank": 31, "pace": 276000000000, "time": 880.4}}, "weekday": "wednesday", "livingplace": "Collombey"}}, "location": "Les Mosses"}, "Tour du Chablais #6 Montreux": {"latitude": 46.3190253, "longitude": 6.970566, "race": "Tour du Chablais #6 Montreux", "date": {"mer. 16.05.2012": {"year": 2012, "day": 16, "month": 5, "categories": {"M-EC2": {"distance": 3, "rank": 18, "pace": 249000000000, "time": 787.0}}, "weekday": "wednesday", "livingplace": "Les Neyres"}}, "location": "Aigle"}}, "birth": 1999}