{"name": "Matias Pedro", "sex": "M", "races": {"Tour du Pays de Vaud #3 - Chavornay": {"latitude": 46.7784736, "longitude": 6.641183, "race": "Tour du Pays de Vaud #3 - Chavornay", "date": {"mer. 28.08.2013": {"year": 2013, "day": 28, "month": 8, "categories": {"H-Sen1": {"distance": 9, "rank": 130, "pace": 320000000000, "time": 2856.7}}, "weekday": "wednesday", "livingplace": "St Aubin Sauges"}}, "location": "Yverdon-les-Bains"}, "Tour du Pays de Vaud printanier #2 Yverdon-les-Bains": {"latitude": 46.6698891, "longitude": 6.7975224, "race": "Tour du Pays de Vaud printanier #2 Yverdon-les-Bains", "date": {"mer. 05.06.2013": {"year": 2013, "day": 5, "month": 6, "categories": {"H-Sen1": {"distance": 9, "rank": 71, "pace": 328000000000, "time": 2993.4}}, "weekday": "wednesday", "livingplace": "St Aubin Sauges"}}, "location": "Moudon"}, "BCN Tour Couvet": {"latitude": 47.0624261, "longitude": 6.9175754, "race": "BCN Tour Couvet", "date": {"mer. 02.05.2012": {"year": 2012, "day": 2, "month": 5, "categories": {"HS1": {"distance": 11, "rank": 221, "pace": 358000000000, "time": 3993.5}}, "weekday": "wednesday", "livingplace": "St Aubin Sauges"}}, "location": "Ch\u00e9zard-St-Martin"}, "BCN Tour Fontaine Cernier": {"latitude": 47.0624261, "longitude": 6.9175754, "race": "BCN Tour Fontaine Cernier", "date": {"mer. 27.04.2011": {"year": 2011, "day": 27, "month": 4, "categories": {"HS1": {"distance": 10, "rank": 200, "pace": 316000000000, "time": 3259.5}}, "weekday": "wednesday", "livingplace": "St Aubin Sauges"}}, "location": "Ch\u00e9zard-St-Martin"}, "Tour du pays de Vaud #1 - Mezi\u00e8res": {"latitude": 46.7784736, "longitude": 6.641183, "race": "Tour du pays de Vaud #1 - Mezi\u00e8res", "date": {"mer. 10.08.2011": {"year": 2011, "day": 10, "month": 8, "categories": {"H-Sen1": {"distance": 9, "rank": 131, "pace": 323000000000, "time": 2751.6}}, "weekday": "wednesday", "livingplace": "St Aubin Sauges"}}, "location": "Yverdon-les-Bains"}, "Tour du pays de Vaud #1 - Penthaz": {"latitude": 46.5993131, "longitude": 6.539251200000001, "race": "Tour du pays de Vaud #1 - Penthaz", "date": {"mer. 08.08.2012": {"year": 2012, "day": 8, "month": 8, "categories": {"H-Sen1": {"distance": 9, "rank": 137, "pace": 320000000000, "time": 2735.7}}, "weekday": "wednesday", "livingplace": "St Aubin Sauges"}}, "location": "Penthaz"}, "BCN Tour #1 Corcelles": {"latitude": 46.9668714, "longitude": 6.8589727, "race": "BCN Tour #1 Corcelles", "date": {"mer. 24.04.2013": {"year": 2013, "day": 24, "month": 4, "categories": {"HS1": {"distance": 10, "rank": 196, "pace": 314000000000, "time": 3078.9}}, "weekday": "wednesday", "livingplace": "St Aubin Sauges"}}, "location": "Colombier NE"}, "BCN Tour Auvernier": {"latitude": 46.9668714, "longitude": 6.8589727, "race": "BCN Tour Auvernier", "date": {"mer. 20.04.2011": {"year": 2011, "day": 20, "month": 4, "categories": {"HS1": {"distance": 11, "rank": 232, "pace": 365000000000, "time": 3949.1}}, "weekday": "wednesday", "livingplace": "St Aubin Sauges"}}, "location": "Colombier NE"}, "BCN Tour #4 Fleurier": {"latitude": 47.1034892, "longitude": 6.832783800000001, "race": "BCN Tour #4 Fleurier", "date": {"mer. 15.05.2013": {"year": 2013, "day": 15, "month": 5, "categories": {"HS1": {"distance": 9, "rank": 191, "pace": 317000000000, "time": 2746.9}}, "weekday": "wednesday", "livingplace": "St Aubin Sauges"}}, "location": "La Chaux-de-Fonds"}, "BCN Tour Cornaux": {"latitude": 46.9668714, "longitude": 6.8589727, "race": "BCN Tour Cornaux", "date": {"mer. 25.04.2012": {"year": 2012, "day": 25, "month": 4, "categories": {"HS1": {"distance": 11, "rank": 206, "pace": 381000000000, "time": 4197.3}}, "weekday": "wednesday", "livingplace": "St Aubin Sauges"}}, "location": "Colombier NE"}, "BCN Tour La Chaux-de-Fonds": {"latitude": 46.9262933, "longitude": 6.6324944, "race": "BCN Tour La Chaux-de-Fonds", "date": {"mer. 23.05.2012": {"year": 2012, "day": 23, "month": 5, "categories": {"HS1": {"distance": 11, "rank": 239, "pace": 345000000000, "time": 3730.4}}, "weekday": "wednesday", "livingplace": "St Aubin Sauges"}}, "location": "Couvet"}, "BCN Tour #6 Neuch\u00e2tel": {"latitude": 46.9899874, "longitude": 6.9292732, "race": "BCN Tour #6 Neuch\u00e2tel", "date": {"mer. 29.05.2013": {"year": 2013, "day": 29, "month": 5, "categories": {"HS1": {"distance": 11, "rank": 188, "pace": 331000000000, "time": 3646.9}}, "weekday": "wednesday", "livingplace": "St Aubin Sauges"}}, "location": "Neuch\u00e2tel"}, "BCN Tour Les Ponts-de-Martel": {"latitude": 46.999113, "longitude": 6.733554799999999, "race": "BCN Tour Les Ponts-de-Martel", "date": {"mer. 09.05.2012": {"year": 2012, "day": 9, "month": 5, "categories": {"HS1": {"distance": 10, "rank": 215, "pace": 344000000000, "time": 3548.9}}, "weekday": "wednesday", "livingplace": "St Aubin Sauges"}}, "location": "Les Ponts-de-Martel"}, "BCN Tour Neuch\u00e2tel": {"latitude": 46.9899874, "longitude": 6.9292732, "race": "BCN Tour Neuch\u00e2tel", "date": {"mer. 26.05.2010": {"year": 2010, "day": 26, "month": 5, "categories": {"HS1": {"distance": 10, "rank": 252, "pace": 469000000000, "time": 4549.6}}, "weekday": "wednesday", "livingplace": "Neuchatel"}, "mer. 30.05.2012": {"year": 2012, "day": 30, "month": 5, "categories": {"HS1": {"distance": 11, "rank": 228, "pace": 368000000000, "time": 4130.3}}, "weekday": "wednesday", "livingplace": "St Aubin Sauges"}, "mer. 25.05.2011": {"year": 2011, "day": 25, "month": 5, "categories": {"HS1": {"distance": 11, "rank": 234, "pace": 353000000000, "time": 4034.3}}, "weekday": "wednesday", "livingplace": "St Aubin Sauges"}}, "location": "Neuch\u00e2tel"}, "BCN Tour #5 Colombier": {"latitude": 46.9262933, "longitude": 6.6324944, "race": "BCN Tour #5 Colombier", "date": {"mer. 22.05.2013": {"year": 2013, "day": 22, "month": 5, "categories": {"HS1": {"distance": 11, "rank": 198, "pace": 291000000000, "time": 3064.3}}, "weekday": "wednesday", "livingplace": "St Aubin Sauges"}}, "location": "Couvet"}, "BCN Tour #2 La Chaux-de-Fonds": {"latitude": 47.0624261, "longitude": 6.9175754, "race": "BCN Tour #2 La Chaux-de-Fonds", "date": {"mer. 01.05.2013": {"year": 2013, "day": 1, "month": 5, "categories": {"HS1": {"distance": 11, "rank": 229, "pace": 315000000000, "time": 3375.3}}, "weekday": "wednesday", "livingplace": "St Aubin Sauges"}}, "location": "Ch\u00e9zard-St-Martin"}, "BCN Tour Colombier": {"latitude": 46.9668714, "longitude": 6.8589727, "race": "BCN Tour Colombier", "date": {"mer. 16.05.2012": {"year": 2012, "day": 16, "month": 5, "categories": {"HS1": {"distance": 11, "rank": 199, "pace": 325000000000, "time": 3511.3}}, "weekday": "wednesday", "livingplace": "St Aubin Sauges"}, "mer. 21.04.2010": {"year": 2010, "day": 21, "month": 4, "categories": {"HS1": {"distance": 10, "rank": 208, "pace": 390000000000, "time": 3907.8}}, "weekday": "wednesday", "livingplace": "Neuchatel"}}, "location": "Colombier NE"}, "BCN Tour #3 Dombresson": {"latitude": 46.999113, "longitude": 6.733554799999999, "race": "BCN Tour #3 Dombresson", "date": {"mer. 08.05.2013": {"year": 2013, "day": 8, "month": 5, "categories": {"HS1": {"distance": 10, "rank": 226, "pace": 310000000000, "time": 3069.3}}, "weekday": "wednesday", "livingplace": "St Aubin Sauges"}}, "location": "Les Ponts-de-Martel"}}, "birth": 1980}