{"name": "Matthys Camille", "sex": "F", "races": {"Tour du Pays de Vaud #2 - Genolier": {"latitude": 46.5955273, "longitude": 6.7702883, "race": "Tour du Pays de Vaud #2 - Genolier", "date": {"mer. 15.08.2012": {"year": 2012, "day": 15, "month": 8, "categories": {"D-Jun": {"distance": 9, "rank": 1, "pace": 265000000000, "time": 2258.6}}, "weekday": "wednesday", "livingplace": "Vevey"}}, "location": "M\u00e9zi\u00e8res VD"}, "Montreux - Les Rochers de Naye": {"latitude": 46.4312213, "longitude": 6.9106799, "race": "Montreux - Les Rochers de Naye", "date": {"dim. 05.07.2015": {"year": 2015, "day": 5, "month": 7, "categories": {"M-EliteF": {"distance": 19, "rank": 58, "pace": 658000000000, "time": 12388.1}}, "weekday": "sunday", "livingplace": "Vevey"}}, "location": "Montreux"}, "Tour du Pays de Vaud #2 - Mezi\u00e8res": {"latitude": 46.5955273, "longitude": 6.7702883, "race": "Tour du Pays de Vaud #2 - Mezi\u00e8res", "date": {"mer. 21.08.2013": {"year": 2013, "day": 21, "month": 8, "categories": {"D-Jun": {"distance": 8, "rank": 1, "pace": 293000000000, "time": 2380.8}}, "weekday": "wednesday", "livingplace": "Vevey"}}, "location": "M\u00e9zi\u00e8res VD"}, "Tour du Pays de Vaud #3 - Chavornay": {"latitude": 46.7784736, "longitude": 6.641183, "race": "Tour du Pays de Vaud #3 - Chavornay", "date": {"mer. 28.08.2013": {"year": 2013, "day": 28, "month": 8, "categories": {"D-Jun": {"distance": 9, "rank": 2, "pace": 282000000000, "time": 2514.3}}, "weekday": "wednesday", "livingplace": "Vevey"}}, "location": "Yverdon-les-Bains"}, "Tour du Pays de Vaud #3 - Mezi\u00e8res": {"latitude": 46.7784736, "longitude": 6.641183, "race": "Tour du Pays de Vaud #3 - Mezi\u00e8res", "date": {"mer. 22.08.2012": {"year": 2012, "day": 22, "month": 8, "categories": {"D-Jun": {"distance": 8, "rank": 1, "pace": 281000000000, "time": 2367.1}}, "weekday": "wednesday", "livingplace": "Vevey"}}, "location": "Yverdon-les-Bains"}, "Tour du pays de Vaud #1 - Penthaz": {"latitude": 46.5993131, "longitude": 6.539251200000001, "race": "Tour du pays de Vaud #1 - Penthaz", "date": {"mer. 14.08.2013": {"year": 2013, "day": 14, "month": 8, "categories": {"D-Jun": {"distance": 9, "rank": 2, "pace": 272000000000, "time": 2323.0}}, "weekday": "wednesday", "livingplace": "Vevey"}, "mer. 08.08.2012": {"year": 2012, "day": 8, "month": 8, "categories": {"D-Jun": {"distance": 9, "rank": 1, "pace": 267000000000, "time": 2282.3}}, "weekday": "wednesday", "livingplace": "Vevey"}}, "location": "Penthaz"}, "Tour du Pays de Vaud #4 - La Sarraz": {"latitude": 46.7088129, "longitude": 6.5707689, "race": "Tour du Pays de Vaud #4 - La Sarraz", "date": {"mer. 29.08.2012": {"year": 2012, "day": 29, "month": 8, "categories": {"D-Jun": {"distance": 9, "rank": 1, "pace": 257000000000, "time": 2189.4}}, "weekday": "wednesday", "livingplace": "Vevey"}, "mer. 04.09.2013": {"year": 2013, "day": 4, "month": 9, "categories": {"D-Jun": {"distance": 9, "rank": 2, "pace": 288000000000, "time": 2451.0}}, "weekday": "wednesday", "livingplace": "Vevey"}}, "location": "Chavornay"}}, "birth": 1994}