{"name": "Matz Brigitte", "sex": "F", "races": {"A travers Carouge - Run to Run": {"latitude": 46.1829674, "longitude": 6.1378539, "race": "A travers Carouge - Run to Run", "date": {"sam. 20.09.2008": {"year": 2008, "day": 20, "month": 9, "categories": {"W45/10": {"distance": 10, "rank": 4, "pace": 261000000000, "time": 2613.6}}, "weekday": "saturday", "livingplace": "St Legier La Chiesaz"}}, "location": "Carouge GE"}, "Tour du Pays de Vaud etape 5 - La Sarraz": {"latitude": 46.5993131, "longitude": 6.539251200000001, "race": "Tour du Pays de Vaud etape 5 - La Sarraz", "date": {"mer. 10.09.2008": {"year": 2008, "day": 10, "month": 9, "categories": {"DamSen2": {"distance": 9, "rank": 3, "pace": 261000000000, "time": 2248.0}}, "weekday": "wednesday", "livingplace": "St Legier La Chiesaz"}}, "location": "Penthaz"}, "Tour du pays de Vaud #1 - Penthaz": {"latitude": 46.5993131, "longitude": 6.539251200000001, "race": "Tour du pays de Vaud #1 - Penthaz", "date": {"mer. 08.08.2012": {"year": 2012, "day": 8, "month": 8, "categories": {"D-Sen3": {"distance": 9, "rank": 2, "pace": 280000000000, "time": 2391.8}}, "weekday": "wednesday", "livingplace": "St Legier La Chiesaz"}}, "location": "Penthaz"}, "Morat-Fribourg": {"latitude": 46.92922110000001, "longitude": 7.120184, "race": "Morat-Fribourg", "date": {"sam. 02.10.2010": {"year": 2010, "day": 2, "month": 10, "categories": {"17-W50": {"distance": 17, "rank": 5, "pace": 283000000000, "time": 4868.4}}, "weekday": "saturday", "livingplace": "St Legier"}, "sam. 04.10.2008": {"year": 2008, "day": 4, "month": 10, "categories": {"C-W45": {"distance": 17, "rank": 9, "pace": 278000000000, "time": 4786.1}}, "weekday": "saturday", "livingplace": "Vevey"}, "sam. 06.10.2007": {"year": 2007, "day": 6, "month": 10, "categories": {"C/W45": {"distance": 17, "rank": 14, "pace": 282000000000, "time": 4857.5}}, "weekday": "saturday", "livingplace": "Vevey"}}, "location": "Murten"}, "Tour du Pays de Vaud #3 - Mezi\u00e8res": {"latitude": 46.7784736, "longitude": 6.641183, "race": "Tour du Pays de Vaud #3 - Mezi\u00e8res", "date": {"mer. 22.08.2012": {"year": 2012, "day": 22, "month": 8, "categories": {"D-Sen3": {"distance": 8, "rank": 2, "pace": 292000000000, "time": 2461.0}}, "weekday": "wednesday", "livingplace": "St Legier La Chiesaz"}}, "location": "Yverdon-les-Bains"}, "Tour du Pays de Vaud etape 1 - Le Mont sur Lausanne": {"latitude": 46.7784736, "longitude": 6.641183, "race": "Tour du Pays de Vaud etape 1 - Le Mont sur Lausanne", "date": {"mer. 13.08.2008": {"year": 2008, "day": 13, "month": 8, "categories": {"DamSen2": {"distance": 8, "rank": 4, "pace": 261000000000, "time": 2194.2}}, "weekday": "wednesday", "livingplace": "St Legier La Chiesaz"}}, "location": "Yverdon-les-Bains"}, "20km de Lausanne": {"latitude": 46.5196535, "longitude": 6.6322734, "race": "20km de Lausanne", "date": {"sam. 28.04.2007": {"year": 2007, "day": 28, "month": 4, "categories": {"20F45": {"distance": 20, "rank": 16, "pace": 306000000000, "time": 6131.8}}, "weekday": "saturday", "livingplace": "St Legier"}, "sam. 26.04.2014": {"year": 2014, "day": 26, "month": 4, "categories": {"10-F55": {"distance": 10, "rank": 2, "pace": 288000000000, "time": 2884.5}}, "weekday": "saturday", "livingplace": "St Legier La Chiesaz"}, "sam. 22.04.2006": {"year": 2006, "day": 22, "month": 4, "categories": {"20/F45": {"distance": 20, "rank": 25, "pace": 340000000000, "time": 6810.0}}, "weekday": "saturday", "livingplace": "St Legier"}}, "location": "Lausanne"}, "Z\u00fcrich Marathon, Teamrun und Cityrun": {"latitude": 47.3768866, "longitude": 8.541694, "race": "Z\u00fcrich Marathon, Teamrun und Cityrun", "date": {"dim. 11.04.2010": {"year": 2010, "day": 11, "month": 4, "categories": {"W50": {"distance": 42, "rank": 1, "pace": 281000000000, "time": 11880.3}}, "weekday": "sunday", "livingplace": "St Legier"}, "dim. 17.04.2011": {"year": 2011, "day": 17, "month": 4, "categories": {"42-W50": {"distance": 42, "rank": 3, "pace": 294000000000, "time": 12440.3}}, "weekday": "sunday", "livingplace": "St Legier"}}, "location": "Z\u00fcrich"}, "Tour du Pays de Vaud #2 - Genolier": {"latitude": 46.5955273, "longitude": 6.7702883, "race": "Tour du Pays de Vaud #2 - Genolier", "date": {"mer. 15.08.2012": {"year": 2012, "day": 15, "month": 8, "categories": {"D-Sen3": {"distance": 9, "rank": 1, "pace": 270000000000, "time": 2295.6}}, "weekday": "wednesday", "livingplace": "St Legier La Chiesaz"}}, "location": "M\u00e9zi\u00e8res VD"}, "Tour du pays de Vaud #5 - Penthaz": {"latitude": 46.5993131, "longitude": 6.539251200000001, "race": "Tour du pays de Vaud #5 - Penthaz", "date": {"mer. 07.09.2011": {"year": 2011, "day": 7, "month": 9, "categories": {"D-Sen3": {"distance": 8, "rank": 2, "pace": 290000000000, "time": 2429.8}}, "weekday": "wednesday", "livingplace": "St Legier La Chiesaz"}}, "location": "Penthaz"}, "Tour du Pays de Vaud etape 2 - Genolier": {"latitude": 46.5955273, "longitude": 6.7702883, "race": "Tour du Pays de Vaud etape 2 - Genolier", "date": {"mer. 20.08.2008": {"year": 2008, "day": 20, "month": 8, "categories": {"DamSen2": {"distance": 8, "rank": 3, "pace": 261000000000, "time": 2166.9}}, "weekday": "wednesday", "livingplace": "St Legier La Chiesaz"}}, "location": "M\u00e9zi\u00e8res VD"}, "Tour du Pays de Vaud etape 3 - Aubonne": {"latitude": 46.7829756, "longitude": 6.5728678, "race": "Tour du Pays de Vaud etape 3 - Aubonne", "date": {"mer. 27.08.2008": {"year": 2008, "day": 27, "month": 8, "categories": {"DamSen2": {"distance": 8, "rank": 4, "pace": 279000000000, "time": 2179.6}}, "weekday": "wednesday", "livingplace": "St Legier La Chiesaz"}}, "location": "Champvent"}, "Montreux - Les Rochers de Naye": {"latitude": 46.4312213, "longitude": 6.9106799, "race": "Montreux - Les Rochers de Naye", "date": {"dim. 11.07.2010": {"year": 2010, "day": 11, "month": 7, "categories": {"C-FemVet": {"distance": 10, "rank": 12, "pace": 507000000000, "time": 4820.0}}, "weekday": "sunday", "livingplace": "St Legier"}}, "location": "Montreux"}, "Tour du pays de Vaud #6 - St  Prex": {"latitude": 46.4829113, "longitude": 6.458343500000001, "race": "Tour du pays de Vaud #6 - St  Prex", "date": {"mer. 14.09.2011": {"year": 2011, "day": 14, "month": 9, "categories": {"D-Sen3": {"distance": 9, "rank": 1, "pace": 263000000000, "time": 2262.6}}, "weekday": "wednesday", "livingplace": "St Legier La Chiesaz"}}, "location": "St-Prex"}, "Tour du Pays de Vaud #4 - La Sarraz": {"latitude": 46.7088129, "longitude": 6.5707689, "race": "Tour du Pays de Vaud #4 - La Sarraz", "date": {"mer. 29.08.2012": {"year": 2012, "day": 29, "month": 8, "categories": {"D-Sen3": {"distance": 9, "rank": 2, "pace": 263000000000, "time": 2238.1}}, "weekday": "wednesday", "livingplace": "St Legier La Chiesaz"}}, "location": "Chavornay"}, "Kerzerslauf": {"latitude": 46.97488999999999, "longitude": 7.1954365, "race": "Kerzerslauf", "date": {"sam. 20.03.2010": {"year": 2010, "day": 20, "month": 3, "categories": {"15-F50": {"distance": 15, "rank": 2, "pace": 262000000000, "time": 3939.6}}, "weekday": "saturday", "livingplace": "St Legier"}, "sam. 19.03.2011": {"year": 2011, "day": 19, "month": 3, "categories": {"15-F50": {"distance": 15, "rank": 7, "pace": 268000000000, "time": 4025.5}}, "weekday": "saturday", "livingplace": "St Legier"}, "sam. 18.03.2006": {"year": 2006, "day": 18, "month": 3, "categories": {"F45": {"distance": 15, "rank": 71, "pace": 325000000000, "time": 4887.9}}, "weekday": "saturday", "livingplace": "St Legier"}, "sam. 16.03.2013": {"year": 2013, "day": 16, "month": 3, "categories": {"15-F50": {"distance": 15, "rank": 6, "pace": 276000000000, "time": 4154.0}}, "weekday": "saturday", "livingplace": "St Legier"}}, "location": "Kerzers"}}, "birth": 1959}