{"name": "Mauron Christophe", "sex": "M", "races": {"Groupe E Tour Fribourg #4, Siviriez": {"latitude": 46.6585092, "longitude": 6.877722, "race": "Groupe E Tour Fribourg #4, Siviriez", "date": {"mer. 10.09.2014": {"year": 2014, "day": 10, "month": 9, "categories": {"H-Sen1": {"distance": 11, "rank": 88, "pace": 389000000000, "time": 4210.2}}, "weekday": "wednesday", "livingplace": "Neyruz"}}, "location": "Siviriez"}, "Morat-Fribourg": {"latitude": 46.92922110000001, "longitude": 7.120184, "race": "Morat-Fribourg", "date": {"sam. 05.10.2013": {"year": 2013, "day": 5, "month": 10, "categories": {"17-M20": {"distance": 17, "rank": 2171, "pace": 368000000000, "time": 6422.3}}, "weekday": "saturday", "livingplace": "Neyruz"}, "sam. 06.10.2012": {"year": 2012, "day": 6, "month": 10, "categories": {"17-M20": {"distance": 17, "rank": 1409, "pace": 326000000000, "time": 5695.1}}, "weekday": "saturday", "livingplace": "Neyruz"}}, "location": "Murten"}, "Groupe E Tour Fribourg #2, Charmey": {"latitude": 46.6175845, "longitude": 7.1654493, "race": "Groupe E Tour Fribourg #2, Charmey", "date": {"mer. 27.08.2014": {"year": 2014, "day": 27, "month": 8, "categories": {"H-Sen1": {"distance": 10, "rank": 95, "pace": 396000000000, "time": 3826.1}}, "weekday": "wednesday", "livingplace": "Neyruz"}}, "location": "Charmey (Gruy\u00e8re)"}, "Corrida Bulloise, Bulle": {"latitude": 46.6154512, "longitude": 7.057726799999999, "race": "Corrida Bulloise, Bulle", "date": {"sam. 16.11.2013": {"year": 2013, "day": 16, "month": 11, "categories": {"PopHomm": {"distance": 6, "rank": 337, "pace": 297000000000, "time": 1826.9}}, "weekday": "saturday", "livingplace": "Neyruz"}, "sam. 17.11.2012": {"year": 2012, "day": 17, "month": 11, "categories": {"PopHomm": {"distance": 6, "rank": 372, "pace": 315000000000, "time": 1939.3}}, "weekday": "saturday", "livingplace": "Neyruz"}, "sam. 15.11.2014": {"year": 2014, "day": 15, "month": 11, "categories": {"Pop-Hom": {"distance": 6, "rank": 418, "pace": 331000000000, "time": 2038.1}}, "weekday": "saturday", "livingplace": "Neyruz"}, "sam. 19.11.2011": {"year": 2011, "day": 19, "month": 11, "categories": {"PH": {"distance": 6, "rank": 369, "pace": 331000000000, "time": 2038.1}}, "weekday": "saturday", "livingplace": "Neyruz"}}, "location": "Bulle"}, "Groupe E Tour Fribourg #3, Kerzers": {"latitude": 46.97488999999999, "longitude": 7.1954365, "race": "Groupe E Tour Fribourg #3, Kerzers", "date": {"mer. 03.09.2014": {"year": 2014, "day": 3, "month": 9, "categories": {"H-Sen1": {"distance": 10, "rank": 91, "pace": 354000000000, "time": 3601.7}}, "weekday": "wednesday", "livingplace": "Neyruz"}}, "location": "Kerzers"}, "Groupe E Tour Fribourg #5, Givisiez": {"latitude": 46.8128615, "longitude": 7.131657799999999, "race": "Groupe E Tour Fribourg #5, Givisiez", "date": {"mer. 17.09.2014": {"year": 2014, "day": 17, "month": 9, "categories": {"H-Sen1": {"distance": 10, "rank": 109, "pace": 354000000000, "time": 3641.8}}, "weekday": "wednesday", "livingplace": "Neyruz"}}, "location": "Givisiez"}, "Kerzerslauf": {"latitude": 46.97488999999999, "longitude": 7.1954365, "race": "Kerzerslauf", "date": {"sam. 15.03.2014": {"year": 2014, "day": 15, "month": 3, "categories": {"15-M20": {"distance": 15, "rank": 481, "pace": 310000000000, "time": 4660.6}}, "weekday": "saturday", "livingplace": "Neyruz"}}, "location": "Kerzers"}, "Groupe E Tour Fribourg #1, Cousset": {"latitude": 46.81832, "longitude": 6.977279999999999, "race": "Groupe E Tour Fribourg #1, Cousset", "date": {"mer. 20.08.2014": {"year": 2014, "day": 20, "month": 8, "categories": {"H-Sen1": {"distance": 9, "rank": 94, "pace": 349000000000, "time": 3286.1}}, "weekday": "wednesday", "livingplace": "Neyruz"}}, "location": "Cousset"}}, "birth": 1983}