{"name": "Mauron Quentin", "sex": "M", "races": {"BCN Tour Les Ponts-de-Martel": {"latitude": 46.999113, "longitude": 6.733554799999999, "race": "BCN Tour Les Ponts-de-Martel", "date": {"mer. 09.05.2012": {"year": 2012, "day": 9, "month": 5, "categories": {"HJ": {"distance": 10, "rank": 20, "pace": 282000000000, "time": 2908.0}}, "weekday": "wednesday", "livingplace": "La Ferriere"}}, "location": "Les Ponts-de-Martel"}, "BCN Tour Couvet": {"latitude": 47.0624261, "longitude": 6.9175754, "race": "BCN Tour Couvet", "date": {"mer. 02.05.2012": {"year": 2012, "day": 2, "month": 5, "categories": {"HJ": {"distance": 11, "rank": 21, "pace": 293000000000, "time": 3272.2}}, "weekday": "wednesday", "livingplace": "La Ferriere"}}, "location": "Ch\u00e9zard-St-Martin"}, "BCN Tour La Chaux-de-Fonds": {"latitude": 47.1034892, "longitude": 6.832783800000001, "race": "BCN Tour La Chaux-de-Fonds", "date": {"mer. 23.05.2012": {"year": 2012, "day": 23, "month": 5, "categories": {"HJ": {"distance": 11, "rank": 29, "pace": 293000000000, "time": 3167.2}}, "weekday": "wednesday", "livingplace": "La Ferriere"}, "mer. 11.05.2011": {"year": 2011, "day": 11, "month": 5, "categories": {"KG4": {"distance": 4, "rank": 11, "pace": 183000000000, "time": 715.9}}, "weekday": "wednesday", "livingplace": "La Ferriere"}}, "location": "La Chaux-de-Fonds"}, "BCN Tour La Br\u00e9vine": {"latitude": 46.999113, "longitude": 6.733554799999999, "race": "BCN Tour La Br\u00e9vine", "date": {"mer. 04.05.2011": {"year": 2011, "day": 4, "month": 5, "categories": {"KG4": {"distance": 4, "rank": 9, "pace": 237000000000, "time": 903.0}}, "weekday": "wednesday", "livingplace": "La Ferriere"}}, "location": "Les Ponts-de-Martel"}, "BCN Tour Fontaine Cernier": {"latitude": 47.0624261, "longitude": 6.9175754, "race": "BCN Tour Fontaine Cernier", "date": {"mer. 27.04.2011": {"year": 2011, "day": 27, "month": 4, "categories": {"KG4": {"distance": 3, "rank": 12, "pace": 267000000000, "time": 801.7}}, "weekday": "wednesday", "livingplace": "La Ferriere"}}, "location": "Ch\u00e9zard-St-Martin"}, "BCN Tour Ponts-de-Martel": {"latitude": 47.0624261, "longitude": 6.9175754, "race": "BCN Tour Ponts-de-Martel", "date": {"mer. 28.04.2010": {"year": 2010, "day": 28, "month": 4, "categories": {"KG4": {"distance": 4, "rank": 17, "pace": 221000000000, "time": 930.5}}, "weekday": "wednesday", "livingplace": "La Ferriere"}}, "location": "Ch\u00e9zard-St-Martin"}, "BCN Tour Le Locle": {"latitude": 46.999113, "longitude": 6.733554799999999, "race": "BCN Tour Le Locle", "date": {"mer. 05.05.2010": {"year": 2010, "day": 5, "month": 5, "categories": {"KG4": {"distance": 4, "rank": 15, "pace": 242000000000, "time": 896.5}}, "weekday": "wednesday", "livingplace": "La Ferriere"}}, "location": "Les Ponts-de-Martel"}, "BCN Tour Neuch\u00e2tel": {"latitude": 46.9899874, "longitude": 6.9292732, "race": "BCN Tour Neuch\u00e2tel", "date": {"mer. 30.05.2012": {"year": 2012, "day": 30, "month": 5, "categories": {"HJ": {"distance": 11, "rank": 28, "pace": 299000000000, "time": 3354.8}}, "weekday": "wednesday", "livingplace": "La Ferriere"}, "mer. 25.05.2011": {"year": 2011, "day": 25, "month": 5, "categories": {"KG4": {"distance": 4, "rank": 11, "pace": 227000000000, "time": 823.1}}, "weekday": "wednesday", "livingplace": "La Ferriere"}}, "location": "Neuch\u00e2tel"}, "BCN Tour Auvernier": {"latitude": 46.9668714, "longitude": 6.8589727, "race": "BCN Tour Auvernier", "date": {"mer. 20.04.2011": {"year": 2011, "day": 20, "month": 4, "categories": {"KG4": {"distance": 2, "rank": 17, "pace": 228000000000, "time": 536.6}}, "weekday": "wednesday", "livingplace": "La Ferriere"}}, "location": "Colombier NE"}, "BCN Tour Colombier": {"latitude": 46.9668714, "longitude": 6.8589727, "race": "BCN Tour Colombier", "date": {"mer. 16.05.2012": {"year": 2012, "day": 16, "month": 5, "categories": {"HJ": {"distance": 11, "rank": 24, "pace": 278000000000, "time": 3010.3}}, "weekday": "wednesday", "livingplace": "La Ferriere"}, "mer. 23.04.2008": {"year": 2008, "day": 23, "month": 4, "categories": {"KG3": {"distance": 4, "rank": 17, "pace": 285000000000, "time": 1143.4}}, "weekday": "wednesday", "livingplace": "La Ferriere"}, "mer. 21.04.2010": {"year": 2010, "day": 21, "month": 4, "categories": {"KG4": {"distance": 4, "rank": 20, "pace": 263000000000, "time": 1055.2}}, "weekday": "wednesday", "livingplace": "La Ferriere"}}, "location": "Colombier NE"}, "BCN Tour Cornaux": {"latitude": 46.9668714, "longitude": 6.8589727, "race": "BCN Tour Cornaux", "date": {"mer. 25.04.2012": {"year": 2012, "day": 25, "month": 4, "categories": {"HJ": {"distance": 11, "rank": 26, "pace": 337000000000, "time": 3713.2}}, "weekday": "wednesday", "livingplace": "La Ferriere"}}, "location": "Colombier NE"}}, "birth": 1996}