{"name": "Mcgarva Adrian", "sex": "M", "races": {"Brienzerseelauf, B\u00f6nigen": {"latitude": NaN, "longitude": NaN, "race": "Brienzerseelauf, B\u00f6nigen", "date": {"dim. 15.10.2006": {"year": 2006, "day": 15, "month": 10, "categories": {"11": {"distance": 21, "rank": 5, "pace": 218000000000, "time": 4612.1}}, "weekday": "sunday", "livingplace": "Zurich"}}, "location": "B\u00f6nigen b. Interlaken"}, "Walliseller Lauf, Wallisellen": {"latitude": NaN, "longitude": NaN, "race": "Walliseller Lauf, Wallisellen", "date": {"dim. 02.11.2008": {"year": 2008, "day": 2, "month": 11, "categories": {"M2": {"distance": 10, "rank": 7, "pace": 216000000000, "time": 2061.3}}, "weekday": "sunday", "livingplace": "Bach"}}, "location": "Wallisellen"}, "ASICS Bremgarter Reusslauf": {"latitude": 47.34917739999999, "longitude": 8.3397905, "race": "ASICS Bremgarter Reusslauf", "date": {"sam. 25.02.2006": {"year": 2006, "day": 25, "month": 2, "categories": {"M30": {"distance": 11, "rank": 23, "pace": 208000000000, "time": 2187.9}}, "weekday": "saturday", "livingplace": "Zurich"}}, "location": "Bremgarten AG"}, "Schlosslauf Rapperswil-Jona": {"latitude": 47.2266239, "longitude": 8.818437399999999, "race": "Schlosslauf Rapperswil-Jona", "date": {"dim. 09.10.2005": {"year": 2005, "day": 9, "month": 10, "categories": {"M2": {"distance": 9, "rank": 1, "pace": 206000000000, "time": 1863.0}}, "weekday": "sunday", "livingplace": "Bach"}}, "location": "Rapperswil SG"}, "Z\u00fcrich Marathon, Teamrun und Cityrun": {"latitude": 47.3768866, "longitude": 8.541694, "race": "Z\u00fcrich Marathon, Teamrun und Cityrun", "date": {"dim. 09.04.2006": {"year": 2006, "day": 9, "month": 4, "categories": {"M30": {"distance": 42, "rank": 44, "pace": 234000000000, "time": 9878.8}}, "weekday": "sunday", "livingplace": "Zurich"}}, "location": "Z\u00fcrich"}, "Dreil\u00e4nder-Lauf, Basel": {"latitude": 47.5595986, "longitude": 7.5885761, "race": "Dreil\u00e4nder-Lauf, Basel", "date": {"dim. 17.05.2009": {"year": 2009, "day": 17, "month": 5, "categories": {"21M30": {"distance": 21, "rank": 7, "pace": 230000000000, "time": 4868.9}}, "weekday": "sunday", "livingplace": "Bach"}}, "location": "Basel"}, "Z\u00fcrcher Silvesterlauf, Z\u00fcrich": {"latitude": 47.3768866, "longitude": 8.541694, "race": "Z\u00fcrcher Silvesterlauf, Z\u00fcrich", "date": {"dim. 10.12.2006": {"year": 2006, "day": 10, "month": 12, "categories": {"MenAK1-8": {"distance": 9, "rank": 10, "pace": 204000000000, "time": 1754.8}}, "weekday": "sunday", "livingplace": "Zurich"}}, "location": "Z\u00fcrich"}, "Sihltaler Fr\u00fchlingslauf, Gattikon": {"latitude": 47.2949282, "longitude": 8.5644799, "race": "Sihltaler Fr\u00fchlingslauf, Gattikon", "date": {"dim. 01.05.2005": {"year": 2005, "day": 1, "month": 5, "categories": {"M30": {"distance": 10, "rank": 2, "pace": 218000000000, "time": 2180.4}}, "weekday": "sunday", "livingplace": "Zurich"}}, "location": "Gattikon"}, "Int Greifenseelauf, Uster": {"latitude": 47.3482747, "longitude": 8.717873899999999, "race": "Int Greifenseelauf, Uster", "date": {"sam. 16.09.2006": {"year": 2006, "day": 16, "month": 9, "categories": {"H/M30": {"distance": 21, "rank": 12, "pace": 224000000000, "time": 4740.0}}, "weekday": "saturday", "livingplace": "Zurich"}}, "location": "Uster"}}, "birth": 1974}