{"name": "Meier Roxana", "sex": "F", "races": {"20km de Lausanne": {"latitude": 46.5196535, "longitude": 6.6322734, "race": "20km de Lausanne", "date": {"sam. 26.04.2014": {"year": 2014, "day": 26, "month": 4, "categories": {"10-F30": {"distance": 10, "rank": 97, "pace": 311000000000, "time": 3116.8}}, "weekday": "saturday", "livingplace": "Schmitten"}}, "location": "Lausanne"}, "Morat-Fribourg": {"latitude": 46.92922110000001, "longitude": 7.120184, "race": "Morat-Fribourg", "date": {"sam. 05.10.2013": {"year": 2013, "day": 5, "month": 10, "categories": {"17-W35": {"distance": 17, "rank": 190, "pace": 348000000000, "time": 6077.2}}, "weekday": "saturday", "livingplace": "Schmitten"}, "sam. 06.10.2007": {"year": 2007, "day": 6, "month": 10, "categories": {"J/CF": {"distance": 9, "rank": 87, "pace": 392000000000, "time": 3376.8}}, "weekday": "saturday", "livingplace": "Marly"}, "sam. 04.10.2014": {"year": 2014, "day": 4, "month": 10, "categories": {"17-W35": {"distance": 17, "rank": 79, "pace": 329000000000, "time": 5651.9}}, "weekday": "saturday", "livingplace": "Schmitten"}}, "location": "Murten"}, "Corrida Bulloise, Bulle": {"latitude": 46.6154512, "longitude": 7.057726799999999, "race": "Corrida Bulloise, Bulle", "date": {"sam. 16.11.2013": {"year": 2013, "day": 16, "month": 11, "categories": {"F20": {"distance": 6, "rank": 133, "pace": 309000000000, "time": 1900.5}}, "weekday": "saturday", "livingplace": "Schmitten"}}, "location": "Bulle"}, "Schweizer Frauenlauf Bern": {"latitude": 46.9479739, "longitude": 7.4474468, "race": "Schweizer Frauenlauf Bern", "date": {"dim. 15.06.2014": {"year": 2014, "day": 15, "month": 6, "categories": {"10-W35": {"distance": 10, "rank": 126, "pace": 317000000000, "time": 3172.0}}, "weekday": "sunday", "livingplace": "Schmitten"}}, "location": "Bern"}, "Course de l'Avent, Fribourg": {"latitude": 46.8064773, "longitude": 7.161971899999999, "race": "Course de l'Avent, Fribourg", "date": {"dim. 24.11.2013": {"year": 2013, "day": 24, "month": 11, "categories": {"P-F30": {"distance": 6, "rank": 8, "pace": 307000000000, "time": 1935.1}}, "weekday": "sunday", "livingplace": "Schmitten"}}, "location": "Fribourg"}, "Kerzerslauf": {"latitude": 46.97488999999999, "longitude": 7.1954365, "race": "Kerzerslauf", "date": {"sam. 15.03.2014": {"year": 2014, "day": 15, "month": 3, "categories": {"15-F35": {"distance": 15, "rank": 70, "pace": 318000000000, "time": 4783.4}}, "weekday": "saturday", "livingplace": "Schmitten"}}, "location": "Kerzers"}}, "birth": 1975}