{"name": "Meier Philipp", "sex": "M", "races": {"Basel City Marathon": {"latitude": 47.5595986, "longitude": 7.5885761, "race": "Basel City Marathon", "date": {"dim. 28.08.2005": {"year": 2005, "day": 28, "month": 8, "categories": {"M20": {"distance": 42, "rank": 85, "pace": 350000000000, "time": 14808.8}}, "weekday": "sunday", "livingplace": "Fullinsdorf"}}, "location": "Basel"}, "Dietiker Neujahrslauf, Dietikon": {"latitude": 47.4053885, "longitude": 8.39977, "race": "Dietiker Neujahrslauf, Dietikon", "date": {"sam. 11.01.2003": {"year": 2003, "day": 11, "month": 1, "categories": {"A": {"distance": 12, "rank": 30, "pace": 254000000000, "time": 3075.0}}, "weekday": "saturday", "livingplace": "Zurich"}}, "location": "Dietikon"}, "GP der Stadt D\u00fcbendorf": {"latitude": 47.3971476, "longitude": 8.618012799999999, "race": "GP der Stadt D\u00fcbendorf", "date": {"sam. 05.04.2003": {"year": 2003, "day": 5, "month": 4, "categories": {"A": {"distance": 13, "rank": 28, "pace": 256000000000, "time": 3230.6}}, "weekday": "saturday", "livingplace": "Zurich"}}, "location": "D\u00fcbendorf"}, "Laufsporttag Winterthur": {"latitude": 39.8088766, "longitude": -75.6037351, "race": "Laufsporttag Winterthur", "date": {"sam. 01.03.2003": {"year": 2003, "day": 1, "month": 3, "categories": {"A": {"distance": 11, "rank": 30, "pace": 266000000000, "time": 2796.4}}, "weekday": "saturday", "livingplace": "Zurich"}}, "location": "Winterthur"}, "Bieler Lauftage, Biel Bienne": {"latitude": 47.1367785, "longitude": 7.2467909, "race": "Bieler Lauftage, Biel Bienne", "date": {"ven. 17.06.2005": {"year": 2005, "day": 17, "month": 6, "categories": {"100/M20": {"distance": 100, "rank": 57, "pace": 535000000000, "time": 53530.5}}, "weekday": "friday", "livingplace": "Fullinsdorf"}}, "location": "Biel/Bienne"}}, "birth": 1977}