{"name": "Meier Boris", "sex": "M", "races": {"Groupe E Tour Fribourg #4, Siviriez": {"latitude": 46.6585092, "longitude": 6.877722, "race": "Groupe E Tour Fribourg #4, Siviriez", "date": {"mer. 10.09.2014": {"year": 2014, "day": 10, "month": 9, "categories": {"H-Jun": {"distance": 11, "rank": 12, "pace": 329000000000, "time": 3561.5}}, "weekday": "wednesday", "livingplace": "Rossens"}}, "location": "Siviriez"}, "SwissCityMarathon - Lucerne, Luzern": {"latitude": 47.05016819999999, "longitude": 8.3093072, "race": "SwissCityMarathon - Lucerne, Luzern", "date": {"dim. 25.10.2015": {"year": 2015, "day": 25, "month": 10, "categories": {"H-U20M": {"distance": 21, "rank": 8, "pace": 260000000000, "time": 5492.8}}, "weekday": "sunday", "livingplace": "Farvagny"}}, "location": "Luzern"}, "Morat-Fribourg": {"latitude": 46.92922110000001, "longitude": 7.120184, "race": "Morat-Fribourg", "date": {"sam. 05.10.2013": {"year": 2013, "day": 5, "month": 10, "categories": {"8-JoggM": {"distance": 9, "rank": 39, "pace": 277000000000, "time": 2460.3}}, "weekday": "saturday", "livingplace": "Fribourg"}, "sam. 03.10.2015": {"year": 2015, "day": 3, "month": 10, "categories": {"17-JunH": {"distance": 17, "rank": 23, "pace": 276000000000, "time": 4750.2}}, "weekday": "saturday", "livingplace": "Farvagny"}, "sam. 06.10.2012": {"year": 2012, "day": 6, "month": 10, "categories": {"8-JoggM": {"distance": 9, "rank": 145, "pace": 352000000000, "time": 3133.9}}, "weekday": "saturday", "livingplace": "Fribourg"}, "sam. 04.10.2014": {"year": 2014, "day": 4, "month": 10, "categories": {"17-CadH": {"distance": 17, "rank": 17, "pace": 290000000000, "time": 4982.1}}, "weekday": "saturday", "livingplace": "Farvagny"}}, "location": "Murten"}, "Corrida Bulloise, Bulle": {"latitude": 46.6154512, "longitude": 7.057726799999999, "race": "Corrida Bulloise, Bulle", "date": {"sam. 21.11.2015": {"year": 2015, "day": 21, "month": 11, "categories": {"JunM-U20": {"distance": 6, "rank": 11, "pace": 240000000000, "time": 1476.2}}, "weekday": "saturday", "livingplace": "Farvagny"}}, "location": "Bulle"}, "Lausanne Marathon": {"latitude": 46.5196535, "longitude": 6.6322734, "race": "Lausanne Marathon", "date": {"dim. 26.10.2014": {"year": 2014, "day": 26, "month": 10, "categories": {"21-JunG": {"distance": 21, "rank": 21, "pace": 278000000000, "time": 5873.8}}, "weekday": "sunday", "livingplace": "Farvagny"}}, "location": "Lausanne"}, "Sierre-Zinal, Sierre": {"latitude": 46.29413110000001, "longitude": 7.533536199999999, "race": "Sierre-Zinal, Sierre", "date": {"dim. 09.08.2015": {"year": 2015, "day": 9, "month": 8, "categories": {"Jun_Homm": {"distance": 19, "rank": 63, "pace": 392000000000, "time": 7460.3}}, "weekday": "sunday", "livingplace": "Farvagny"}}, "location": "Sierre"}, "Groupe E Tour Fribourg #5, Givisiez": {"latitude": 46.8128615, "longitude": 7.131657799999999, "race": "Groupe E Tour Fribourg #5, Givisiez", "date": {"mer. 17.09.2014": {"year": 2014, "day": 17, "month": 9, "categories": {"H-Jun": {"distance": 10, "rank": 12, "pace": 293000000000, "time": 3009.7}}, "weekday": "wednesday", "livingplace": "Rossens"}}, "location": "Givisiez"}}, "birth": 1997}