{"name": "Meier Patrick", "sex": "M", "races": {"Grand Prix Craft, Neuch\u00e2tel": {"latitude": 46.9899874, "longitude": 6.9292732, "race": "Grand Prix Craft, Neuch\u00e2tel", "date": {"dim. 17.12.2006": {"year": 2006, "day": 17, "month": 12, "categories": {"KG4": {"distance": 3, "rank": 1, "pace": 177000000000, "time": 495.6}}, "weekday": "sunday", "livingplace": "Fortuna"}}, "location": "Neuch\u00e2tel"}, "Luzerner Stadtlauf": {"latitude": 47.05016819999999, "longitude": 8.3093072, "race": "Luzerner Stadtlauf", "date": {"sam. 27.04.2002": {"year": 2002, "day": 27, "month": 4, "categories": {"K/6": {"distance": 2, "rank": 2, "pace": 209000000000, "time": 325.3}}, "weekday": "saturday", "livingplace": "LV Frenke"}}, "location": "Luzern"}, "Corrida Bulloise, Bulle": {"latitude": 46.6154512, "longitude": 7.057726799999999, "race": "Corrida Bulloise, Bulle", "date": {"sam. 15.11.2008": {"year": 2008, "day": 15, "month": 11, "categories": {"CMA": {"distance": 5, "rank": 2, "pace": 196000000000, "time": 981.5}}, "weekday": "saturday", "livingplace": "Oberdorf"}}, "location": "Bulle"}, "Course Titz\u00e9 de no\u00ebl Sion": {"latitude": 46.2331221, "longitude": 7.360625999999999, "race": "Course Titz\u00e9 de no\u00ebl Sion", "date": {"sam. 09.12.2006": {"year": 2006, "day": 9, "month": 12, "categories": {"CMA": {"distance": 4, "rank": 1, "pace": 189000000000, "time": 805.0}}, "weekday": "saturday", "livingplace": "Fortuna"}}, "location": "Sion"}, "Langenthaler Stadtlauf": {"latitude": 47.2120786, "longitude": 7.790562299999999, "race": "Langenthaler Stadtlauf", "date": {"sam. 18.11.2006": {"year": 2006, "day": 18, "month": 11, "categories": {"JugB": {"distance": 3, "rank": 1, "pace": 178000000000, "time": 446.8}}, "weekday": "saturday", "livingplace": "Fortuna"}}, "location": "Langenthal"}, "Hellebardenlauf Sempach": {"latitude": NaN, "longitude": NaN, "race": "Hellebardenlauf Sempach", "date": {"sam. 30.06.2001": {"year": 2001, "day": 30, "month": 6, "categories": {"17/S1": {"distance": 17, "rank": 153, "pace": 317000000000, "time": 5498.8}}, "weekday": "saturday", "livingplace": "Club"}}, "location": "Sempach Stadt"}}, "birth": 0}