{"name": "Meister Valentin", "sex": "M", "races": {"BCN Tour Couvet": {"latitude": 47.0624261, "longitude": 6.9175754, "race": "BCN Tour Couvet", "date": {"mer. 02.05.2012": {"year": 2012, "day": 2, "month": 5, "categories": {"KG3": {"distance": 4, "rank": 41, "pace": 313000000000, "time": 1158.4}}, "weekday": "wednesday", "livingplace": "Cormondreche"}}, "location": "Ch\u00e9zard-St-Martin"}, "BCN Tour M\u00f4tier": {"latitude": 46.9262933, "longitude": 6.6324944, "race": "BCN Tour M\u00f4tier", "date": {"mer. 19.05.2010": {"year": 2010, "day": 19, "month": 5, "categories": {"KG2": {"distance": 2, "rank": 42, "pace": 264000000000, "time": 475.7}}, "weekday": "wednesday", "livingplace": "Cormondreche"}}, "location": "Couvet"}, "BCN Tour Les Ponts-de-Martel": {"latitude": 46.999113, "longitude": 6.733554799999999, "race": "BCN Tour Les Ponts-de-Martel", "date": {"mer. 09.05.2012": {"year": 2012, "day": 9, "month": 5, "categories": {"KG3": {"distance": 4, "rank": 43, "pace": 315000000000, "time": 1197.4}}, "weekday": "wednesday", "livingplace": "Cormondreche"}}, "location": "Les Ponts-de-Martel"}, "BCN Tour Fontaine Cernier": {"latitude": 47.0624261, "longitude": 6.9175754, "race": "BCN Tour Fontaine Cernier", "date": {"mer. 27.04.2011": {"year": 2011, "day": 27, "month": 4, "categories": {"KG2": {"distance": 2, "rank": 32, "pace": 313000000000, "time": 533.2}}, "weekday": "wednesday", "livingplace": "Cormondreche"}}, "location": "Ch\u00e9zard-St-Martin"}, "BCN Tour Le Landeron": {"latitude": 46.9668714, "longitude": 6.8589727, "race": "BCN Tour Le Landeron", "date": {"mer. 22.04.2009": {"year": 2009, "day": 22, "month": 4, "categories": {"KG1": {"distance": 2, "rank": 51, "pace": 316000000000, "time": 632.4}}, "weekday": "wednesday", "livingplace": "Cormondreche"}}, "location": "Colombier NE"}, "BCN Tour Le Locle": {"latitude": 46.999113, "longitude": 6.733554799999999, "race": "BCN Tour Le Locle", "date": {"mer. 05.05.2010": {"year": 2010, "day": 5, "month": 5, "categories": {"KG2": {"distance": 2, "rank": 30, "pace": 281000000000, "time": 507.4}}, "weekday": "wednesday", "livingplace": "Cormondreche"}}, "location": "Les Ponts-de-Martel"}, "BCN Tour Neuch\u00e2tel": {"latitude": 46.9899874, "longitude": 6.9292732, "race": "BCN Tour Neuch\u00e2tel", "date": {"mer. 26.05.2010": {"year": 2010, "day": 26, "month": 5, "categories": {"KG2": {"distance": 2, "rank": 24, "pace": 225000000000, "time": 338.4}}, "weekday": "wednesday", "livingplace": "Cormondreche"}, "mer. 30.05.2012": {"year": 2012, "day": 30, "month": 5, "categories": {"KG3": {"distance": 3, "rank": 59, "pace": 314000000000, "time": 975.3}}, "weekday": "wednesday", "livingplace": "Cormondreche"}, "mer. 25.05.2011": {"year": 2011, "day": 25, "month": 5, "categories": {"KG2": {"distance": 2, "rank": 27, "pace": 255000000000, "time": 511.2}}, "weekday": "wednesday", "livingplace": "Cormondreche"}}, "location": "Neuch\u00e2tel"}, "BCN Tour Auvernier": {"latitude": 46.9668714, "longitude": 6.8589727, "race": "BCN Tour Auvernier", "date": {"mer. 20.04.2011": {"year": 2011, "day": 20, "month": 4, "categories": {"KG2": {"distance": 1, "rank": 37, "pace": 250000000000, "time": 338.8}}, "weekday": "wednesday", "livingplace": "Cormondreche"}}, "location": "Colombier NE"}, "BCN Tour Cornaux": {"latitude": 46.9668714, "longitude": 6.8589727, "race": "BCN Tour Cornaux", "date": {"mer. 25.04.2012": {"year": 2012, "day": 25, "month": 4, "categories": {"KG3": {"distance": 3, "rank": 39, "pace": 296000000000, "time": 829.7}}, "weekday": "wednesday", "livingplace": "Cormondreche"}}, "location": "Colombier NE"}, "BCN Tour #1 Corcelles": {"latitude": 46.9668714, "longitude": 6.8589727, "race": "BCN Tour #1 Corcelles", "date": {"mer. 24.04.2013": {"year": 2013, "day": 24, "month": 4, "categories": {"KG3": {"distance": 3, "rank": 32, "pace": 336000000000, "time": 942.7}}, "weekday": "wednesday", "livingplace": "Cormondreche"}}, "location": "Colombier NE"}, "BCN Tour La Chaux-de-Fonds": {"latitude": 47.1034892, "longitude": 6.832783800000001, "race": "BCN Tour La Chaux-de-Fonds", "date": {"mer. 23.05.2012": {"year": 2012, "day": 23, "month": 5, "categories": {"KG3": {"distance": 4, "rank": 41, "pace": 314000000000, "time": 1130.7}}, "weekday": "wednesday", "livingplace": "Cormondreche"}, "mer. 11.05.2011": {"year": 2011, "day": 11, "month": 5, "categories": {"KG2": {"distance": 1, "rank": 35, "pace": 452000000000, "time": 439.2}}, "weekday": "wednesday", "livingplace": "Cormondreche"}}, "location": "La Chaux-de-Fonds"}, "BCN Tour #6 Neuch\u00e2tel": {"latitude": 46.9899874, "longitude": 6.9292732, "race": "BCN Tour #6 Neuch\u00e2tel", "date": {"mer. 29.05.2013": {"year": 2013, "day": 29, "month": 5, "categories": {"KG3": {"distance": 2, "rank": 28, "pace": 237000000000, "time": 522.4}}, "weekday": "wednesday", "livingplace": "Cormondreche"}}, "location": "Neuch\u00e2tel"}, "BCN Tour La Br\u00e9vine": {"latitude": 46.999113, "longitude": 6.733554799999999, "race": "BCN Tour La Br\u00e9vine", "date": {"mer. 04.05.2011": {"year": 2011, "day": 4, "month": 5, "categories": {"KG2": {"distance": 2, "rank": 35, "pace": 275000000000, "time": 523.5}}, "weekday": "wednesday", "livingplace": "Cormondreche"}}, "location": "Les Ponts-de-Martel"}, "BCN Tour Ponts-de-Martel": {"latitude": 47.0624261, "longitude": 6.9175754, "race": "BCN Tour Ponts-de-Martel", "date": {"mer. 28.04.2010": {"year": 2010, "day": 28, "month": 4, "categories": {"KG2": {"distance": 2, "rank": 70, "pace": 242000000000, "time": 533.4}}, "weekday": "wednesday", "livingplace": "Cormondreche"}}, "location": "Ch\u00e9zard-St-Martin"}, "BCN Tour Les Ponts de Martel": {"latitude": 46.9262933, "longitude": 6.6324944, "race": "BCN Tour Les Ponts de Martel", "date": {"mer. 18.05.2011": {"year": 2011, "day": 18, "month": 5, "categories": {"KG2": {"distance": 2, "rank": 30, "pace": 248000000000, "time": 490.4}}, "weekday": "wednesday", "livingplace": "Cormondreche"}}, "location": "Couvet"}, "BCN Tour #5 Colombier": {"latitude": 46.9262933, "longitude": 6.6324944, "race": "BCN Tour #5 Colombier", "date": {"mer. 22.05.2013": {"year": 2013, "day": 22, "month": 5, "categories": {"KG3": {"distance": 2, "rank": 36, "pace": 267000000000, "time": 615.1}}, "weekday": "wednesday", "livingplace": "Cormondreche"}}, "location": "Couvet"}, "BCN Tour La Chaux-de-fonds": {"latitude": 47.1034892, "longitude": 6.832783800000001, "race": "BCN Tour La Chaux-de-fonds", "date": {"mer. 12.05.2010": {"year": 2010, "day": 12, "month": 5, "categories": {"KG2": {"distance": 1, "rank": 58, "pace": 822000000000, "time": 797.6}}, "weekday": "wednesday", "livingplace": "Cormondreche"}}, "location": "La Chaux-de-Fonds"}, "BCN Tour Colombier": {"latitude": 46.9668714, "longitude": 6.8589727, "race": "BCN Tour Colombier", "date": {"mer. 16.05.2012": {"year": 2012, "day": 16, "month": 5, "categories": {"KG3": {"distance": 3, "rank": 45, "pace": 300000000000, "time": 902.8}}, "weekday": "wednesday", "livingplace": "Cormondreche"}, "mer. 21.04.2010": {"year": 2010, "day": 21, "month": 4, "categories": {"KG2": {"distance": 2, "rank": 56, "pace": 324000000000, "time": 649.5}}, "weekday": "wednesday", "livingplace": "Cormondreche"}}, "location": "Colombier NE"}}, "birth": 2000}