{"name": "Mendez Arthur", "sex": "M", "races": {"Grand Prix Craft, Neuch\u00e2tel": {"latitude": 46.9899874, "longitude": 6.9292732, "race": "Grand Prix Craft, Neuch\u00e2tel", "date": {"dim. 16.12.2007": {"year": 2007, "day": 16, "month": 12, "categories": {"KG1": {"distance": 1, "rank": 33, "pace": 341000000000, "time": 341.7}}, "weekday": "sunday", "livingplace": "Dombresson"}}, "location": "Neuch\u00e2tel"}, "Course de l'Escalade, Gen\u00e8ve": {"latitude": 46.2043907, "longitude": 6.1431577, "race": "Course de l'Escalade, Gen\u00e8ve", "date": {"sam. 05.12.2009": {"year": 2009, "day": 5, "month": 12, "categories": {"HPousB7": {"distance": 2, "rank": 432, "pace": 374000000000, "time": 662.6}}, "weekday": "saturday", "livingplace": "Dombresson"}, "sam. 06.12.2008": {"year": 2008, "day": 6, "month": 12, "categories": {"HPousB": {"distance": 2, "rank": 659, "pace": 408000000000, "time": 743.7}}, "weekday": "saturday", "livingplace": "Dombresson"}, "sam. 04.12.2010": {"year": 2010, "day": 4, "month": 12, "categories": {"H-PA8": {"distance": 2, "rank": 447, "pace": 396000000000, "time": 701.5}}, "weekday": "saturday", "livingplace": "Dombresson"}}, "location": "Gen\u00e8ve"}, "BCN Tour Fontaine Cernier": {"latitude": 47.0624261, "longitude": 6.9175754, "race": "BCN Tour Fontaine Cernier", "date": {"mer. 27.04.2011": {"year": 2011, "day": 27, "month": 4, "categories": {"KG1": {"distance": 2, "rank": 86, "pace": 375000000000, "time": 638.4}}, "weekday": "wednesday", "livingplace": "Dombresson"}}, "location": "Ch\u00e9zard-St-Martin"}, "BCN Tour Les Ponts-de-Martel": {"latitude": 46.999113, "longitude": 6.733554799999999, "race": "BCN Tour Les Ponts-de-Martel", "date": {"mer. 09.05.2012": {"year": 2012, "day": 9, "month": 5, "categories": {"KG2": {"distance": 2, "rank": 78, "pace": 356000000000, "time": 677.8}}, "weekday": "wednesday", "livingplace": "Dombresson"}}, "location": "Les Ponts-de-Martel"}, "BCN Tour Colombier": {"latitude": 46.9668714, "longitude": 6.8589727, "race": "BCN Tour Colombier", "date": {"mer. 23.04.2008": {"year": 2008, "day": 23, "month": 4, "categories": {"KG1": {"distance": 2, "rank": 60, "pace": 449000000000, "time": 899.3}}, "weekday": "wednesday", "livingplace": "Dombresson"}}, "location": "Colombier NE"}, "BCN Tour #3 Dombresson": {"latitude": 46.999113, "longitude": 6.733554799999999, "race": "BCN Tour #3 Dombresson", "date": {"mer. 08.05.2013": {"year": 2013, "day": 8, "month": 5, "categories": {"KG2": {"distance": 1, "rank": 98, "pace": 329000000000, "time": 427.8}}, "weekday": "wednesday", "livingplace": "Dombresson"}}, "location": "Les Ponts-de-Martel"}}, "birth": 2002}