{"name": "Meraglia Marcello", "sex": "M", "races": {"BCN Tour Colombier": {"latitude": 47.1034892, "longitude": 6.832783800000001, "race": "BCN Tour Colombier", "date": {"mer. 16.05.2012": {"year": 2012, "day": 16, "month": 5, "categories": {"HS2": {"distance": 11, "rank": 267, "pace": 335000000000, "time": 3628.6}}, "weekday": "wednesday", "livingplace": "Peseux"}}, "location": "La Chaux-de-Fonds"}, "BCN Tour La Chaux-de-Fonds": {"latitude": 46.9262933, "longitude": 6.6324944, "race": "BCN Tour La Chaux-de-Fonds", "date": {"mer. 23.05.2012": {"year": 2012, "day": 23, "month": 5, "categories": {"HS2": {"distance": 11, "rank": 274, "pace": 350000000000, "time": 3790.2}}, "weekday": "wednesday", "livingplace": "Peseux"}}, "location": "Couvet"}, "BCN Tour Cornaux": {"latitude": 46.9668714, "longitude": 6.8589727, "race": "BCN Tour Cornaux", "date": {"mer. 25.04.2012": {"year": 2012, "day": 25, "month": 4, "categories": {"HS2": {"distance": 11, "rank": 326, "pace": 558000000000, "time": 6145.3}}, "weekday": "wednesday", "livingplace": "Peseux"}}, "location": "Colombier NE"}, "BCN Tour Les Ponts-de-Martel": {"latitude": 46.999113, "longitude": 6.733554799999999, "race": "BCN Tour Les Ponts-de-Martel", "date": {"mer. 09.05.2012": {"year": 2012, "day": 9, "month": 5, "categories": {"HS2": {"distance": 10, "rank": 269, "pace": 353000000000, "time": 3636.1}}, "weekday": "wednesday", "livingplace": "Peseux"}}, "location": "Les Ponts-de-Martel"}, "BCN Tour Neuch\u00e2tel": {"latitude": 46.9899874, "longitude": 6.9292732, "race": "BCN Tour Neuch\u00e2tel", "date": {"mer. 30.05.2012": {"year": 2012, "day": 30, "month": 5, "categories": {"HS2": {"distance": 11, "rank": 286, "pace": 378000000000, "time": 4239.5}}, "weekday": "wednesday", "livingplace": "Peseux"}}, "location": "Neuch\u00e2tel"}}, "birth": 1966}