{"name": "Mermod Chlo\u00e9", "sex": "F", "races": {"20km de Lausanne": {"latitude": 46.5196535, "longitude": 6.6322734, "race": "20km de Lausanne", "date": {"sam. 24.04.2010": {"year": 2010, "day": 24, "month": 4, "categories": {"10-F20": {"distance": 10, "rank": 615, "pace": 447000000000, "time": 4477.7}}, "weekday": "saturday", "livingplace": "Corcelles sur Chavornay"}, "sam. 27.04.2013": {"year": 2013, "day": 27, "month": 4, "categories": {"10-F20": {"distance": 10, "rank": 552, "pace": 358000000000, "time": 3585.4}}, "weekday": "saturday", "livingplace": "Orbe"}}, "location": "Lausanne"}, "Schweizer Frauenlauf Bern": {"latitude": 46.9479739, "longitude": 7.4474468, "race": "Schweizer Frauenlauf Bern", "date": {"dim. 15.06.2014": {"year": 2014, "day": 15, "month": 6, "categories": {"5-W20": {"distance": 5, "rank": 690, "pace": 363000000000, "time": 1815.1}}, "weekday": "sunday", "livingplace": "Orbe"}}, "location": "Bern"}, "Morat-Fribourg": {"latitude": 46.92922110000001, "longitude": 7.120184, "race": "Morat-Fribourg", "date": {"sam. 05.10.2013": {"year": 2013, "day": 5, "month": 10, "categories": {"17-W20": {"distance": 17, "rank": 583, "pace": 394000000000, "time": 6880.7}}, "weekday": "saturday", "livingplace": "Orbe"}, "sam. 04.10.2014": {"year": 2014, "day": 4, "month": 10, "categories": {"17-W20": {"distance": 17, "rank": 666, "pace": 428000000000, "time": 7353.2}}, "weekday": "saturday", "livingplace": "Orbe"}}, "location": "Murten"}, "Kerzerslauf": {"latitude": 46.97488999999999, "longitude": 7.1954365, "race": "Kerzerslauf", "date": {"sam. 15.03.2014": {"year": 2014, "day": 15, "month": 3, "categories": {"5-F20": {"distance": 5, "rank": 191, "pace": 377000000000, "time": 1889.1}}, "weekday": "saturday", "livingplace": "Orbe"}}, "location": "Kerzers"}, "Les Traine-Savates, Cheseaux-sur-Lausanne": {"latitude": 46.585452, "longitude": 6.6047712, "race": "Les Traine-Savates, Cheseaux-sur-Lausanne", "date": {"sam. 12.04.2014": {"year": 2014, "day": 12, "month": 4, "categories": {"10-W20": {"distance": 10, "rank": 124, "pace": 371000000000, "time": 3828.4}}, "weekday": "saturday", "livingplace": "Orbe"}}, "location": "Cheseaux-sur-Lausanne"}}, "birth": 1988}