{"name": "Mesot Ariane", "sex": "F", "races": {"Tour du Chablais #1 Roche": {"latitude": 46.2957462, "longitude": 6.9916269, "race": "Tour du Chablais #1 Roche", "date": {"mer. 03.04.2013": {"year": 2013, "day": 3, "month": 4, "categories": {"F-F40": {"distance": 9, "rank": 12, "pace": 270000000000, "time": 2399.6}}, "weekday": "wednesday", "livingplace": "Leysin"}}, "location": "Ollon VD"}, "Tour du Chablais #6 Monthey": {"latitude": 46.3190253, "longitude": 6.970566, "race": "Tour du Chablais #6 Monthey", "date": {"mer. 08.05.2013": {"year": 2013, "day": 8, "month": 5, "categories": {"F-F40": {"distance": 9, "rank": 14, "pace": 269000000000, "time": 2512.7}}, "weekday": "wednesday", "livingplace": "Leysin"}}, "location": "Aigle"}, "Corrida Bulloise, Bulle": {"latitude": 46.6154512, "longitude": 7.057726799999999, "race": "Corrida Bulloise, Bulle", "date": {"sam. 17.11.2007": {"year": 2007, "day": 17, "month": 11, "categories": {"F20": {"distance": 6, "rank": 62, "pace": 282000000000, "time": 1692.5}}, "weekday": "saturday", "livingplace": "Leysin"}, "sam. 15.11.2008": {"year": 2008, "day": 15, "month": 11, "categories": {"F20": {"distance": 6, "rank": 33, "pace": 260000000000, "time": 1563.1}}, "weekday": "saturday", "livingplace": "Leysin"}}, "location": "Bulle"}, "Tour du Chablais #5 Morgins": {"latitude": 46.3603257, "longitude": 6.931504599999999, "race": "Tour du Chablais #5 Morgins", "date": {"mer. 01.05.2013": {"year": 2013, "day": 1, "month": 5, "categories": {"F-F40": {"distance": 8, "rank": 11, "pace": 284000000000, "time": 2164.2}}, "weekday": "wednesday", "livingplace": "Leysin"}}, "location": "Roche VD"}, "20km de Lausanne": {"latitude": 46.5196535, "longitude": 6.6322734, "race": "20km de Lausanne", "date": {"sam. 25.04.2009": {"year": 2009, "day": 25, "month": 4, "categories": {"20-F30": {"distance": 20, "rank": 22, "pace": 283000000000, "time": 5670.0}}, "weekday": "saturday", "livingplace": "Leysin"}}, "location": "Lausanne"}, "Aletsch-Halbmarathon, Bettmeralp": {"latitude": NaN, "longitude": NaN, "race": "Aletsch-Halbmarathon, Bettmeralp", "date": {"dim. 28.06.2009": {"year": 2009, "day": 28, "month": 6, "categories": {"F30": {"distance": 21, "rank": 22, "pace": 456000000000, "time": 9577.9}}, "weekday": "sunday", "livingplace": "crockil"}}, "location": "Bettmeralp"}, "Tour du Chablais #4 Champ\u00e9ry": {"latitude": NaN, "longitude": NaN, "race": "Tour du Chablais #4 Champ\u00e9ry", "date": {"mer. 02.05.2012": {"year": 2012, "day": 2, "month": 5, "categories": {"F-F40": {"distance": 8, "rank": 9, "pace": 279000000000, "time": 2316.7}}, "weekday": "wednesday", "livingplace": "Leysin"}}, "location": "Les Mosses"}, "Tour du Chablais #2 Yvorne": {"latitude": 46.3835529, "longitude": 6.854975199999999, "race": "Tour du Chablais #2 Yvorne", "date": {"mer. 10.04.2013": {"year": 2013, "day": 10, "month": 4, "categories": {"F-F40": {"distance": 8, "rank": 13, "pace": 304000000000, "time": 2433.8}}, "weekday": "wednesday", "livingplace": "Leysin"}}, "location": "Bouveret"}, "Tour du Chablais #5 Bex": {"latitude": 46.3603257, "longitude": 6.931504599999999, "race": "Tour du Chablais #5 Bex", "date": {"mer. 09.05.2012": {"year": 2012, "day": 9, "month": 5, "categories": {"F-F40": {"distance": 9, "rank": 8, "pace": 271000000000, "time": 2409.4}}, "weekday": "wednesday", "livingplace": "Leysin"}}, "location": "Roche VD"}, "Tour du Chablais #6 Mouthey": {"latitude": 46.3190253, "longitude": 6.970566, "race": "Tour du Chablais #6 Mouthey", "date": {"mer. 12.05.2010": {"year": 2010, "day": 12, "month": 5, "categories": {"F-F40": {"distance": 9, "rank": 5, "pace": 261000000000, "time": 2405.5}}, "weekday": "wednesday", "livingplace": "Leysin"}}, "location": "Aigle"}, "Tour du Chablais #3 Bouveret": {"latitude": 46.1782231, "longitude": 7.0223787, "race": "Tour du Chablais #3 Bouveret", "date": {"mer. 17.04.2013": {"year": 2013, "day": 17, "month": 4, "categories": {"F-F40": {"distance": 10, "rank": 13, "pace": 286000000000, "time": 2861.2}}, "weekday": "wednesday", "livingplace": "Leysin"}}, "location": "Evionnaz"}, "Tour du Chablais #1 Montreux": {"latitude": 46.2957462, "longitude": 6.9916269, "race": "Tour du Chablais #1 Montreux", "date": {"mer. 11.04.2012": {"year": 2012, "day": 11, "month": 4, "categories": {"F-F40": {"distance": 8, "rank": 10, "pace": 291000000000, "time": 2217.2}}, "weekday": "wednesday", "livingplace": "Leysin"}}, "location": "Ollon VD"}, "Tour du Chablais #3 Collombey-Muraz": {"latitude": 46.1782231, "longitude": 7.0223787, "race": "Tour du Chablais #3 Collombey-Muraz", "date": {"mer. 25.04.2012": {"year": 2012, "day": 25, "month": 4, "categories": {"F-F40": {"distance": 9, "rank": 10, "pace": 282000000000, "time": 2533.6}}, "weekday": "wednesday", "livingplace": "Leysin"}}, "location": "Evionnaz"}, "Montreux - Les Rochers de Naye": {"latitude": 46.4312213, "longitude": 6.9106799, "race": "Montreux - Les Rochers de Naye", "date": {"dim. 11.07.2010": {"year": 2010, "day": 11, "month": 7, "categories": {"M-F-Spez": {"distance": 19, "rank": 14, "pace": 472000000000, "time": 8887.7}}, "weekday": "sunday", "livingplace": "Leysin"}}, "location": "Montreux"}, "Tour du Chablais #4 St  Maurice": {"latitude": NaN, "longitude": NaN, "race": "Tour du Chablais #4 St  Maurice", "date": {"mer. 24.04.2013": {"year": 2013, "day": 24, "month": 4, "categories": {"F-F40": {"distance": 10, "rank": 14, "pace": 281000000000, "time": 2815.9}}, "weekday": "wednesday", "livingplace": "Leysin"}}, "location": "Les Mosses"}, "Tour du Chablais #2 Bex": {"latitude": 46.3835529, "longitude": 6.854975199999999, "race": "Tour du Chablais #2 Bex", "date": {"mer. 18.04.2012": {"year": 2012, "day": 18, "month": 4, "categories": {"F-F40": {"distance": 8, "rank": 10, "pace": 278000000000, "time": 2228.3}}, "weekday": "wednesday", "livingplace": "Leysin"}}, "location": "Bouveret"}, "Tour du Chablais #6 Montreux": {"latitude": 46.3190253, "longitude": 6.970566, "race": "Tour du Chablais #6 Montreux", "date": {"mer. 16.05.2012": {"year": 2012, "day": 16, "month": 5, "categories": {"F-F40": {"distance": 9, "rank": 9, "pace": 273000000000, "time": 2531.7}}, "weekday": "wednesday", "livingplace": "Leysin"}}, "location": "Aigle"}}, "birth": 1970}