{"name": "M\u00e9traux Jean-Lou", "sex": "M", "races": {"Tour du Chablais #1 Roche": {"latitude": 46.2957462, "longitude": 6.9916269, "race": "Tour du Chablais #1 Roche", "date": {"mer. 07.04.2010": {"year": 2010, "day": 7, "month": 4, "categories": {"M-M20": {"distance": 9, "rank": 90, "pace": 257000000000, "time": 2308.9}}, "weekday": "wednesday", "livingplace": "Leysin"}}, "location": "Ollon VD"}, "Tour du Chablais #2 Rennaz": {"latitude": 46.3835529, "longitude": 6.854975199999999, "race": "Tour du Chablais #2 Rennaz", "date": {"mer. 04.05.2011": {"year": 2011, "day": 4, "month": 5, "categories": {"M-M20": {"distance": 9, "rank": 74, "pace": 252000000000, "time": 2361.0}}, "weekday": "wednesday", "livingplace": "Leysin"}}, "location": "Bouveret"}, "Tour du Chablais #3 Bex": {"latitude": 46.1782231, "longitude": 7.0223787, "race": "Tour du Chablais #3 Bex", "date": {"mer. 21.04.2010": {"year": 2010, "day": 21, "month": 4, "categories": {"M-M20": {"distance": 10, "rank": 68, "pace": 261000000000, "time": 2614.3}}, "weekday": "wednesday", "livingplace": "Leysin"}}, "location": "Evionnaz"}, "Morat-Fribourg": {"latitude": 46.92922110000001, "longitude": 7.120184, "race": "Morat-Fribourg", "date": {"sam. 02.10.2010": {"year": 2010, "day": 2, "month": 10, "categories": {"17-M20": {"distance": 17, "rank": 566, "pace": 285000000000, "time": 4895.6}}, "weekday": "saturday", "livingplace": "Leysin"}}, "location": "Murten"}, "Tour du Chablais #4 Morgins": {"latitude": NaN, "longitude": NaN, "race": "Tour du Chablais #4 Morgins", "date": {"mer. 18.05.2011": {"year": 2011, "day": 18, "month": 5, "categories": {"M-M20": {"distance": 8, "rank": 74, "pace": 267000000000, "time": 2234.4}}, "weekday": "wednesday", "livingplace": "Leysin"}}, "location": "Les Mosses"}, "Corrida Bulloise, Bulle": {"latitude": 46.6154512, "longitude": 7.057726799999999, "race": "Corrida Bulloise, Bulle", "date": {"sam. 20.11.2010": {"year": 2010, "day": 20, "month": 11, "categories": {"M20": {"distance": 8, "rank": 96, "pace": 250000000000, "time": 2039.6}}, "weekday": "saturday", "livingplace": "Leysin"}, "sam. 19.11.2011": {"year": 2011, "day": 19, "month": 11, "categories": {"M20": {"distance": 8, "rank": 99, "pace": 260000000000, "time": 2125.3}}, "weekday": "saturday", "livingplace": "Leysin"}}, "location": "Bulle"}, "20km de Lausanne": {"latitude": 46.5196535, "longitude": 6.6322734, "race": "20km de Lausanne", "date": {"sam. 24.04.2010": {"year": 2010, "day": 24, "month": 4, "categories": {"10-H30": {"distance": 10, "rank": 79, "pace": 260000000000, "time": 2605.0}}, "weekday": "saturday", "livingplace": "Leysin"}}, "location": "Lausanne"}, "Tour du Chablais #1 Lavey": {"latitude": 46.2957462, "longitude": 6.9916269, "race": "Tour du Chablais #1 Lavey", "date": {"mer. 27.04.2011": {"year": 2011, "day": 27, "month": 4, "categories": {"M-M20": {"distance": 9, "rank": 71, "pace": 252000000000, "time": 2268.8}}, "weekday": "wednesday", "livingplace": "Leysin"}}, "location": "Ollon VD"}, "Tour du Chablais #5 Leysin": {"latitude": 46.3603257, "longitude": 6.931504599999999, "race": "Tour du Chablais #5 Leysin", "date": {"mer. 05.05.2010": {"year": 2010, "day": 5, "month": 5, "categories": {"M-M20": {"distance": 8, "rank": 52, "pace": 271000000000, "time": 2296.3}}, "weekday": "wednesday", "livingplace": "Leysin"}}, "location": "Roche VD"}, "Lausanne Marathon": {"latitude": 46.5196535, "longitude": 6.6322734, "race": "Lausanne Marathon", "date": {"dim. 30.10.2011": {"year": 2011, "day": 30, "month": 10, "categories": {"10-H2": {"distance": 10, "rank": 104, "pace": 254000000000, "time": 2545.7}}, "weekday": "sunday", "livingplace": "Leysin"}}, "location": "Lausanne"}, "Tour du Chablais #6 Mouthey": {"latitude": 46.3190253, "longitude": 6.970566, "race": "Tour du Chablais #6 Mouthey", "date": {"mer. 12.05.2010": {"year": 2010, "day": 12, "month": 5, "categories": {"M-M20": {"distance": 9, "rank": 69, "pace": 242000000000, "time": 2232.5}}, "weekday": "wednesday", "livingplace": "Leysin"}}, "location": "Aigle"}, "Tour du Chablais #1 Montreux": {"latitude": 46.2957462, "longitude": 6.9916269, "race": "Tour du Chablais #1 Montreux", "date": {"mer. 11.04.2012": {"year": 2012, "day": 11, "month": 4, "categories": {"M-M20": {"distance": 8, "rank": 68, "pace": 263000000000, "time": 1999.9}}, "weekday": "wednesday", "livingplace": "Leysin"}}, "location": "Ollon VD"}, "Tour du Chablais #5 Les Mosses": {"latitude": 46.3603257, "longitude": 6.931504599999999, "race": "Tour du Chablais #5 Les Mosses", "date": {"mer. 25.05.2011": {"year": 2011, "day": 25, "month": 5, "categories": {"M-M20": {"distance": 8, "rank": 76, "pace": 270000000000, "time": 2164.3}}, "weekday": "wednesday", "livingplace": "Leysin"}}, "location": "Roche VD"}, "Tour du Chablais #3 Le Bouveret": {"latitude": 46.1782231, "longitude": 7.0223787, "race": "Tour du Chablais #3 Le Bouveret", "date": {"mer. 11.05.2011": {"year": 2011, "day": 11, "month": 5, "categories": {"M-M20": {"distance": 10, "rank": 104, "pace": 260000000000, "time": 2608.4}}, "weekday": "wednesday", "livingplace": "Leysin"}}, "location": "Evionnaz"}, "Tour du Chablais #6 Aigle": {"latitude": 46.3190253, "longitude": 6.970566, "race": "Tour du Chablais #6 Aigle", "date": {"mer. 01.06.2011": {"year": 2011, "day": 1, "month": 6, "categories": {"M-M20": {"distance": 10, "rank": 73, "pace": 244000000000, "time": 2494.3}}, "weekday": "wednesday", "livingplace": "Leysin"}}, "location": "Aigle"}, "Tour du Chablais #2 St-Gingolph": {"latitude": 46.3835529, "longitude": 6.854975199999999, "race": "Tour du Chablais #2 St-Gingolph", "date": {"mer. 14.04.2010": {"year": 2010, "day": 14, "month": 4, "categories": {"M-M20": {"distance": 8, "rank": 69, "pace": 276000000000, "time": 2307.6}}, "weekday": "wednesday", "livingplace": "Leysin"}}, "location": "Bouveret"}, "Tour du Chablais #4 Yvorne": {"latitude": NaN, "longitude": NaN, "race": "Tour du Chablais #4 Yvorne", "date": {"mer. 28.04.2010": {"year": 2010, "day": 28, "month": 4, "categories": {"M-M20": {"distance": 8, "rank": 62, "pace": 266000000000, "time": 2210.6}}, "weekday": "wednesday", "livingplace": "Leysin"}}, "location": "Les Mosses"}, "Tour du Chablais #2 Bex": {"latitude": 46.3835529, "longitude": 6.854975199999999, "race": "Tour du Chablais #2 Bex", "date": {"mer. 18.04.2012": {"year": 2012, "day": 18, "month": 4, "categories": {"M-M20": {"distance": 8, "rank": 61, "pace": 250000000000, "time": 2005.6}}, "weekday": "wednesday", "livingplace": "Leysin"}}, "location": "Bouveret"}}, "birth": 1974}