{"name": "Mettler Yannick", "sex": "M", "races": {"Glacier 3000 Run, Gstaad": {"latitude": 46.4717588, "longitude": 7.2865728, "race": "Glacier 3000 Run, Gstaad", "date": {"sam. 08.08.2015": {"year": 2015, "day": 8, "month": 8, "categories": {"M20": {"distance": 26, "rank": 41, "pace": 580000000000, "time": 15103.0}}, "weekday": "saturday", "livingplace": "Geneve"}}, "location": "Gstaad"}, "20km de Lausanne": {"latitude": 46.5196535, "longitude": 6.6322734, "race": "20km de Lausanne", "date": {"sam. 25.04.2015": {"year": 2015, "day": 25, "month": 4, "categories": {"20-H20": {"distance": 20, "rank": 241, "pace": 272000000000, "time": 5443.5}}, "weekday": "saturday", "livingplace": "Geneve"}}, "location": "Lausanne"}, "Course de l'Escalade, Gen\u00e8ve": {"latitude": 46.2043907, "longitude": 6.1431577, "race": "Course de l'Escalade, Gen\u00e8ve", "date": {"sam. 05.12.2015": {"year": 2015, "day": 5, "month": 12, "categories": {"Esc-Hom1": {"distance": 7, "rank": 248, "pace": 247000000000, "time": 1813.8}}, "weekday": "saturday", "livingplace": "Anieres"}, "sam. 06.12.2014": {"year": 2014, "day": 6, "month": 12, "categories": {"Esc-Hom1": {"distance": 7, "rank": 310, "pace": 260000000000, "time": 1904.7}}, "weekday": "saturday", "livingplace": "Geneve"}}, "location": "Gen\u00e8ve"}, "Kerzerslauf": {"latitude": 46.97488999999999, "longitude": 7.1954365, "race": "Kerzerslauf", "date": {"sam. 21.03.2015": {"year": 2015, "day": 21, "month": 3, "categories": {"15-M20": {"distance": 15, "rank": 281, "pace": 277000000000, "time": 4169.4}}, "weekday": "saturday", "livingplace": "Geneve"}}, "location": "Kerzers"}, "Morat-Fribourg": {"latitude": 46.92922110000001, "longitude": 7.120184, "race": "Morat-Fribourg", "date": {"sam. 03.10.2015": {"year": 2015, "day": 3, "month": 10, "categories": {"17-M20": {"distance": 17, "rank": 451, "pace": 273000000000, "time": 4697.8}}, "weekday": "saturday", "livingplace": "Anieres"}}, "location": "Murten"}}, "birth": 1992}