{"name": "Meuwly Laure", "sex": "F", "races": {"Tour du pays de Vaud #6 - St  Prex": {"latitude": 46.4829113, "longitude": 6.458343500000001, "race": "Tour du pays de Vaud #6 - St  Prex", "date": {"mer. 14.09.2011": {"year": 2011, "day": 14, "month": 9, "categories": {"D-Sen1": {"distance": 9, "rank": 48, "pace": 327000000000, "time": 2817.3}}, "weekday": "wednesday", "livingplace": "Chatillens"}}, "location": "St-Prex"}, "Tour du Pays de Vaud printanier #1 Chavornay": {"latitude": 46.3832683, "longitude": 6.2347852, "race": "Tour du Pays de Vaud printanier #1 Chavornay", "date": {"mer. 30.05.2012": {"year": 2012, "day": 30, "month": 5, "categories": {"D-Sen1": {"distance": 9, "rank": 27, "pace": 376000000000, "time": 3369.8}}, "weekday": "wednesday", "livingplace": "St Martin"}}, "location": "Nyon"}, "Tour du pays de Vaud #1 - Mezi\u00e8res": {"latitude": 46.7784736, "longitude": 6.641183, "race": "Tour du pays de Vaud #1 - Mezi\u00e8res", "date": {"mer. 10.08.2011": {"year": 2011, "day": 10, "month": 8, "categories": {"D-Sen1": {"distance": 9, "rank": 33, "pace": 324000000000, "time": 2759.1}}, "weekday": "wednesday", "livingplace": "Chatillens"}}, "location": "Yverdon-les-Bains"}, "Tour du Pays de Vaud #3 - Mezi\u00e8res": {"latitude": 46.7784736, "longitude": 6.641183, "race": "Tour du Pays de Vaud #3 - Mezi\u00e8res", "date": {"mer. 22.08.2012": {"year": 2012, "day": 22, "month": 8, "categories": {"D-Sen1": {"distance": 8, "rank": 50, "pace": 384000000000, "time": 3232.9}}, "weekday": "wednesday", "livingplace": "St Martin"}}, "location": "Yverdon-les-Bains"}, "20km de Lausanne": {"latitude": 46.5196535, "longitude": 6.6322734, "race": "20km de Lausanne", "date": {"sam. 30.04.2011": {"year": 2011, "day": 30, "month": 4, "categories": {"10-F30": {"distance": 10, "rank": 495, "pace": 381000000000, "time": 3814.4}}, "weekday": "saturday", "livingplace": "St Martin"}, "sam. 27.04.2013": {"year": 2013, "day": 27, "month": 4, "categories": {"10-F30": {"distance": 10, "rank": 406, "pace": 353000000000, "time": 3534.9}}, "weekday": "saturday", "livingplace": "St Martin"}}, "location": "Lausanne"}, "Kerzerslauf": {"latitude": 46.97488999999999, "longitude": 7.1954365, "race": "Kerzerslauf", "date": {"sam. 21.03.2015": {"year": 2015, "day": 21, "month": 3, "categories": {"15-F35": {"distance": 15, "rank": 138, "pace": 337000000000, "time": 5066.6}}, "weekday": "saturday", "livingplace": "St Martin"}}, "location": "Kerzers"}, "Tour du Pays de Vaud #2 - Genolier": {"latitude": 46.5955273, "longitude": 6.7702883, "race": "Tour du Pays de Vaud #2 - Genolier", "date": {"mer. 15.08.2012": {"year": 2012, "day": 15, "month": 8, "categories": {"D-Sen1": {"distance": 9, "rank": 49, "pace": 350000000000, "time": 2980.9}}, "weekday": "wednesday", "livingplace": "St Martin"}, "mer. 17.08.2011": {"year": 2011, "day": 17, "month": 8, "categories": {"D-Sen1": {"distance": 9, "rank": 40, "pace": 346000000000, "time": 2943.7}}, "weekday": "wednesday", "livingplace": "Chatillens"}}, "location": "M\u00e9zi\u00e8res VD"}, "Montreux - Les Rochers de Naye": {"latitude": 46.4312213, "longitude": 6.9106799, "race": "Montreux - Les Rochers de Naye", "date": {"dim. 05.07.2015": {"year": 2015, "day": 5, "month": 7, "categories": {"M-EliteF": {"distance": 19, "rank": 45, "pace": 599000000000, "time": 11267.8}}, "weekday": "sunday", "livingplace": "St Martin"}}, "location": "Montreux"}, "Tour du Pays de Vaud #4, La Sarraz": {"latitude": 46.7088129, "longitude": 6.5707689, "race": "Tour du Pays de Vaud #4, La Sarraz", "date": {"mer. 03.09.2014": {"year": 2014, "day": 3, "month": 9, "categories": {"D-Sen1": {"distance": 9, "rank": 88, "pace": 415000000000, "time": 3527.8}}, "weekday": "wednesday", "livingplace": "St Martin"}}, "location": "Chavornay"}, "Tour du pays de Vaud #5 - Penthaz": {"latitude": 46.5993131, "longitude": 6.539251200000001, "race": "Tour du pays de Vaud #5 - Penthaz", "date": {"mer. 07.09.2011": {"year": 2011, "day": 7, "month": 9, "categories": {"D-Sen1": {"distance": 8, "rank": 38, "pace": 384000000000, "time": 3208.5}}, "weekday": "wednesday", "livingplace": "Chatillens"}}, "location": "Penthaz"}, "Morat-Fribourg": {"latitude": 46.92922110000001, "longitude": 7.120184, "race": "Morat-Fribourg", "date": {"sam. 05.10.2013": {"year": 2013, "day": 5, "month": 10, "categories": {"17-W35": {"distance": 17, "rank": 263, "pace": 378000000000, "time": 6606.4}}, "weekday": "saturday", "livingplace": "St Martin"}, "sam. 01.10.2011": {"year": 2011, "day": 1, "month": 10, "categories": {"17-W20": {"distance": 17, "rank": 256, "pace": 354000000000, "time": 6095.0}}, "weekday": "saturday", "livingplace": "St Martin"}, "sam. 03.10.2015": {"year": 2015, "day": 3, "month": 10, "categories": {"17-W35": {"distance": 17, "rank": 144, "pace": 358000000000, "time": 6162.2}}, "weekday": "saturday", "livingplace": "St Martin"}, "sam. 06.10.2012": {"year": 2012, "day": 6, "month": 10, "categories": {"17-W20": {"distance": 17, "rank": 453, "pace": 383000000000, "time": 6693.5}}, "weekday": "saturday", "livingplace": "St Martin"}, "sam. 04.10.2014": {"year": 2014, "day": 4, "month": 10, "categories": {"17-W35": {"distance": 17, "rank": 165, "pace": 367000000000, "time": 6302.8}}, "weekday": "saturday", "livingplace": "St Martin"}}, "location": "Murten"}, "Tour du Pays de Vaud #4 - La Sarraz": {"latitude": 46.7088129, "longitude": 6.5707689, "race": "Tour du Pays de Vaud #4 - La Sarraz", "date": {"mer. 29.08.2012": {"year": 2012, "day": 29, "month": 8, "categories": {"D-Sen1": {"distance": 9, "rank": 54, "pace": 337000000000, "time": 2872.2}}, "weekday": "wednesday", "livingplace": "St Martin"}}, "location": "Chavornay"}, "Tour du pays de Vaud #1 - Penthaz": {"latitude": 46.5993131, "longitude": 6.539251200000001, "race": "Tour du pays de Vaud #1 - Penthaz", "date": {"mer. 08.08.2012": {"year": 2012, "day": 8, "month": 8, "categories": {"D-Sen1": {"distance": 9, "rank": 72, "pace": 366000000000, "time": 3127.6}}, "weekday": "wednesday", "livingplace": "St Martin"}}, "location": "Penthaz"}, "Tour du Pays de Vaud printanier #2 Yens": {"latitude": 46.6698891, "longitude": 6.7975224, "race": "Tour du Pays de Vaud printanier #2 Yens", "date": {"mer. 06.06.2012": {"year": 2012, "day": 6, "month": 6, "categories": {"D-Sen1": {"distance": 9, "rank": 29, "pace": 377000000000, "time": 3434.1}}, "weekday": "wednesday", "livingplace": "St Martin"}}, "location": "Moudon"}}, "birth": 1978}