{"name": "Meyer Mario", "sex": "M", "races": {"Z\u00fcrich Marathon, Teamrun und Cityrun": {"latitude": 47.3768866, "longitude": 8.541694, "race": "Z\u00fcrich Marathon, Teamrun und Cityrun", "date": {"dim. 01.04.2007": {"year": 2007, "day": 1, "month": 4, "categories": {"M20": {"distance": 42, "rank": 116, "pace": 290000000000, "time": 12238.2}}, "weekday": "sunday", "livingplace": "Interlaken"}}, "location": "Z\u00fcrich"}, "Thuner Stadtlauf, Thun": {"latitude": 46.7579868, "longitude": 7.6279881, "race": "Thuner Stadtlauf, Thun", "date": {"dim. 27.08.2006": {"year": 2006, "day": 27, "month": 8, "categories": {"M20": {"distance": 10, "rank": 48, "pace": 256000000000, "time": 2569.9}}, "weekday": "sunday", "livingplace": "Interlaken"}}, "location": "Thun"}, "ASICS Bremgarter Reusslauf": {"latitude": 47.34917739999999, "longitude": 8.3397905, "race": "ASICS Bremgarter Reusslauf", "date": {"sam. 17.02.2007": {"year": 2007, "day": 17, "month": 2, "categories": {"M20": {"distance": 11, "rank": 100, "pace": 262000000000, "time": 2761.3}}, "weekday": "saturday", "livingplace": "Unterseen"}}, "location": "Bremgarten AG"}, "Bieler Lauftage, Biel Bienne": {"latitude": 47.1367785, "longitude": 7.2467909, "race": "Bieler Lauftage, Biel Bienne", "date": {"ven. 09.06.2006": {"year": 2006, "day": 9, "month": 6, "categories": {"H/M20": {"distance": 21, "rank": 6, "pace": 307000000000, "time": 6488.0}}, "weekday": "friday", "livingplace": "Interlaken"}}, "location": "Biel/Bienne"}, "Kerzerslauf": {"latitude": 46.97488999999999, "longitude": 7.1954365, "race": "Kerzerslauf", "date": {"sam. 17.03.2007": {"year": 2007, "day": 17, "month": 3, "categories": {"M20": {"distance": 15, "rank": 306, "pace": 277000000000, "time": 4168.0}}, "weekday": "saturday", "livingplace": "Unterseen"}}, "location": "Kerzers"}}, "birth": 1978}