{"name": "Meylan Daniel", "sex": "M", "races": {"BCN Tour #3 Dombresson": {"latitude": 46.999113, "longitude": 6.733554799999999, "race": "BCN Tour #3 Dombresson", "date": {"mer. 08.05.2013": {"year": 2013, "day": 8, "month": 5, "categories": {"HS2": {"distance": 10, "rank": 351, "pace": 376000000000, "time": 3725.1}}, "weekday": "wednesday", "livingplace": "St Prex"}}, "location": "Les Ponts-de-Martel"}, "BCN Tour #1 Corcelles": {"latitude": 46.9668714, "longitude": 6.8589727, "race": "BCN Tour #1 Corcelles", "date": {"mer. 24.04.2013": {"year": 2013, "day": 24, "month": 4, "categories": {"HS2": {"distance": 10, "rank": 333, "pace": 402000000000, "time": 3942.2}}, "weekday": "wednesday", "livingplace": "St Prex"}}, "location": "Colombier NE"}, "BCN Tour M\u00f4tier": {"latitude": 46.9262933, "longitude": 6.6324944, "race": "BCN Tour M\u00f4tier", "date": {"mer. 19.05.2010": {"year": 2010, "day": 19, "month": 5, "categories": {"HS2": {"distance": 10, "rank": 245, "pace": 342000000000, "time": 3385.9}}, "weekday": "wednesday", "livingplace": "St Prex"}}, "location": "Couvet"}, "Kerzerslauf": {"latitude": 46.97488999999999, "longitude": 7.1954365, "race": "Kerzerslauf", "date": {"sam. 19.03.2011": {"year": 2011, "day": 19, "month": 3, "categories": {"5-M20": {"distance": 5, "rank": 114, "pace": 325000000000, "time": 1627.9}}, "weekday": "saturday", "livingplace": "St Prex"}}, "location": "Kerzers"}, "BCN Tour #4 Fleurier": {"latitude": 47.1034892, "longitude": 6.832783800000001, "race": "BCN Tour #4 Fleurier", "date": {"mer. 15.05.2013": {"year": 2013, "day": 15, "month": 5, "categories": {"HS2": {"distance": 9, "rank": 282, "pace": 399000000000, "time": 3456.1}}, "weekday": "wednesday", "livingplace": "St Prex"}}, "location": "La Chaux-de-Fonds"}}, "birth": 1965}