{"name": "Meylan Patrick", "sex": "M", "races": {"Tour du Pays de Vaud #2 - Genolier": {"latitude": 46.5955273, "longitude": 6.7702883, "race": "Tour du Pays de Vaud #2 - Genolier", "date": {"mer. 15.08.2012": {"year": 2012, "day": 15, "month": 8, "categories": {"H-Sen2": {"distance": 9, "rank": 140, "pace": 336000000000, "time": 2863.0}}, "weekday": "wednesday", "livingplace": "Vufflens le Chateau"}}, "location": "M\u00e9zi\u00e8res VD"}, "Lausanne Marathon": {"latitude": 46.5196535, "longitude": 6.6322734, "race": "Lausanne Marathon", "date": {"sam. 24.10.2015": {"year": 2015, "day": 24, "month": 10, "categories": {"10-H50": {"distance": 10, "rank": 172, "pace": 305000000000, "time": 3056.8}}, "weekday": "saturday", "livingplace": "Vufflens le Chateau"}, "dim. 27.10.2013": {"year": 2013, "day": 27, "month": 10, "categories": {"21-H3": {"distance": 21, "rank": 698, "pace": 345000000000, "time": 7294.2}}, "weekday": "sunday", "livingplace": "Vufflens le Chateau"}}, "location": "Lausanne"}, "Semi-Marathon de la C\u00f4te, Allaman-Nyon": {"latitude": 46.3832683, "longitude": 6.2347852, "race": "Semi-Marathon de la C\u00f4te, Allaman-Nyon", "date": {"dim. 14.09.2014": {"year": 2014, "day": 14, "month": 9, "categories": {"21-H50": {"distance": 21, "rank": 72, "pace": 325000000000, "time": 6872.4}}, "weekday": "sunday", "livingplace": "Vufflens le Chateau"}}, "location": "Nyon"}, "Sierre-Zinal, Sierre": {"latitude": 46.29413110000001, "longitude": 7.533536199999999, "race": "Sierre-Zinal, Sierre", "date": {"dim. 09.08.2015": {"year": 2015, "day": 9, "month": 8, "categories": {"V\u00e9t_II": {"distance": 31, "rank": 118, "pace": 704000000000, "time": 21853.3}}, "weekday": "sunday", "livingplace": "Vufflens le Chateau"}}, "location": "Sierre"}, "Tour du Pays de Vaud #3 - Mezi\u00e8res": {"latitude": 46.7784736, "longitude": 6.641183, "race": "Tour du Pays de Vaud #3 - Mezi\u00e8res", "date": {"mer. 22.08.2012": {"year": 2012, "day": 22, "month": 8, "categories": {"H-Sen2": {"distance": 8, "rank": 146, "pace": 362000000000, "time": 3042.2}}, "weekday": "wednesday", "livingplace": "Vufflens le Chateau"}}, "location": "Yverdon-les-Bains"}, "Montreux - Les Rochers de Naye": {"latitude": 46.4312213, "longitude": 6.9106799, "race": "Montreux - Les Rochers de Naye", "date": {"dim. 05.07.2015": {"year": 2015, "day": 5, "month": 7, "categories": {"M-HV\u00e9t2": {"distance": 19, "rank": 73, "pace": 669000000000, "time": 12579.9}}, "weekday": "sunday", "livingplace": "Vufflens le Chateau"}}, "location": "Montreux"}, "Tour du Pays de Vaud #4 - La Sarraz": {"latitude": 46.7088129, "longitude": 6.5707689, "race": "Tour du Pays de Vaud #4 - La Sarraz", "date": {"mer. 29.08.2012": {"year": 2012, "day": 29, "month": 8, "categories": {"H-Sen2": {"distance": 9, "rank": 133, "pace": 312000000000, "time": 2655.8}}, "weekday": "wednesday", "livingplace": "Vufflens le Chateau"}}, "location": "Chavornay"}}, "birth": 1964}