{"name": "Meyrat Guillaume", "sex": "M", "races": {"BCN Tour La Chaux-de-Fonds": {"latitude": 47.1034892, "longitude": 6.832783800000001, "race": "BCN Tour La Chaux-de-Fonds", "date": {"mer. 11.05.2011": {"year": 2011, "day": 11, "month": 5, "categories": {"HJ": {"distance": 11, "rank": 7, "pace": 284000000000, "time": 3046.1}}, "weekday": "wednesday", "livingplace": "Fontainemelon"}}, "location": "La Chaux-de-Fonds"}, "BCN Tour La Br\u00e9vine": {"latitude": 46.999113, "longitude": 6.733554799999999, "race": "BCN Tour La Br\u00e9vine", "date": {"mer. 04.05.2011": {"year": 2011, "day": 4, "month": 5, "categories": {"HJ": {"distance": 10, "rank": 7, "pace": 255000000000, "time": 2555.5}}, "weekday": "wednesday", "livingplace": "Fontainemelon"}}, "location": "Les Ponts-de-Martel"}, "BCN Tour Fontaine Cernier": {"latitude": 47.0624261, "longitude": 6.9175754, "race": "BCN Tour Fontaine Cernier", "date": {"mer. 27.04.2011": {"year": 2011, "day": 27, "month": 4, "categories": {"HJ": {"distance": 10, "rank": 12, "pace": 253000000000, "time": 2611.4}}, "weekday": "wednesday", "livingplace": "Fontainemelon"}}, "location": "Ch\u00e9zard-St-Martin"}, "BCN Tour Neuch\u00e2tel": {"latitude": 46.9899874, "longitude": 6.9292732, "race": "BCN Tour Neuch\u00e2tel", "date": {"mer. 25.05.2011": {"year": 2011, "day": 25, "month": 5, "categories": {"HJ": {"distance": 11, "rank": 17, "pace": 272000000000, "time": 3104.9}}, "weekday": "wednesday", "livingplace": "Fontainemelon"}}, "location": "Neuch\u00e2tel"}, "BCN Tour Les Ponts de Martel": {"latitude": 46.9262933, "longitude": 6.6324944, "race": "BCN Tour Les Ponts de Martel", "date": {"mer. 18.05.2011": {"year": 2011, "day": 18, "month": 5, "categories": {"HJ": {"distance": 13, "rank": 6, "pace": 256000000000, "time": 3282.1}}, "weekday": "wednesday", "livingplace": "Fontainemelon"}}, "location": "Couvet"}, "BCN Tour Boudry": {"latitude": 46.9668714, "longitude": 6.8589727, "race": "BCN Tour Boudry", "date": {"mer. 26.04.2006": {"year": 2006, "day": 26, "month": 4, "categories": {"KG3": {"distance": 3, "rank": 10, "pace": 242000000000, "time": 798.8}}, "weekday": "wednesday", "livingplace": "Fontainemelon"}}, "location": "Colombier NE"}, "BCN Tour Ponts-de-Martel": {"latitude": 47.0624261, "longitude": 6.9175754, "race": "BCN Tour Ponts-de-Martel", "date": {"mer. 28.04.2010": {"year": 2010, "day": 28, "month": 4, "categories": {"HJ": {"distance": 11, "rank": 31, "pace": 296000000000, "time": 3321.7}}, "weekday": "wednesday", "livingplace": "Fontainemelon"}}, "location": "Ch\u00e9zard-St-Martin"}, "BCN Tour Auvernier": {"latitude": 46.9668714, "longitude": 6.8589727, "race": "BCN Tour Auvernier", "date": {"mer. 20.04.2011": {"year": 2011, "day": 20, "month": 4, "categories": {"HJ": {"distance": 11, "rank": 66, "pace": 416000000000, "time": 4492.8}}, "weekday": "wednesday", "livingplace": "Fontainemelon"}}, "location": "Colombier NE"}}, "birth": 1993}