{"name": "Mezger Stefan", "sex": "M", "races": {"Morat-Fribourg": {"latitude": 46.92922110000001, "longitude": 7.120184, "race": "Morat-Fribourg", "date": {"sam. 05.10.2013": {"year": 2013, "day": 5, "month": 10, "categories": {"17-M50": {"distance": 17, "rank": 125, "pace": 284000000000, "time": 4959.5}}, "weekday": "saturday", "livingplace": "Grolley"}, "sam. 03.10.2015": {"year": 2015, "day": 3, "month": 10, "categories": {"17-M50": {"distance": 17, "rank": 85, "pace": 286000000000, "time": 4921.1}}, "weekday": "saturday", "livingplace": "Grolley"}, "sam. 04.10.2014": {"year": 2014, "day": 4, "month": 10, "categories": {"17-M50": {"distance": 17, "rank": 80, "pace": 287000000000, "time": 4939.3}}, "weekday": "saturday", "livingplace": "Grolley"}}, "location": "Murten"}, "ASICS Bremgarter Reusslauf": {"latitude": 47.34917739999999, "longitude": 8.3397905, "race": "ASICS Bremgarter Reusslauf", "date": {"sam. 23.02.2013": {"year": 2013, "day": 23, "month": 2, "categories": {"11-M50": {"distance": 11, "rank": 122, "pace": 268000000000, "time": 2955.8}}, "weekday": "saturday", "livingplace": "Grolley"}, "sam. 25.02.2012": {"year": 2012, "day": 25, "month": 2, "categories": {"M40": {"distance": 11, "rank": 362, "pace": 276000000000, "time": 3036.3}}, "weekday": "saturday", "livingplace": "Grolley"}}, "location": "Bremgarten AG"}, "Corrida Bulloise, Bulle": {"latitude": 46.6154512, "longitude": 7.057726799999999, "race": "Corrida Bulloise, Bulle", "date": {"sam. 17.11.2012": {"year": 2012, "day": 17, "month": 11, "categories": {"M40": {"distance": 8, "rank": 105, "pace": 266000000000, "time": 2174.7}}, "weekday": "saturday", "livingplace": "Grolley"}, "sam. 19.11.2011": {"year": 2011, "day": 19, "month": 11, "categories": {"M40": {"distance": 8, "rank": 111, "pace": 270000000000, "time": 2203.8}}, "weekday": "saturday", "livingplace": "Grolley"}}, "location": "Bulle"}, "10km, Payerne": {"latitude": 46.8220266, "longitude": 6.9405663, "race": "10km, Payerne", "date": {"sam. 10.03.2012": {"year": 2012, "day": 10, "month": 3, "categories": {"M40": {"distance": 10, "rank": 72, "pace": 275000000000, "time": 2750.9}}, "weekday": "saturday", "livingplace": "Grolley"}}, "location": "Payerne"}, "Tour du pays de Vaud #1 - Penthaz": {"latitude": 46.5993131, "longitude": 6.539251200000001, "race": "Tour du pays de Vaud #1 - Penthaz", "date": {"mer. 08.08.2012": {"year": 2012, "day": 8, "month": 8, "categories": {"H-Sen2": {"distance": 9, "rank": 57, "pace": 279000000000, "time": 2387.4}}, "weekday": "wednesday", "livingplace": "Grolley"}}, "location": "Penthaz"}, "Bieler Lauftage, Biel Bienne": {"latitude": 47.1367785, "longitude": 7.2467909, "race": "Bieler Lauftage, Biel Bienne", "date": {"jeu. 11.06.2015": {"year": 2015, "day": 11, "month": 6, "categories": {"100-M50": {"distance": 100, "rank": 65, "pace": 435000000000, "time": 43595.5}}, "weekday": "thursday", "livingplace": "Grolley"}}, "location": "Biel/Bienne"}, "Kerzerslauf": {"latitude": 46.97488999999999, "longitude": 7.1954365, "race": "Kerzerslauf", "date": {"sam. 17.03.2012": {"year": 2012, "day": 17, "month": 3, "categories": {"15-M45": {"distance": 15, "rank": 258, "pace": 284000000000, "time": 4268.0}}, "weekday": "saturday", "livingplace": "Grolley"}, "sam. 16.03.2013": {"year": 2013, "day": 16, "month": 3, "categories": {"15-M50": {"distance": 15, "rank": 131, "pace": 277000000000, "time": 4161.9}}, "weekday": "saturday", "livingplace": "Grolley"}}, "location": "Kerzers"}, "Tour du Pays de Vaud #2 - Genolier": {"latitude": 46.5955273, "longitude": 6.7702883, "race": "Tour du Pays de Vaud #2 - Genolier", "date": {"mer. 15.08.2012": {"year": 2012, "day": 15, "month": 8, "categories": {"H-Sen2": {"distance": 9, "rank": 67, "pace": 283000000000, "time": 2413.2}}, "weekday": "wednesday", "livingplace": "Grolley"}}, "location": "M\u00e9zi\u00e8res VD"}, "Tour du Pays de Vaud #3 - Mezi\u00e8res": {"latitude": 46.7784736, "longitude": 6.641183, "race": "Tour du Pays de Vaud #3 - Mezi\u00e8res", "date": {"mer. 22.08.2012": {"year": 2012, "day": 22, "month": 8, "categories": {"H-Sen2": {"distance": 8, "rank": 58, "pace": 298000000000, "time": 2507.8}}, "weekday": "wednesday", "livingplace": "Grolley"}}, "location": "Yverdon-les-Bains"}, "Lausanne Marathon": {"latitude": 46.5196535, "longitude": 6.6322734, "race": "Lausanne Marathon", "date": {"sam. 24.10.2015": {"year": 2015, "day": 24, "month": 10, "categories": {"21-H50": {"distance": 21, "rank": 26, "pace": 269000000000, "time": 5678.8}}, "weekday": "saturday", "livingplace": "Grolley"}, "dim. 30.10.2011": {"year": 2011, "day": 30, "month": 10, "categories": {"21-H3": {"distance": 21, "rank": 371, "pace": 294000000000, "time": 6207.6}}, "weekday": "sunday", "livingplace": "Grolley"}, "dim. 28.10.2012": {"year": 2012, "day": 28, "month": 10, "categories": {"21-H3": {"distance": 21, "rank": 332, "pace": 298000000000, "time": 6289.3}}, "weekday": "sunday", "livingplace": "Grolley"}}, "location": "Lausanne"}, "Course de l'Escalade, Gen\u00e8ve": {"latitude": 46.2043907, "longitude": 6.1431577, "race": "Course de l'Escalade, Gen\u00e8ve", "date": {"sam. 05.12.2015": {"year": 2015, "day": 5, "month": 12, "categories": {"Esc-Hom4": {"distance": 7, "rank": 88, "pace": 252000000000, "time": 1848.1}}, "weekday": "saturday", "livingplace": "Grolley"}}, "location": "Gen\u00e8ve"}, "10km Schweizer Meisterschaften Lyss": {"latitude": 47.0746504, "longitude": 7.3077022, "race": "10km Schweizer Meisterschaften Lyss", "date": {"sam. 31.03.2012": {"year": 2012, "day": 31, "month": 3, "categories": {"10-M45": {"distance": 10, "rank": 36, "pace": 274000000000, "time": 2740.6}}, "weekday": "saturday", "livingplace": "Grolley"}}, "location": "Lyss"}, "Tour du Pays de Vaud #4 - La Sarraz": {"latitude": 46.7088129, "longitude": 6.5707689, "race": "Tour du Pays de Vaud #4 - La Sarraz", "date": {"mer. 29.08.2012": {"year": 2012, "day": 29, "month": 8, "categories": {"H-Sen2": {"distance": 9, "rank": 52, "pace": 267000000000, "time": 2272.4}}, "weekday": "wednesday", "livingplace": "Grolley"}}, "location": "Chavornay"}, "Gurtenclassic, Wabern": {"latitude": 46.92901639999999, "longitude": 7.448973199999999, "race": "Gurtenclassic, Wabern", "date": {"dim. 04.11.2012": {"year": 2012, "day": 4, "month": 11, "categories": {"15-M40": {"distance": 15, "rank": 70, "pace": 335000000000, "time": 5031.2}}, "weekday": "sunday", "livingplace": "Grolley"}}, "location": "Wabern"}, "Les Traine-Savates, Cheseaux-sur-Lausanne": {"latitude": 46.585452, "longitude": 6.6047712, "race": "Les Traine-Savates, Cheseaux-sur-Lausanne", "date": {"sam. 14.04.2012": {"year": 2012, "day": 14, "month": 4, "categories": {"10-M40": {"distance": 10, "rank": 82, "pace": 276000000000, "time": 2870.9}}, "weekday": "saturday", "livingplace": "Grolley"}}, "location": "Cheseaux-sur-Lausanne"}}, "birth": 1963}