{"name": "Michel Aline", "sex": "F", "races": {"Morat-Fribourg": {"latitude": 46.92922110000001, "longitude": 7.120184, "race": "Morat-Fribourg", "date": {"sam. 04.10.2014": {"year": 2014, "day": 4, "month": 10, "categories": {"17-W20": {"distance": 17, "rank": 457, "pace": 373000000000, "time": 6420.2}}, "weekday": "saturday", "livingplace": "Avenches"}}, "location": "Murten"}, "Tour du Pays de Vaud etape 2 - Genolier": {"latitude": 46.5955273, "longitude": 6.7702883, "race": "Tour du Pays de Vaud etape 2 - Genolier", "date": {"mer. 19.08.2009": {"year": 2009, "day": 19, "month": 8, "categories": {"Dam": {"distance": 8, "rank": 25, "pace": 354000000000, "time": 2872.2}}, "weekday": "wednesday", "livingplace": "Avenches"}}, "location": "M\u00e9zi\u00e8res VD"}, "Schweizer Frauenlauf Bern": {"latitude": 46.9479739, "longitude": 7.4474468, "race": "Schweizer Frauenlauf Bern", "date": {"dim. 09.06.2013": {"year": 2013, "day": 9, "month": 6, "categories": {"10-W30": {"distance": 10, "rank": 84, "pace": 300000000000, "time": 3005.9}}, "weekday": "sunday", "livingplace": "Avenches"}}, "location": "Bern"}, "Tour du Pays de Vaud etape 1 - Le Mont sur Lausanne": {"latitude": 46.7784736, "longitude": 6.641183, "race": "Tour du Pays de Vaud etape 1 - Le Mont sur Lausanne", "date": {"mer. 12.08.2009": {"year": 2009, "day": 12, "month": 8, "categories": {"Dam": {"distance": 9, "rank": 26, "pace": 363000000000, "time": 3381.6}}, "weekday": "wednesday", "livingplace": "Avenches"}}, "location": "Yverdon-les-Bains"}, "20km de Lausanne": {"latitude": 46.5196535, "longitude": 6.6322734, "race": "20km de Lausanne", "date": {"sam. 27.04.2013": {"year": 2013, "day": 27, "month": 4, "categories": {"10-F30": {"distance": 10, "rank": 94, "pace": 305000000000, "time": 3053.6}}, "weekday": "saturday", "livingplace": "Avenches"}, "sam. 28.04.2012": {"year": 2012, "day": 28, "month": 4, "categories": {"10-F30": {"distance": 10, "rank": 265, "pace": 346000000000, "time": 3461.6}}, "weekday": "saturday", "livingplace": "Avenches"}, "sam. 25.04.2015": {"year": 2015, "day": 25, "month": 4, "categories": {"10-F30": {"distance": 10, "rank": 57, "pace": 294000000000, "time": 2941.9}}, "weekday": "saturday", "livingplace": "Henniez"}}, "location": "Lausanne"}, "Aletsch-Halbmarathon, Bettmeralp": {"latitude": NaN, "longitude": NaN, "race": "Aletsch-Halbmarathon, Bettmeralp", "date": {"dim. 28.06.2009": {"year": 2009, "day": 28, "month": 6, "categories": {"F20": {"distance": 21, "rank": 40, "pace": 551000000000, "time": 11576.1}}, "weekday": "sunday", "livingplace": "Cce2L"}}, "location": "Bettmeralp"}, "Groupe E Tour Fribourg #1, Cousset": {"latitude": 46.81832, "longitude": 6.977279999999999, "race": "Groupe E Tour Fribourg #1, Cousset", "date": {"mer. 20.08.2014": {"year": 2014, "day": 20, "month": 8, "categories": {"D-Dam2": {"distance": 9, "rank": 9, "pace": 298000000000, "time": 2807.4}}, "weekday": "wednesday", "livingplace": "Avenches"}}, "location": "Cousset"}, "Kerzerslauf": {"latitude": 46.97488999999999, "longitude": 7.1954365, "race": "Kerzerslauf", "date": {"sam. 21.03.2015": {"year": 2015, "day": 21, "month": 3, "categories": {"15-F35": {"distance": 15, "rank": 78, "pace": 310000000000, "time": 4662.8}}, "weekday": "saturday", "livingplace": "Avenches"}}, "location": "Kerzers"}, "Groupe E Tour Fribourg #4, Siviriez": {"latitude": 46.6585092, "longitude": 6.877722, "race": "Groupe E Tour Fribourg #4, Siviriez", "date": {"mer. 10.09.2014": {"year": 2014, "day": 10, "month": 9, "categories": {"D-Dam2": {"distance": 11, "rank": 7, "pace": 357000000000, "time": 3862.6}}, "weekday": "wednesday", "livingplace": "Avenches"}}, "location": "Siviriez"}, "Groupe E Tour Fribourg #2, Charmey": {"latitude": 46.6175845, "longitude": 7.1654493, "race": "Groupe E Tour Fribourg #2, Charmey", "date": {"mer. 27.08.2014": {"year": 2014, "day": 27, "month": 8, "categories": {"D-Dam2": {"distance": 10, "rank": 8, "pace": 336000000000, "time": 3246.1}}, "weekday": "wednesday", "livingplace": "Avenches"}}, "location": "Charmey (Gruy\u00e8re)"}, "Groupe E Tour Fribourg #3, Kerzers": {"latitude": 46.97488999999999, "longitude": 7.1954365, "race": "Groupe E Tour Fribourg #3, Kerzers", "date": {"mer. 03.09.2014": {"year": 2014, "day": 3, "month": 9, "categories": {"D-Dam2": {"distance": 10, "rank": 7, "pace": 299000000000, "time": 3044.5}}, "weekday": "wednesday", "livingplace": "Avenches"}}, "location": "Kerzers"}, "Course de l'Avent, Fribourg": {"latitude": 46.8064773, "longitude": 7.161971899999999, "race": "Course de l'Avent, Fribourg", "date": {"dim. 24.11.2013": {"year": 2013, "day": 24, "month": 11, "categories": {"E-F30": {"distance": 7, "rank": 7, "pace": 306000000000, "time": 2270.2}}, "weekday": "sunday", "livingplace": "Avenches"}}, "location": "Fribourg"}, "Groupe E Tour Fribourg #5, Givisiez": {"latitude": 46.8128615, "longitude": 7.131657799999999, "race": "Groupe E Tour Fribourg #5, Givisiez", "date": {"mer. 17.09.2014": {"year": 2014, "day": 17, "month": 9, "categories": {"D-Dam2": {"distance": 10, "rank": 5, "pace": 313000000000, "time": 3222.8}}, "weekday": "wednesday", "livingplace": "Avenches"}}, "location": "Givisiez"}, "Les Traine-Savates, Cheseaux-sur-Lausanne": {"latitude": 46.585452, "longitude": 6.6047712, "race": "Les Traine-Savates, Cheseaux-sur-Lausanne", "date": {"sam. 12.04.2014": {"year": 2014, "day": 12, "month": 4, "categories": {"10-W20": {"distance": 10, "rank": 30, "pace": 292000000000, "time": 3014.8}}, "weekday": "saturday", "livingplace": "Avenches"}}, "location": "Cheseaux-sur-Lausanne"}}, "birth": 1980}