{"name": "Michellod Paul", "sex": "M", "races": {"Tour du Chablais #1 Roche": {"latitude": 46.2957462, "longitude": 6.9916269, "race": "Tour du Chablais #1 Roche", "date": {"mer. 03.04.2013": {"year": 2013, "day": 3, "month": 4, "categories": {"M-M60": {"distance": 9, "rank": 42, "pace": 365000000000, "time": 3241.6}}, "weekday": "wednesday", "livingplace": "Lausanne"}}, "location": "Ollon VD"}, "Tour du pays de Vaud #1 \u2013 St  Prex": {"latitude": 46.7784736, "longitude": 6.641183, "race": "Tour du pays de Vaud #1 \u2013 St  Prex", "date": {"mer. 11.08.2010": {"year": 2010, "day": 11, "month": 8, "categories": {"HSen4": {"distance": 8, "rank": 28, "pace": 393000000000, "time": 3302.7}}, "weekday": "wednesday", "livingplace": "Lausanne"}}, "location": "Yverdon-les-Bains"}, "Tour du pays de Vaud #6 - St  Prex": {"latitude": 46.4829113, "longitude": 6.458343500000001, "race": "Tour du pays de Vaud #6 - St  Prex", "date": {"mer. 14.09.2011": {"year": 2011, "day": 14, "month": 9, "categories": {"H-Sen4": {"distance": 9, "rank": 24, "pace": 360000000000, "time": 3104.3}}, "weekday": "wednesday", "livingplace": "Lausanne"}}, "location": "St-Prex"}, "Corrida Bulloise, Bulle": {"latitude": 46.6154512, "longitude": 7.057726799999999, "race": "Corrida Bulloise, Bulle", "date": {"sam. 16.11.2013": {"year": 2013, "day": 16, "month": 11, "categories": {"M60": {"distance": 8, "rank": 32, "pace": 381000000000, "time": 3110.4}}, "weekday": "saturday", "livingplace": "Lausanne"}, "sam. 17.11.2012": {"year": 2012, "day": 17, "month": 11, "categories": {"M60": {"distance": 8, "rank": 37, "pace": 366000000000, "time": 2990.7}}, "weekday": "saturday", "livingplace": "Lausanne"}, "sam. 20.11.2010": {"year": 2010, "day": 20, "month": 11, "categories": {"M60": {"distance": 8, "rank": 35, "pace": 360000000000, "time": 2937.9}}, "weekday": "saturday", "livingplace": "Lausanne"}}, "location": "Bulle"}, "Tour du pays de Vaud #1 - Mezi\u00e8res": {"latitude": 46.7784736, "longitude": 6.641183, "race": "Tour du pays de Vaud #1 - Mezi\u00e8res", "date": {"mer. 10.08.2011": {"year": 2011, "day": 10, "month": 8, "categories": {"H-Sen4": {"distance": 9, "rank": 33, "pace": 373000000000, "time": 3172.1}}, "weekday": "wednesday", "livingplace": "Lausanne"}}, "location": "Yverdon-les-Bains"}, "20km de Lausanne": {"latitude": 46.5196535, "longitude": 6.6322734, "race": "20km de Lausanne", "date": {"sam. 30.04.2011": {"year": 2011, "day": 30, "month": 4, "categories": {"20-H60": {"distance": 20, "rank": 64, "pace": 388000000000, "time": 7768.0}}, "weekday": "saturday", "livingplace": "Lausanne"}, "sam. 27.04.2013": {"year": 2013, "day": 27, "month": 4, "categories": {"10-H65": {"distance": 10, "rank": 44, "pace": 398000000000, "time": 3981.0}}, "weekday": "saturday", "livingplace": "Lausanne"}, "sam. 26.04.2014": {"year": 2014, "day": 26, "month": 4, "categories": {"10-H65": {"distance": 10, "rank": 62, "pace": 418000000000, "time": 4187.4}}, "weekday": "saturday", "livingplace": "acoursbien"}}, "location": "Lausanne"}, "Tour du Pays de Vaud #2 - Mezi\u00e8res": {"latitude": 46.5955273, "longitude": 6.7702883, "race": "Tour du Pays de Vaud #2 - Mezi\u00e8res", "date": {"mer. 21.08.2013": {"year": 2013, "day": 21, "month": 8, "categories": {"H-Sen4": {"distance": 8, "rank": 36, "pace": 438000000000, "time": 3549.0}}, "weekday": "wednesday", "livingplace": "Lausanne"}}, "location": "M\u00e9zi\u00e8res VD"}, "Tour du Pays de Vaud printanier #3 - Yens": {"latitude": 46.7829756, "longitude": 6.5728678, "race": "Tour du Pays de Vaud printanier #3 - Yens", "date": {"mer. 12.06.2013": {"year": 2013, "day": 12, "month": 6, "categories": {"H-Sen4": {"distance": 9, "rank": 11, "pace": 417000000000, "time": 3796.8}}, "weekday": "wednesday", "livingplace": "Lausanne"}, "mer. 18.06.2014": {"year": 2014, "day": 18, "month": 6, "categories": {"H-Sen4": {"distance": 9, "rank": 7, "pace": 413000000000, "time": 3758.9}}, "weekday": "wednesday", "livingplace": "Lausanne"}}, "location": "Champvent"}, "Tour du Pays de Vaud etape 2 - Genolier": {"latitude": 46.5955273, "longitude": 6.7702883, "race": "Tour du Pays de Vaud etape 2 - Genolier", "date": {"mer. 20.08.2008": {"year": 2008, "day": 20, "month": 8, "categories": {"HomSen4": {"distance": 8, "rank": 26, "pace": 351000000000, "time": 2917.6}}, "weekday": "wednesday", "livingplace": "Lausanne"}}, "location": "M\u00e9zi\u00e8res VD"}, "Tour du Pays de Vaud printanier #1 Moudon": {"latitude": 46.3832683, "longitude": 6.2347852, "race": "Tour du Pays de Vaud printanier #1 Moudon", "date": {"mer. 29.05.2013": {"year": 2013, "day": 29, "month": 5, "categories": {"H-Sen4": {"distance": 8, "rank": 9, "pace": 407000000000, "time": 3482.0}}, "weekday": "wednesday", "livingplace": "Lausanne"}, "mer. 04.06.2014": {"year": 2014, "day": 4, "month": 6, "categories": {"H-Sen4": {"distance": 8, "rank": 9, "pace": 421000000000, "time": 3536.6}}, "weekday": "wednesday", "livingplace": "Lausanne"}}, "location": "Nyon"}, "Lausanne Marathon": {"latitude": 46.5196535, "longitude": 6.6322734, "race": "Lausanne Marathon", "date": {"sam. 24.10.2015": {"year": 2015, "day": 24, "month": 10, "categories": {"21-H60": {"distance": 21, "rank": 104, "pace": 424000000000, "time": 8946.9}}, "weekday": "saturday", "livingplace": "Lausanne"}, "dim. 26.10.2014": {"year": 2014, "day": 26, "month": 10, "categories": {"10-H60": {"distance": 10, "rank": 95, "pace": 381000000000, "time": 3815.9}}, "weekday": "sunday", "livingplace": "Lausanne"}}, "location": "Lausanne"}, "Tour du Pays de Vaud #4 - La Sarraz": {"latitude": 46.7088129, "longitude": 6.5707689, "race": "Tour du Pays de Vaud #4 - La Sarraz", "date": {"mer. 04.09.2013": {"year": 2013, "day": 4, "month": 9, "categories": {"H-Sen4": {"distance": 9, "rank": 36, "pace": 424000000000, "time": 3607.6}}, "weekday": "wednesday", "livingplace": "Lausanne"}}, "location": "Chavornay"}, "Tour du Pays de Vaud printanier #2 Yverdon-les-Bains": {"latitude": 46.6698891, "longitude": 6.7975224, "race": "Tour du Pays de Vaud printanier #2 Yverdon-les-Bains", "date": {"mer. 11.06.2014": {"year": 2014, "day": 11, "month": 6, "categories": {"H-Sen4": {"distance": 9, "rank": 9, "pace": 498000000000, "time": 4532.5}}, "weekday": "wednesday", "livingplace": "Lausanne"}, "mer. 05.06.2013": {"year": 2013, "day": 5, "month": 6, "categories": {"H-Sen4": {"distance": 9, "rank": 13, "pace": 423000000000, "time": 3853.2}}, "weekday": "wednesday", "livingplace": "Lausanne"}}, "location": "Moudon"}, "Kerzerslauf": {"latitude": 46.97488999999999, "longitude": 7.1954365, "race": "Kerzerslauf", "date": {"sam. 21.03.2015": {"year": 2015, "day": 21, "month": 3, "categories": {"15-M65": {"distance": 15, "rank": 96, "pace": 420000000000, "time": 6305.9}}, "weekday": "saturday", "livingplace": "Lausanne"}}, "location": "Kerzers"}, "Tour du Pays de Vaud printanier #2 Yens": {"latitude": 46.6698891, "longitude": 6.7975224, "race": "Tour du Pays de Vaud printanier #2 Yens", "date": {"mer. 06.06.2012": {"year": 2012, "day": 6, "month": 6, "categories": {"H-Sen4": {"distance": 9, "rank": 10, "pace": 382000000000, "time": 3478.6}}, "weekday": "wednesday", "livingplace": "Lausanne"}}, "location": "Moudon"}, "Tour du Pays de Vaud etape 5 - La Sarraz": {"latitude": 46.5993131, "longitude": 6.539251200000001, "race": "Tour du Pays de Vaud etape 5 - La Sarraz", "date": {"mer. 10.09.2008": {"year": 2008, "day": 10, "month": 9, "categories": {"HomSen4": {"distance": 9, "rank": 26, "pace": 340000000000, "time": 2930.4}}, "weekday": "wednesday", "livingplace": "Lausanne"}}, "location": "Penthaz"}, "Tour du Pays de Vaud etape 3 - Aubonne": {"latitude": 46.7829756, "longitude": 6.5728678, "race": "Tour du Pays de Vaud etape 3 - Aubonne", "date": {"mer. 27.08.2008": {"year": 2008, "day": 27, "month": 8, "categories": {"HomSen4": {"distance": 8, "rank": 32, "pace": 384000000000, "time": 3000.6}}, "weekday": "wednesday", "livingplace": "Lausanne"}, "mer. 29.08.2007": {"year": 2007, "day": 29, "month": 8, "categories": {"HS4": {"distance": 8, "rank": 23, "pace": 375000000000, "time": 3044.7}}, "weekday": "wednesday", "livingplace": "Lausanne"}}, "location": "Champvent"}, "Tour du Pays de Vaud etape 1 - Le Mont sur Lausanne": {"latitude": 46.7784736, "longitude": 6.641183, "race": "Tour du Pays de Vaud etape 1 - Le Mont sur Lausanne", "date": {"mer. 15.08.2007": {"year": 2007, "day": 15, "month": 8, "categories": {"HS4": {"distance": 8, "rank": 19, "pace": 351000000000, "time": 2914.9}}, "weekday": "wednesday", "livingplace": "Lausanne"}, "mer. 13.08.2008": {"year": 2008, "day": 13, "month": 8, "categories": {"HomSen4": {"distance": 8, "rank": 34, "pace": 354000000000, "time": 2976.4}}, "weekday": "wednesday", "livingplace": "Lausanne"}, "mer. 12.08.2009": {"year": 2009, "day": 12, "month": 8, "categories": {"HS4": {"distance": 9, "rank": 30, "pace": 392000000000, "time": 3648.7}}, "weekday": "wednesday", "livingplace": "Lausanne"}}, "location": "Yverdon-les-Bains"}, "Tour du pays de Vaud #1 - Penthaz": {"latitude": 46.5993131, "longitude": 6.539251200000001, "race": "Tour du pays de Vaud #1 - Penthaz", "date": {"mer. 14.08.2013": {"year": 2013, "day": 14, "month": 8, "categories": {"H-Sen4": {"distance": 9, "rank": 35, "pace": 413000000000, "time": 3530.9}}, "weekday": "wednesday", "livingplace": "Lausanne"}}, "location": "Penthaz"}, "Tour du Pays de Vaud #4, La Sarraz": {"latitude": 46.7088129, "longitude": 6.5707689, "race": "Tour du Pays de Vaud #4, La Sarraz", "date": {"mer. 03.09.2014": {"year": 2014, "day": 3, "month": 9, "categories": {"H-Sen4": {"distance": 9, "rank": 27, "pace": 401000000000, "time": 3412.9}}, "weekday": "wednesday", "livingplace": "Lausanne"}}, "location": "Chavornay"}, "Tour du Pays de Vaud #3, Chavornay": {"latitude": 46.7784736, "longitude": 6.641183, "race": "Tour du Pays de Vaud #3, Chavornay", "date": {"mer. 27.08.2014": {"year": 2014, "day": 27, "month": 8, "categories": {"H-Sen4": {"distance": 9, "rank": 38, "pace": 430000000000, "time": 3701.9}}, "weekday": "wednesday", "livingplace": "Lausanne"}}, "location": "Yverdon-les-Bains"}, "Tour du Pays de Vaud #1, Penthaz": {"latitude": 46.5993131, "longitude": 6.539251200000001, "race": "Tour du Pays de Vaud #1, Penthaz", "date": {"mer. 13.08.2014": {"year": 2014, "day": 13, "month": 8, "categories": {"H-Sen4": {"distance": 9, "rank": 38, "pace": 414000000000, "time": 3539.2}}, "weekday": "wednesday", "livingplace": "Lausanne"}}, "location": "Penthaz"}, "Tour du Pays de Vaud #2, Mezi\u00e8res": {"latitude": 46.5955273, "longitude": 6.7702883, "race": "Tour du Pays de Vaud #2, Mezi\u00e8res", "date": {"mer. 20.08.2014": {"year": 2014, "day": 20, "month": 8, "categories": {"H-Sen4": {"distance": 8, "rank": 32, "pace": 451000000000, "time": 3654.0}}, "weekday": "wednesday", "livingplace": "Lausanne"}}, "location": "M\u00e9zi\u00e8res VD"}, "Les Traine-Savates, Cheseaux-sur-Lausanne": {"latitude": 46.585452, "longitude": 6.6047712, "race": "Les Traine-Savates, Cheseaux-sur-Lausanne", "date": {"sam. 10.04.2010": {"year": 2010, "day": 10, "month": 4, "categories": {"Hom V3": {"distance": 10, "rank": 38, "pace": 355000000000, "time": 3692.1}}, "weekday": "saturday", "livingplace": "Lausanne"}, "sam. 09.04.2011": {"year": 2011, "day": 9, "month": 4, "categories": {"10-M60": {"distance": 10, "rank": 50, "pace": 396000000000, "time": 4126.9}}, "weekday": "saturday", "livingplace": "Lausanne"}, "sam. 14.04.2012": {"year": 2012, "day": 14, "month": 4, "categories": {"10-M60": {"distance": 10, "rank": 40, "pace": 379000000000, "time": 3942.3}}, "weekday": "saturday", "livingplace": "Lausanne"}, "sam. 04.04.2009": {"year": 2009, "day": 4, "month": 4, "categories": {"Hom V3": {"distance": 10, "rank": 36, "pace": 377000000000, "time": 3923.5}}, "weekday": "saturday", "livingplace": "Lausanne"}, "sam. 18.04.2015": {"year": 2015, "day": 18, "month": 4, "categories": {"10-M60": {"distance": 10, "rank": 55, "pace": 400000000000, "time": 4121.1}}, "weekday": "saturday", "livingplace": "Lausanne"}, "sam. 12.04.2014": {"year": 2014, "day": 12, "month": 4, "categories": {"10-M60": {"distance": 10, "rank": 49, "pace": 405000000000, "time": 4180.2}}, "weekday": "saturday", "livingplace": "Lausanne"}}, "location": "Cheseaux-sur-Lausanne"}, "Tour du pays de Vaud #5 - Penthaz": {"latitude": 46.5993131, "longitude": 6.539251200000001, "race": "Tour du pays de Vaud #5 - Penthaz", "date": {"mer. 07.09.2011": {"year": 2011, "day": 7, "month": 9, "categories": {"H-Sen4": {"distance": 8, "rank": 35, "pace": 412000000000, "time": 3444.3}}, "weekday": "wednesday", "livingplace": "Lausanne"}}, "location": "Penthaz"}, "Tour du Pays de Vaud #3 - Chavornay": {"latitude": 46.7784736, "longitude": 6.641183, "race": "Tour du Pays de Vaud #3 - Chavornay", "date": {"mer. 28.08.2013": {"year": 2013, "day": 28, "month": 8, "categories": {"H-Sen4": {"distance": 9, "rank": 33, "pace": 404000000000, "time": 3597.1}}, "weekday": "wednesday", "livingplace": "Lausanne"}}, "location": "Yverdon-les-Bains"}, "Tour du Pays de Vaud #5 - La Sarraz": {"latitude": 46.5993131, "longitude": 6.539251200000001, "race": "Tour du Pays de Vaud #5 - La Sarraz", "date": {"mer. 08.09.2010": {"year": 2010, "day": 8, "month": 9, "categories": {"HSen4": {"distance": 9, "rank": 32, "pace": 399000000000, "time": 3631.9}}, "weekday": "wednesday", "livingplace": "Lausanne"}}, "location": "Penthaz"}}, "birth": 1947}