{"name": "Michaud Steeve", "sex": "M", "races": {"Grand Prix Craft, Neuch\u00e2tel": {"latitude": 46.9899874, "longitude": 6.9292732, "race": "Grand Prix Craft, Neuch\u00e2tel", "date": {"dim. 17.12.2006": {"year": 2006, "day": 17, "month": 12, "categories": {"HS1": {"distance": 7, "rank": 26, "pace": 226000000000, "time": 1582.5}}, "weekday": "sunday", "livingplace": "Marin Epagnier"}}, "location": "Neuch\u00e2tel"}, "BCN Tour La Br\u00e9vine": {"latitude": 46.999113, "longitude": 6.733554799999999, "race": "BCN Tour La Br\u00e9vine", "date": {"mer. 04.05.2011": {"year": 2011, "day": 4, "month": 5, "categories": {"HS2": {"distance": 10, "rank": 48, "pace": 264000000000, "time": 2642.8}}, "weekday": "wednesday", "livingplace": "Marin Epagnier"}}, "location": "Les Ponts-de-Martel"}, "Morat-Fribourg": {"latitude": 46.92922110000001, "longitude": 7.120184, "race": "Morat-Fribourg", "date": {"sam. 03.10.2009": {"year": 2009, "day": 3, "month": 10, "categories": {"C-M20": {"distance": 17, "rank": 251, "pace": 261000000000, "time": 4484.2}}, "weekday": "saturday", "livingplace": "Marin Epagnier"}, "sam. 01.10.2011": {"year": 2011, "day": 1, "month": 10, "categories": {"17-M40": {"distance": 17, "rank": 65, "pace": 252000000000, "time": 4343.4}}, "weekday": "saturday", "livingplace": "Marin Epagnier"}, "sam. 04.10.2008": {"year": 2008, "day": 4, "month": 10, "categories": {"C-M20": {"distance": 17, "rank": 110, "pace": 242000000000, "time": 4155.3}}, "weekday": "saturday", "livingplace": "Marin Epagnier"}, "sam. 06.10.2007": {"year": 2007, "day": 6, "month": 10, "categories": {"C/M20": {"distance": 17, "rank": 180, "pace": 250000000000, "time": 4293.0}}, "weekday": "saturday", "livingplace": "Marin Epagnier"}}, "location": "Murten"}, "La Trotteuse-Tissot, La Chaux-de-Fonds": {"latitude": 47.1034892, "longitude": 6.832783800000001, "race": "La Trotteuse-Tissot, La Chaux-de-Fonds", "date": {"sam. 18.12.2010": {"year": 2010, "day": 18, "month": 12, "categories": {"GC-H30": {"distance": 8, "rank": 54, "pace": 290000000000, "time": 2323.6}}, "weekday": "saturday", "livingplace": "Marin Epagnier"}, "sam. 12.12.2015": {"year": 2015, "day": 12, "month": 12, "categories": {"GC-H40": {"distance": 8, "rank": 98, "pace": 277000000000, "time": 2221.0}}, "weekday": "saturday", "livingplace": "La Coudre"}}, "location": "La Chaux-de-Fonds"}, "BCN Tour Fontaine Cernier": {"latitude": 47.0624261, "longitude": 6.9175754, "race": "BCN Tour Fontaine Cernier", "date": {"mer. 27.04.2011": {"year": 2011, "day": 27, "month": 4, "categories": {"HS2": {"distance": 10, "rank": 34, "pace": 250000000000, "time": 2577.4}}, "weekday": "wednesday", "livingplace": "Marin Epagnier"}}, "location": "Ch\u00e9zard-St-Martin"}, "BCN Tour Le Landeron": {"latitude": 46.9668714, "longitude": 6.8589727, "race": "BCN Tour Le Landeron", "date": {"mer. 22.04.2009": {"year": 2009, "day": 22, "month": 4, "categories": {"HS1": {"distance": 11, "rank": 35, "pace": 254000000000, "time": 2821.9}}, "weekday": "wednesday", "livingplace": "Marin Epagnier"}}, "location": "Colombier NE"}, "BCN Tour Le Locle": {"latitude": 46.999113, "longitude": 6.733554799999999, "race": "BCN Tour Le Locle", "date": {"mer. 05.05.2010": {"year": 2010, "day": 5, "month": 5, "categories": {"HS1": {"distance": 11, "rank": 47, "pace": 263000000000, "time": 2869.1}}, "weekday": "wednesday", "livingplace": "Marin Centre"}}, "location": "Les Ponts-de-Martel"}, "BCN Tour #1 Corcelles": {"latitude": 46.9668714, "longitude": 6.8589727, "race": "BCN Tour #1 Corcelles", "date": {"mer. 24.04.2013": {"year": 2013, "day": 24, "month": 4, "categories": {"HS2": {"distance": 10, "rank": 45, "pace": 257000000000, "time": 2522.1}}, "weekday": "wednesday", "livingplace": "Marin Epagnier"}}, "location": "Colombier NE"}, "BCN Tour Auvernier": {"latitude": 46.9668714, "longitude": 6.8589727, "race": "BCN Tour Auvernier", "date": {"mer. 20.04.2011": {"year": 2011, "day": 20, "month": 4, "categories": {"HS2": {"distance": 11, "rank": 50, "pace": 271000000000, "time": 2930.9}}, "weekday": "wednesday", "livingplace": "Marin Epagnier"}}, "location": "Colombier NE"}, "Kerzerslauf": {"latitude": 46.97488999999999, "longitude": 7.1954365, "race": "Kerzerslauf", "date": {"sam. 21.03.2009": {"year": 2009, "day": 21, "month": 3, "categories": {"15-M35": {"distance": 15, "rank": 65, "pace": 240000000000, "time": 3600.0}}, "weekday": "saturday", "livingplace": "Marin Epagnier"}}, "location": "Kerzers"}, "Zermatt Marathon, Zermatt": {"latitude": NaN, "longitude": NaN, "race": "Zermatt Marathon, Zermatt", "date": {"sam. 09.07.2011": {"year": 2011, "day": 9, "month": 7, "categories": {"M-M40": {"distance": 42, "rank": 44, "pace": 416000000000, "time": 17554.4}}, "weekday": "saturday", "livingplace": "Marin Epagnier"}}, "location": "Zermatt"}, "BCN Tour La Chaux-de-Fonds": {"latitude": 47.1034892, "longitude": 6.832783800000001, "race": "BCN Tour La Chaux-de-Fonds", "date": {"mer. 11.05.2011": {"year": 2011, "day": 11, "month": 5, "categories": {"HS2": {"distance": 11, "rank": 44, "pace": 299000000000, "time": 3209.6}}, "weekday": "wednesday", "livingplace": "Marin Epagnier"}}, "location": "La Chaux-de-Fonds"}, "D\u00e9fi Val-de-Travers, Couvet": {"latitude": 46.9262933, "longitude": 6.6324944, "race": "D\u00e9fi Val-de-Travers, Couvet", "date": {"sam. 21.06.2008": {"year": 2008, "day": 21, "month": 6, "categories": {"SHS1": {"distance": 20, "rank": 7, "pace": 308000000000, "time": 6068.6}}, "weekday": "saturday", "livingplace": "Marin Epagnier"}, "sam. 20.06.2009": {"year": 2009, "day": 20, "month": 6, "categories": {"SHS1": {"distance": 20, "rank": 9, "pace": 284000000000, "time": 5597.9}}, "weekday": "saturday", "livingplace": "Marin Epagnier"}}, "location": "Couvet"}, "BCN Tour Neuch\u00e2tel": {"latitude": 46.9899874, "longitude": 6.9292732, "race": "BCN Tour Neuch\u00e2tel", "date": {"mer. 26.05.2010": {"year": 2010, "day": 26, "month": 5, "categories": {"HS1": {"distance": 10, "rank": 83, "pace": 297000000000, "time": 2887.5}}, "weekday": "wednesday", "livingplace": "Marin Centre"}, "mer. 25.05.2011": {"year": 2011, "day": 25, "month": 5, "categories": {"HS2": {"distance": 11, "rank": 36, "pace": 266000000000, "time": 3040.5}}, "weekday": "wednesday", "livingplace": "Marin Epagnier"}}, "location": "Neuch\u00e2tel"}, "BCN Tour Les Ponts de Martel": {"latitude": 46.9262933, "longitude": 6.6324944, "race": "BCN Tour Les Ponts de Martel", "date": {"mer. 18.05.2011": {"year": 2011, "day": 18, "month": 5, "categories": {"HS2": {"distance": 13, "rank": 40, "pace": 268000000000, "time": 3439.9}}, "weekday": "wednesday", "livingplace": "Marin Epagnier"}}, "location": "Couvet"}, "Course de l'Escalade, Gen\u00e8ve": {"latitude": 46.2043907, "longitude": 6.1431577, "race": "Course de l'Escalade, Gen\u00e8ve", "date": {"sam. 01.12.2007": {"year": 2007, "day": 1, "month": 12, "categories": {"DucH2": {"distance": 18, "rank": 84, "pace": 238000000000, "time": 4338.7}}, "weekday": "saturday", "livingplace": "Marin Epagnier"}}, "location": "Gen\u00e8ve"}, "BCN Tour Boudry": {"latitude": 46.9668714, "longitude": 6.8589727, "race": "BCN Tour Boudry", "date": {"mer. 26.04.2006": {"year": 2006, "day": 26, "month": 4, "categories": {"HS1": {"distance": 10, "rank": 93, "pace": 288000000000, "time": 2943.1}}, "weekday": "wednesday", "livingplace": "Marin Epagnier"}}, "location": "Colombier NE"}, "BCN Tour #2 La Chaux-de-Fonds": {"latitude": 47.0624261, "longitude": 6.9175754, "race": "BCN Tour #2 La Chaux-de-Fonds", "date": {"mer. 01.05.2013": {"year": 2013, "day": 1, "month": 5, "categories": {"HS2": {"distance": 11, "rank": 53, "pace": 254000000000, "time": 2724.8}}, "weekday": "wednesday", "livingplace": "Marin Epagnier"}}, "location": "Ch\u00e9zard-St-Martin"}, "BCN Tour La Chaux-de-fonds": {"latitude": 47.1034892, "longitude": 6.832783800000001, "race": "BCN Tour La Chaux-de-fonds", "date": {"mer. 12.05.2010": {"year": 2010, "day": 12, "month": 5, "categories": {"HS1": {"distance": 11, "rank": 45, "pace": 318000000000, "time": 3403.4}}, "weekday": "wednesday", "livingplace": "Marin Centre"}}, "location": "La Chaux-de-Fonds"}, "BCN Tour Colombier": {"latitude": 46.9668714, "longitude": 6.8589727, "race": "BCN Tour Colombier", "date": {"mer. 23.04.2008": {"year": 2008, "day": 23, "month": 4, "categories": {"HS1": {"distance": 10, "rank": 37, "pace": 262000000000, "time": 2682.5}}, "weekday": "wednesday", "livingplace": "Marin Epagnier"}}, "location": "Colombier NE"}}, "birth": 1971}