{"name": "Miglioli Magali", "sex": "F", "races": {"Tour du Pays de Vaud #1, Penthaz": {"latitude": 46.5993131, "longitude": 6.539251200000001, "race": "Tour du Pays de Vaud #1, Penthaz", "date": {"mer. 13.08.2014": {"year": 2014, "day": 13, "month": 8, "categories": {"D-Sen3": {"distance": 9, "rank": 28, "pace": 437000000000, "time": 3733.6}}, "weekday": "wednesday", "livingplace": "Pully"}}, "location": "Penthaz"}, "Morat-Fribourg": {"latitude": 46.92922110000001, "longitude": 7.120184, "race": "Morat-Fribourg", "date": {"sam. 05.10.2013": {"year": 2013, "day": 5, "month": 10, "categories": {"17-W50": {"distance": 17, "rank": 191, "pace": 470000000000, "time": 8217.8}}, "weekday": "saturday", "livingplace": "Pully"}, "sam. 04.10.2014": {"year": 2014, "day": 4, "month": 10, "categories": {"17-W50": {"distance": 17, "rank": 168, "pace": 507000000000, "time": 8719.4}}, "weekday": "saturday", "livingplace": "Pully"}}, "location": "Murten"}, "Tour du Pays de Vaud #2, Mezi\u00e8res": {"latitude": 46.5955273, "longitude": 6.7702883, "race": "Tour du Pays de Vaud #2, Mezi\u00e8res", "date": {"mer. 20.08.2014": {"year": 2014, "day": 20, "month": 8, "categories": {"D-Sen3": {"distance": 8, "rank": 27, "pace": 495000000000, "time": 4012.5}}, "weekday": "wednesday", "livingplace": "Pully"}}, "location": "M\u00e9zi\u00e8res VD"}, "20km de Lausanne": {"latitude": 46.5196535, "longitude": 6.6322734, "race": "20km de Lausanne", "date": {"sam. 25.04.2015": {"year": 2015, "day": 25, "month": 4, "categories": {"10-F50": {"distance": 10, "rank": 181, "pace": 457000000000, "time": 4578.6}}, "weekday": "saturday", "livingplace": "Pully"}, "sam. 26.04.2014": {"year": 2014, "day": 26, "month": 4, "categories": {"10-F50": {"distance": 10, "rank": 151, "pace": 438000000000, "time": 4385.8}}, "weekday": "saturday", "livingplace": "Pully"}}, "location": "Lausanne"}, "Tour du Pays de Vaud #4, La Sarraz": {"latitude": 46.7088129, "longitude": 6.5707689, "race": "Tour du Pays de Vaud #4, La Sarraz", "date": {"mer. 03.09.2014": {"year": 2014, "day": 3, "month": 9, "categories": {"D-Sen3": {"distance": 9, "rank": 28, "pace": 439000000000, "time": 3737.1}}, "weekday": "wednesday", "livingplace": "Pully"}}, "location": "Chavornay"}, "Tour du Pays de Vaud #3, Chavornay": {"latitude": 46.7784736, "longitude": 6.641183, "race": "Tour du Pays de Vaud #3, Chavornay", "date": {"mer. 27.08.2014": {"year": 2014, "day": 27, "month": 8, "categories": {"D-Sen3": {"distance": 9, "rank": 42, "pace": 475000000000, "time": 4086.2}}, "weekday": "wednesday", "livingplace": "Pully"}}, "location": "Yverdon-les-Bains"}}, "birth": 1962}