{"name": "Milenkovic Rade", "sex": "M", "races": {"Lausanne Marathon": {"latitude": 46.5196535, "longitude": 6.6322734, "race": "Lausanne Marathon", "date": {"dim. 26.10.2014": {"year": 2014, "day": 26, "month": 10, "categories": {"42-H40": {"distance": 42, "rank": 275, "pace": 369000000000, "time": 15600.4}}, "weekday": "sunday", "livingplace": "Ehrendingen"}}, "location": "Lausanne"}, "Frauenfelder": {"latitude": NaN, "longitude": NaN, "race": "Frauenfelder", "date": {"dim. 17.11.2013": {"year": 2013, "day": 17, "month": 11, "categories": {"HM-M40": {"distance": 21, "rank": 229, "pace": 297000000000, "time": 6286.7}}, "weekday": "sunday", "livingplace": "Ehrendingen"}}, "location": "Frauenfeld"}, "SwissCityMarathon - Lucerne, Luzern": {"latitude": 47.05016819999999, "longitude": 8.3093072, "race": "SwissCityMarathon - Lucerne, Luzern", "date": {"dim. 27.10.2013": {"year": 2013, "day": 27, "month": 10, "categories": {"H-M40": {"distance": 21, "rank": 694, "pace": 308000000000, "time": 6501.7}}, "weekday": "sunday", "livingplace": "Ehrendingen"}}, "location": "Luzern"}, "Schlosslauf Rapperswil-Jona": {"latitude": 47.2266239, "longitude": 8.818437399999999, "race": "Schlosslauf Rapperswil-Jona", "date": {"dim. 06.10.2013": {"year": 2013, "day": 6, "month": 10, "categories": {"10-M3": {"distance": 10, "rank": 44, "pace": 288000000000, "time": 2889.7}}, "weekday": "sunday", "livingplace": "Ehrendingen"}}, "location": "Rapperswil SG"}, "Kerzerslauf": {"latitude": 46.97488999999999, "longitude": 7.1954365, "race": "Kerzerslauf", "date": {"sam. 15.03.2014": {"year": 2014, "day": 15, "month": 3, "categories": {"15-M40": {"distance": 15, "rank": 368, "pace": 310000000000, "time": 4658.6}}, "weekday": "saturday", "livingplace": "Ehrendingen"}}, "location": "Kerzers"}, "Z\u00fcrich Marathon, Teamrun und Cityrun": {"latitude": 47.3768866, "longitude": 8.541694, "race": "Z\u00fcrich Marathon, Teamrun und Cityrun", "date": {"dim. 06.04.2014": {"year": 2014, "day": 6, "month": 4, "categories": {"42-M40": {"distance": 42, "rank": 303, "pace": 360000000000, "time": 15197.2}}, "weekday": "sunday", "livingplace": "Ehrendingen"}}, "location": "Z\u00fcrich"}}, "birth": 1970}