{"name": "Millet Flavien", "sex": "M", "races": {"Tour du Chablais #5 Bex": {"latitude": 46.3603257, "longitude": 6.931504599999999, "race": "Tour du Chablais #5 Bex", "date": {"mer. 09.05.2012": {"year": 2012, "day": 9, "month": 5, "categories": {"M-M20": {"distance": 9, "rank": 118, "pace": 282000000000, "time": 2506.6}}, "weekday": "wednesday", "livingplace": "St Maurice"}}, "location": "Roche VD"}, "Tour du Chablais #6 Mouthey": {"latitude": 46.3190253, "longitude": 6.970566, "race": "Tour du Chablais #6 Mouthey", "date": {"mer. 12.05.2010": {"year": 2010, "day": 12, "month": 5, "categories": {"M-M20": {"distance": 9, "rank": 147, "pace": 279000000000, "time": 2572.1}}, "weekday": "wednesday", "livingplace": "St Maurice"}}, "location": "Aigle"}, "Morat-Fribourg": {"latitude": 46.92922110000001, "longitude": 7.120184, "race": "Morat-Fribourg", "date": {"sam. 02.10.2010": {"year": 2010, "day": 2, "month": 10, "categories": {"17-M20": {"distance": 17, "rank": 1474, "pace": 338000000000, "time": 5814.1}}, "weekday": "saturday", "livingplace": "St Maurice"}, "dim. 05.10.2003": {"year": 2003, "day": 5, "month": 10, "categories": {"M20": {"distance": 17, "rank": 1698, "pace": 330000000000, "time": 5668.1}}, "weekday": "sunday", "livingplace": "Monthey"}}, "location": "Murten"}, "Tour du Chablais #6 Montreux": {"latitude": 46.3190253, "longitude": 6.970566, "race": "Tour du Chablais #6 Montreux", "date": {"mer. 16.05.2012": {"year": 2012, "day": 16, "month": 5, "categories": {"M-M20": {"distance": 9, "rank": 135, "pace": 277000000000, "time": 2563.2}}, "weekday": "wednesday", "livingplace": "St Maurice"}}, "location": "Aigle"}, "Tour du Chablais #4 Morgins": {"latitude": NaN, "longitude": NaN, "race": "Tour du Chablais #4 Morgins", "date": {"mer. 18.05.2011": {"year": 2011, "day": 18, "month": 5, "categories": {"M-M20": {"distance": 8, "rank": 161, "pace": 309000000000, "time": 2587.7}}, "weekday": "wednesday", "livingplace": "St Maurice"}}, "location": "Les Mosses"}, "Tour du Chablais #1 Montreux": {"latitude": 46.2957462, "longitude": 6.9916269, "race": "Tour du Chablais #1 Montreux", "date": {"mer. 11.04.2012": {"year": 2012, "day": 11, "month": 4, "categories": {"M-M20": {"distance": 8, "rank": 135, "pace": 298000000000, "time": 2267.7}}, "weekday": "wednesday", "livingplace": "St Maurice"}}, "location": "Ollon VD"}, "Tour du Chablais #1 Lavey": {"latitude": 46.2957462, "longitude": 6.9916269, "race": "Tour du Chablais #1 Lavey", "date": {"mer. 27.04.2011": {"year": 2011, "day": 27, "month": 4, "categories": {"M-M20": {"distance": 9, "rank": 140, "pace": 283000000000, "time": 2553.3}}, "weekday": "wednesday", "livingplace": "St Maurice"}}, "location": "Ollon VD"}, "Tour du Chablais #4 Champ\u00e9ry": {"latitude": NaN, "longitude": NaN, "race": "Tour du Chablais #4 Champ\u00e9ry", "date": {"mer. 02.05.2012": {"year": 2012, "day": 2, "month": 5, "categories": {"M-M20": {"distance": 8, "rank": 137, "pace": 290000000000, "time": 2411.9}}, "weekday": "wednesday", "livingplace": "St Maurice"}}, "location": "Les Mosses"}, "Tour du Chablais #3 Collombey-Muraz": {"latitude": 46.1782231, "longitude": 7.0223787, "race": "Tour du Chablais #3 Collombey-Muraz", "date": {"mer. 25.04.2012": {"year": 2012, "day": 25, "month": 4, "categories": {"M-M20": {"distance": 9, "rank": 130, "pace": 287000000000, "time": 2581.6}}, "weekday": "wednesday", "livingplace": "St Maurice"}}, "location": "Evionnaz"}, "Tour du Chablais #2 St-Gingolph": {"latitude": 46.3835529, "longitude": 6.854975199999999, "race": "Tour du Chablais #2 St-Gingolph", "date": {"mer. 14.04.2010": {"year": 2010, "day": 14, "month": 4, "categories": {"M-M20": {"distance": 8, "rank": 103, "pace": 299000000000, "time": 2497.9}}, "weekday": "wednesday", "livingplace": "St Maurice"}}, "location": "Bouveret"}}, "birth": 1977}