{"name": "Miss\u00e8gue Marl\u00e8ne", "sex": "F", "races": {"Groupe E Tour Fribourg #4, Siviriez": {"latitude": 46.6585092, "longitude": 6.877722, "race": "Groupe E Tour Fribourg #4, Siviriez", "date": {"mer. 10.09.2014": {"year": 2014, "day": 10, "month": 9, "categories": {"D-Dam3": {"distance": 11, "rank": 13, "pace": 413000000000, "time": 4465.5}}, "weekday": "wednesday", "livingplace": "Lovens"}}, "location": "Siviriez"}, "Groupe E Tour Fribourg #3, Kerzers": {"latitude": 46.97488999999999, "longitude": 7.1954365, "race": "Groupe E Tour Fribourg #3, Kerzers", "date": {"mer. 03.09.2014": {"year": 2014, "day": 3, "month": 9, "categories": {"D-Dam3": {"distance": 10, "rank": 21, "pace": 351000000000, "time": 3578.9}}, "weekday": "wednesday", "livingplace": "Lovens"}}, "location": "Kerzers"}, "Groupe E Tour Fribourg #5, Givisiez": {"latitude": 46.8128615, "longitude": 7.131657799999999, "race": "Groupe E Tour Fribourg #5, Givisiez", "date": {"mer. 17.09.2014": {"year": 2014, "day": 17, "month": 9, "categories": {"D-Dam3": {"distance": 10, "rank": 28, "pace": 360000000000, "time": 3701.6}}, "weekday": "wednesday", "livingplace": "Lovens"}}, "location": "Givisiez"}, "Morat-Fribourg": {"latitude": 46.92922110000001, "longitude": 7.120184, "race": "Morat-Fribourg", "date": {"sam. 05.10.2013": {"year": 2013, "day": 5, "month": 10, "categories": {"8-JoggF": {"distance": 9, "rank": 120, "pace": 351000000000, "time": 3118.8}}, "weekday": "saturday", "livingplace": "Lovens"}, "sam. 04.10.2014": {"year": 2014, "day": 4, "month": 10, "categories": {"17-W40": {"distance": 17, "rank": 219, "pace": 375000000000, "time": 6443.6}}, "weekday": "saturday", "livingplace": "Lovens"}}, "location": "Murten"}, "Groupe E Tour Fribourg #1, Cousset": {"latitude": 46.81832, "longitude": 6.977279999999999, "race": "Groupe E Tour Fribourg #1, Cousset", "date": {"mer. 20.08.2014": {"year": 2014, "day": 20, "month": 8, "categories": {"D-Dam3": {"distance": 9, "rank": 26, "pace": 349000000000, "time": 3288.8}}, "weekday": "wednesday", "livingplace": "Lovens"}}, "location": "Cousset"}}, "birth": 1974}