{"name": "Moeckli Ivan", "sex": "M", "races": {"BCN Tour #5 Colombier": {"latitude": 46.9262933, "longitude": 6.6324944, "race": "BCN Tour #5 Colombier", "date": {"mer. 22.05.2013": {"year": 2013, "day": 22, "month": 5, "categories": {"KG1": {"distance": 1, "rank": 71, "pace": 310000000000, "time": 373.0}}, "weekday": "wednesday", "livingplace": "St Blaise"}}, "location": "Couvet"}, "BCN Tour #3 Dombresson": {"latitude": 46.999113, "longitude": 6.733554799999999, "race": "BCN Tour #3 Dombresson", "date": {"mer. 08.05.2013": {"year": 2013, "day": 8, "month": 5, "categories": {"KG1": {"distance": 1, "rank": 64, "pace": 307000000000, "time": 399.9}}, "weekday": "wednesday", "livingplace": "St Blaise"}}, "location": "Les Ponts-de-Martel"}, "BCN Tour #6 Neuch\u00e2tel": {"latitude": 46.9899874, "longitude": 6.9292732, "race": "BCN Tour #6 Neuch\u00e2tel", "date": {"mer. 29.05.2013": {"year": 2013, "day": 29, "month": 5, "categories": {"KG1": {"distance": 1, "rank": 67, "pace": 287000000000, "time": 373.5}}, "weekday": "wednesday", "livingplace": "St Blaise"}}, "location": "Neuch\u00e2tel"}, "BCN Tour #4 Fleurier": {"latitude": 47.1034892, "longitude": 6.832783800000001, "race": "BCN Tour #4 Fleurier", "date": {"mer. 15.05.2013": {"year": 2013, "day": 15, "month": 5, "categories": {"KG1": {"distance": 2, "rank": 49, "pace": 205000000000, "time": 308.4}}, "weekday": "wednesday", "livingplace": "St Blaise"}}, "location": "La Chaux-de-Fonds"}, "BCN Tour #2 La Chaux-de-Fonds": {"latitude": 47.0624261, "longitude": 6.9175754, "race": "BCN Tour #2 La Chaux-de-Fonds", "date": {"mer. 01.05.2013": {"year": 2013, "day": 1, "month": 5, "categories": {"KG1": {"distance": 1, "rank": 56, "pace": 297000000000, "time": 386.8}}, "weekday": "wednesday", "livingplace": "St Blaise"}}, "location": "Ch\u00e9zard-St-Martin"}}, "birth": 2005}