{"name": "Mojon David", "sex": "M", "races": {"Course de l'Escalade, Gen\u00e8ve": {"latitude": 46.2043907, "longitude": 6.1431577, "race": "Course de l'Escalade, Gen\u00e8ve", "date": {"sam. 05.12.2009": {"year": 2009, "day": 5, "month": 12, "categories": {"HEcolB10": {"distance": 2, "rank": 19, "pace": 248000000000, "time": 579.1}}, "weekday": "saturday", "livingplace": "Geneve"}, "sam. 04.12.2010": {"year": 2010, "day": 4, "month": 12, "categories": {"H-EB11": {"distance": 2, "rank": 14, "pace": 225000000000, "time": 524.9}}, "weekday": "saturday", "livingplace": "Geneve"}}, "location": "Gen\u00e8ve"}, "BCN Tour Fontaine Cernier": {"latitude": 47.0624261, "longitude": 6.9175754, "race": "BCN Tour Fontaine Cernier", "date": {"mer. 27.04.2011": {"year": 2011, "day": 27, "month": 4, "categories": {"KG3": {"distance": 3, "rank": 8, "pace": 278000000000, "time": 835.5}}, "weekday": "wednesday", "livingplace": "Geneve"}}, "location": "Ch\u00e9zard-St-Martin"}, "D\u00e9fi Val-de-Travers, Couvet": {"latitude": 46.9262933, "longitude": 6.6324944, "race": "D\u00e9fi Val-de-Travers, Couvet", "date": {"sam. 21.06.2008": {"year": 2008, "day": 21, "month": 6, "categories": {"GC": {"distance": 1, "rank": 1, "pace": 253000000000, "time": 339.7}}, "weekday": "saturday", "livingplace": "Geneve"}, "sam. 20.06.2009": {"year": 2009, "day": 20, "month": 6, "categories": {"GB": {"distance": 3, "rank": 4, "pace": 248000000000, "time": 633.4}}, "weekday": "saturday", "livingplace": "Geneve"}}, "location": "Couvet"}, "BCN Tour Neuch\u00e2tel": {"latitude": 46.9899874, "longitude": 6.9292732, "race": "BCN Tour Neuch\u00e2tel", "date": {"mer. 26.05.2010": {"year": 2010, "day": 26, "month": 5, "categories": {"KG2": {"distance": 2, "rank": 3, "pace": 196000000000, "time": 295.4}}, "weekday": "wednesday", "livingplace": "Geneve"}, "mer. 30.05.2012": {"year": 2012, "day": 30, "month": 5, "categories": {"KG3": {"distance": 3, "rank": 16, "pace": 251000000000, "time": 780.6}}, "weekday": "wednesday", "livingplace": "Geneve"}}, "location": "Neuch\u00e2tel"}, "BCN Tour Les Ponts de Martel": {"latitude": 46.9262933, "longitude": 6.6324944, "race": "BCN Tour Les Ponts de Martel", "date": {"mer. 18.05.2011": {"year": 2011, "day": 18, "month": 5, "categories": {"KG3": {"distance": 4, "rank": 6, "pace": 238000000000, "time": 929.3}}, "weekday": "wednesday", "livingplace": "Geneve"}}, "location": "Couvet"}, "BCN Tour M\u00f4tier": {"latitude": 46.9262933, "longitude": 6.6324944, "race": "BCN Tour M\u00f4tier", "date": {"mer. 19.05.2010": {"year": 2010, "day": 19, "month": 5, "categories": {"KG2": {"distance": 2, "rank": 4, "pace": 215000000000, "time": 387.0}}, "weekday": "wednesday", "livingplace": "Geneve"}}, "location": "Couvet"}, "BCN Tour Le Locle": {"latitude": 46.999113, "longitude": 6.733554799999999, "race": "BCN Tour Le Locle", "date": {"mer. 05.05.2010": {"year": 2010, "day": 5, "month": 5, "categories": {"KG2": {"distance": 2, "rank": 4, "pace": 237000000000, "time": 427.5}}, "weekday": "wednesday", "livingplace": "Geneve"}}, "location": "Les Ponts-de-Martel"}, "BCN Tour Ponts-de-Martel": {"latitude": 47.0624261, "longitude": 6.9175754, "race": "BCN Tour Ponts-de-Martel", "date": {"mer. 28.04.2010": {"year": 2010, "day": 28, "month": 4, "categories": {"KG2": {"distance": 2, "rank": 3, "pace": 188000000000, "time": 415.4}}, "weekday": "wednesday", "livingplace": "Geneve"}}, "location": "Ch\u00e9zard-St-Martin"}, "BCN Tour La Chaux-de-fonds": {"latitude": 47.1034892, "longitude": 6.832783800000001, "race": "BCN Tour La Chaux-de-fonds", "date": {"mer. 12.05.2010": {"year": 2010, "day": 12, "month": 5, "categories": {"KG2": {"distance": 1, "rank": 2, "pace": 641000000000, "time": 622.6}}, "weekday": "wednesday", "livingplace": "Geneve"}}, "location": "La Chaux-de-Fonds"}, "BCN Tour Colombier": {"latitude": 46.9668714, "longitude": 6.8589727, "race": "BCN Tour Colombier", "date": {"mer. 16.05.2012": {"year": 2012, "day": 16, "month": 5, "categories": {"KG3": {"distance": 3, "rank": 13, "pace": 255000000000, "time": 766.8}}, "weekday": "wednesday", "livingplace": "Geneve"}, "mer. 21.04.2010": {"year": 2010, "day": 21, "month": 4, "categories": {"KG2": {"distance": 2, "rank": 3, "pace": 261000000000, "time": 522.4}}, "weekday": "wednesday", "livingplace": "Geneve"}}, "location": "Colombier NE"}, "BCN Tour Auvernier": {"latitude": 46.9668714, "longitude": 6.8589727, "race": "BCN Tour Auvernier", "date": {"mer. 20.04.2011": {"year": 2011, "day": 20, "month": 4, "categories": {"KG3": {"distance": 2, "rank": 8, "pace": 224000000000, "time": 527.9}}, "weekday": "wednesday", "livingplace": "Geneve"}}, "location": "Colombier NE"}}, "birth": 1999}