{"name": "Monnard Carmen", "sex": "F", "races": {"Tour du Chablais #1 Roche": {"latitude": 46.2957462, "longitude": 6.9916269, "race": "Tour du Chablais #1 Roche", "date": {"mer. 07.04.2010": {"year": 2010, "day": 7, "month": 4, "categories": {"F-F40": {"distance": 9, "rank": 35, "pace": 325000000000, "time": 2910.4}}, "weekday": "wednesday", "livingplace": "Chernex"}, "mer. 03.04.2013": {"year": 2013, "day": 3, "month": 4, "categories": {"F-F50": {"distance": 9, "rank": 16, "pace": 329000000000, "time": 2919.7}}, "weekday": "wednesday", "livingplace": "Territet"}}, "location": "Ollon VD"}, "Tour du Chablais #6 Monthey": {"latitude": 46.3190253, "longitude": 6.970566, "race": "Tour du Chablais #6 Monthey", "date": {"mer. 08.05.2013": {"year": 2013, "day": 8, "month": 5, "categories": {"F-F50": {"distance": 9, "rank": 18, "pace": 329000000000, "time": 3071.3}}, "weekday": "wednesday", "livingplace": "Territet"}}, "location": "Aigle"}, "Tour du Chablais #4 St  Maurice": {"latitude": NaN, "longitude": NaN, "race": "Tour du Chablais #4 St  Maurice", "date": {"mer. 24.04.2013": {"year": 2013, "day": 24, "month": 4, "categories": {"F-F50": {"distance": 10, "rank": 20, "pace": 341000000000, "time": 3414.4}}, "weekday": "wednesday", "livingplace": "Territet"}}, "location": "Les Mosses"}, "20km de Lausanne": {"latitude": 46.5196535, "longitude": 6.6322734, "race": "20km de Lausanne", "date": {"sam. 27.04.2013": {"year": 2013, "day": 27, "month": 4, "categories": {"10-F50": {"distance": 10, "rank": 61, "pace": 337000000000, "time": 3378.6}}, "weekday": "saturday", "livingplace": "Territet"}}, "location": "Lausanne"}, "Tour du Chablais #2 Yvorne": {"latitude": 46.3835529, "longitude": 6.854975199999999, "race": "Tour du Chablais #2 Yvorne", "date": {"mer. 10.04.2013": {"year": 2013, "day": 10, "month": 4, "categories": {"F-F50": {"distance": 8, "rank": 11, "pace": 365000000000, "time": 2921.6}}, "weekday": "wednesday", "livingplace": "Territet"}}, "location": "Bouveret"}, "Tour du Chablais #5 Leysin": {"latitude": 46.3603257, "longitude": 6.931504599999999, "race": "Tour du Chablais #5 Leysin", "date": {"mer. 05.05.2010": {"year": 2010, "day": 5, "month": 5, "categories": {"F-F40": {"distance": 8, "rank": 33, "pace": 355000000000, "time": 3000.8}}, "weekday": "wednesday", "livingplace": "Chernex"}}, "location": "Roche VD"}, "Tour du Chablais #3 Bex": {"latitude": 46.1782231, "longitude": 7.0223787, "race": "Tour du Chablais #3 Bex", "date": {"mer. 21.04.2010": {"year": 2010, "day": 21, "month": 4, "categories": {"F-F40": {"distance": 10, "rank": 36, "pace": 335000000000, "time": 3359.3}}, "weekday": "wednesday", "livingplace": "Chernex"}}, "location": "Evionnaz"}, "Tour du Chablais #6 Mouthey": {"latitude": 46.3190253, "longitude": 6.970566, "race": "Tour du Chablais #6 Mouthey", "date": {"mer. 12.05.2010": {"year": 2010, "day": 12, "month": 5, "categories": {"F-F40": {"distance": 9, "rank": 49, "pace": 324000000000, "time": 2983.1}}, "weekday": "wednesday", "livingplace": "Chernex"}}, "location": "Aigle"}, "Tour du Chablais #5 Morgins": {"latitude": 46.3603257, "longitude": 6.931504599999999, "race": "Tour du Chablais #5 Morgins", "date": {"mer. 01.05.2013": {"year": 2013, "day": 1, "month": 5, "categories": {"F-F50": {"distance": 8, "rank": 22, "pace": 362000000000, "time": 2753.3}}, "weekday": "wednesday", "livingplace": "Territet"}}, "location": "Roche VD"}, "Tour du Chablais #2 St-Gingolph": {"latitude": 46.3835529, "longitude": 6.854975199999999, "race": "Tour du Chablais #2 St-Gingolph", "date": {"mer. 14.04.2010": {"year": 2010, "day": 14, "month": 4, "categories": {"F-F40": {"distance": 8, "rank": 36, "pace": 353000000000, "time": 2951.3}}, "weekday": "wednesday", "livingplace": "Chernex"}}, "location": "Bouveret"}, "Tour du Chablais #4 Yvorne": {"latitude": NaN, "longitude": NaN, "race": "Tour du Chablais #4 Yvorne", "date": {"mer. 28.04.2010": {"year": 2010, "day": 28, "month": 4, "categories": {"F-F40": {"distance": 8, "rank": 39, "pace": 351000000000, "time": 2910.8}}, "weekday": "wednesday", "livingplace": "Chernex"}}, "location": "Les Mosses"}, "Tour du Chablais #3 Bouveret": {"latitude": 46.1782231, "longitude": 7.0223787, "race": "Tour du Chablais #3 Bouveret", "date": {"mer. 17.04.2013": {"year": 2013, "day": 17, "month": 4, "categories": {"F-F50": {"distance": 10, "rank": 19, "pace": 341000000000, "time": 3413.0}}, "weekday": "wednesday", "livingplace": "Territet"}}, "location": "Evionnaz"}}, "birth": 1961}