{"name": "Monnin Thomas", "sex": "M", "races": {"BCN Tour Couvet": {"latitude": 47.0624261, "longitude": 6.9175754, "race": "BCN Tour Couvet", "date": {"mer. 02.05.2012": {"year": 2012, "day": 2, "month": 5, "categories": {"HE": {"distance": 11, "rank": 70, "pace": 289000000000, "time": 3222.9}}, "weekday": "wednesday", "livingplace": "St Blaise"}}, "location": "Ch\u00e9zard-St-Martin"}, "BCN Tour Les Ponts-de-Martel": {"latitude": 46.999113, "longitude": 6.733554799999999, "race": "BCN Tour Les Ponts-de-Martel", "date": {"mer. 09.05.2012": {"year": 2012, "day": 9, "month": 5, "categories": {"HE": {"distance": 10, "rank": 83, "pace": 286000000000, "time": 2952.3}}, "weekday": "wednesday", "livingplace": "St Blaise"}}, "location": "Les Ponts-de-Martel"}, "BCN Tour #5 Colombier": {"latitude": 46.9262933, "longitude": 6.6324944, "race": "BCN Tour #5 Colombier", "date": {"mer. 22.05.2013": {"year": 2013, "day": 22, "month": 5, "categories": {"HS1": {"distance": 11, "rank": 114, "pace": 264000000000, "time": 2774.3}}, "weekday": "wednesday", "livingplace": "St Blaise"}}, "location": "Couvet"}, "BCN Tour #1 Corcelles": {"latitude": 46.9668714, "longitude": 6.8589727, "race": "BCN Tour #1 Corcelles", "date": {"mer. 24.04.2013": {"year": 2013, "day": 24, "month": 4, "categories": {"HS1": {"distance": 10, "rank": 108, "pace": 286000000000, "time": 2810.7}}, "weekday": "wednesday", "livingplace": "St Blaise"}}, "location": "Colombier NE"}, "BCN Tour Colombier": {"latitude": 47.1034892, "longitude": 6.832783800000001, "race": "BCN Tour Colombier", "date": {"mer. 16.05.2012": {"year": 2012, "day": 16, "month": 5, "categories": {"HE": {"distance": 11, "rank": 73, "pace": 272000000000, "time": 2939.8}}, "weekday": "wednesday", "livingplace": "St Blaise"}}, "location": "La Chaux-de-Fonds"}, "BCN Tour #2 La Chaux-de-Fonds": {"latitude": 47.0624261, "longitude": 6.9175754, "race": "BCN Tour #2 La Chaux-de-Fonds", "date": {"mer. 01.05.2013": {"year": 2013, "day": 1, "month": 5, "categories": {"HS1": {"distance": 11, "rank": 134, "pace": 284000000000, "time": 3040.9}}, "weekday": "wednesday", "livingplace": "St Blaise"}}, "location": "Ch\u00e9zard-St-Martin"}}, "birth": 1983}