{"name": "Monnet Jean-Marc", "sex": "M", "races": {"BCN Tour Couvet": {"latitude": 47.0624261, "longitude": 6.9175754, "race": "BCN Tour Couvet", "date": {"mer. 02.05.2012": {"year": 2012, "day": 2, "month": 5, "categories": {"HS2": {"distance": 11, "rank": 94, "pace": 293000000000, "time": 3270.5}}, "weekday": "wednesday", "livingplace": "Noiraigue"}}, "location": "Ch\u00e9zard-St-Martin"}, "BCN Tour M\u00f4tier": {"latitude": 46.9262933, "longitude": 6.6324944, "race": "BCN Tour M\u00f4tier", "date": {"mer. 19.05.2010": {"year": 2010, "day": 19, "month": 5, "categories": {"HS1": {"distance": 10, "rank": 65, "pace": 263000000000, "time": 2608.9}}, "weekday": "wednesday", "livingplace": "Noiraigue"}}, "location": "Couvet"}, "BCN Tour La Br\u00e9vine": {"latitude": 46.999113, "longitude": 6.733554799999999, "race": "BCN Tour La Br\u00e9vine", "date": {"mer. 04.05.2011": {"year": 2011, "day": 4, "month": 5, "categories": {"HS2": {"distance": 10, "rank": 76, "pace": 282000000000, "time": 2825.1}}, "weekday": "wednesday", "livingplace": "Noiraigue"}}, "location": "Les Ponts-de-Martel"}, "BCN Tour Fontaine Cernier": {"latitude": 47.0624261, "longitude": 6.9175754, "race": "BCN Tour Fontaine Cernier", "date": {"mer. 27.04.2011": {"year": 2011, "day": 27, "month": 4, "categories": {"HS2": {"distance": 10, "rank": 80, "pace": 271000000000, "time": 2800.9}}, "weekday": "wednesday", "livingplace": "Noiraigue"}}, "location": "Ch\u00e9zard-St-Martin"}, "BCN Tour Le Locle": {"latitude": 46.999113, "longitude": 6.733554799999999, "race": "BCN Tour Le Locle", "date": {"mer. 05.05.2010": {"year": 2010, "day": 5, "month": 5, "categories": {"HS1": {"distance": 11, "rank": 69, "pace": 275000000000, "time": 3005.4}}, "weekday": "wednesday", "livingplace": "Noiraigue"}}, "location": "Les Ponts-de-Martel"}, "BCN Tour Ponts-de-Martel": {"latitude": 47.0624261, "longitude": 6.9175754, "race": "BCN Tour Ponts-de-Martel", "date": {"mer. 28.04.2010": {"year": 2010, "day": 28, "month": 4, "categories": {"HS1": {"distance": 11, "rank": 72, "pace": 286000000000, "time": 3203.2}}, "weekday": "wednesday", "livingplace": "Noiraigue"}}, "location": "Ch\u00e9zard-St-Martin"}, "BCN Tour Auvernier": {"latitude": 46.9668714, "longitude": 6.8589727, "race": "BCN Tour Auvernier", "date": {"mer. 20.04.2011": {"year": 2011, "day": 20, "month": 4, "categories": {"HS2": {"distance": 11, "rank": 103, "pace": 298000000000, "time": 3223.4}}, "weekday": "wednesday", "livingplace": "Noiraigue"}}, "location": "Colombier NE"}, "BCN Tour Cornaux": {"latitude": 46.9668714, "longitude": 6.8589727, "race": "BCN Tour Cornaux", "date": {"mer. 25.04.2012": {"year": 2012, "day": 25, "month": 4, "categories": {"HS2": {"distance": 11, "rank": 85, "pace": 313000000000, "time": 3451.8}}, "weekday": "wednesday", "livingplace": "Noiraigue"}}, "location": "Colombier NE"}, "BCN Tour Les Ponts-de-Martel": {"latitude": 46.999113, "longitude": 6.733554799999999, "race": "BCN Tour Les Ponts-de-Martel", "date": {"mer. 09.05.2012": {"year": 2012, "day": 9, "month": 5, "categories": {"HS2": {"distance": 10, "rank": 69, "pace": 280000000000, "time": 2886.2}}, "weekday": "wednesday", "livingplace": "Noiraigue"}}, "location": "Les Ponts-de-Martel"}, "Zermatt Marathon, Zermatt": {"latitude": NaN, "longitude": NaN, "race": "Zermatt Marathon, Zermatt", "date": {"sam. 06.07.2002": {"year": 2002, "day": 6, "month": 7, "categories": {"M20": {"distance": 42, "rank": 130, "pace": 444000000000, "time": 18740.3}}, "weekday": "saturday", "livingplace": "Areuse"}}, "location": "Zermatt"}, "BCN Tour La Chaux-de-Fonds": {"latitude": 47.1034892, "longitude": 6.832783800000001, "race": "BCN Tour La Chaux-de-Fonds", "date": {"mer. 23.05.2012": {"year": 2012, "day": 23, "month": 5, "categories": {"HS2": {"distance": 11, "rank": 75, "pace": 278000000000, "time": 3010.2}}, "weekday": "wednesday", "livingplace": "Noiraigue"}, "mer. 11.05.2011": {"year": 2011, "day": 11, "month": 5, "categories": {"HS2": {"distance": 11, "rank": 83, "pace": 323000000000, "time": 3459.8}}, "weekday": "wednesday", "livingplace": "Noiraigue"}}, "location": "La Chaux-de-Fonds"}, "D\u00e9fi Val-de-Travers, Couvet": {"latitude": 46.9262933, "longitude": 6.6324944, "race": "D\u00e9fi Val-de-Travers, Couvet", "date": {"sam. 19.06.2010": {"year": 2010, "day": 19, "month": 6, "categories": {"12-HSen1": {"distance": 12, "rank": 5, "pace": 309000000000, "time": 3774.3}}, "weekday": "saturday", "livingplace": "Noiraigue"}}, "location": "Couvet"}, "BCN Tour Neuch\u00e2tel": {"latitude": 46.9899874, "longitude": 6.9292732, "race": "BCN Tour Neuch\u00e2tel", "date": {"mer. 26.05.2010": {"year": 2010, "day": 26, "month": 5, "categories": {"HS1": {"distance": 10, "rank": 70, "pace": 290000000000, "time": 2817.2}}, "weekday": "wednesday", "livingplace": "Noiraigue"}, "mer. 25.05.2011": {"year": 2011, "day": 25, "month": 5, "categories": {"HS2": {"distance": 11, "rank": 71, "pace": 284000000000, "time": 3242.5}}, "weekday": "wednesday", "livingplace": "Noiraigue"}}, "location": "Neuch\u00e2tel"}, "BCN Tour Les Ponts de Martel": {"latitude": 46.9262933, "longitude": 6.6324944, "race": "BCN Tour Les Ponts de Martel", "date": {"mer. 18.05.2011": {"year": 2011, "day": 18, "month": 5, "categories": {"HS2": {"distance": 13, "rank": 61, "pace": 280000000000, "time": 3595.1}}, "weekday": "wednesday", "livingplace": "Noiraigue"}}, "location": "Couvet"}, "BCN Tour La Chaux-de-fonds": {"latitude": 47.1034892, "longitude": 6.832783800000001, "race": "BCN Tour La Chaux-de-fonds", "date": {"mer. 12.05.2010": {"year": 2010, "day": 12, "month": 5, "categories": {"HS1": {"distance": 11, "rank": 68, "pace": 335000000000, "time": 3586.8}}, "weekday": "wednesday", "livingplace": "Noiraigue"}}, "location": "La Chaux-de-Fonds"}, "BCN Tour Colombier": {"latitude": 46.9668714, "longitude": 6.8589727, "race": "BCN Tour Colombier", "date": {"mer. 16.05.2012": {"year": 2012, "day": 16, "month": 5, "categories": {"HS2": {"distance": 11, "rank": 75, "pace": 275000000000, "time": 2970.7}}, "weekday": "wednesday", "livingplace": "Noiraigue"}, "mer. 23.04.2008": {"year": 2008, "day": 23, "month": 4, "categories": {"HS1": {"distance": 10, "rank": 61, "pace": 276000000000, "time": 2819.7}}, "weekday": "wednesday", "livingplace": "Noiraigue"}, "mer. 21.04.2010": {"year": 2010, "day": 21, "month": 4, "categories": {"HS1": {"distance": 10, "rank": 83, "pace": 312000000000, "time": 3121.4}}, "weekday": "wednesday", "livingplace": "Noiraigue"}}, "location": "Colombier NE"}}, "birth": 1971}