{"name": "Monney Corinne", "sex": "F", "races": {"Bl\u00fcemlisalp-Lauf, Reichenbach": {"latitude": 46.6254387, "longitude": 7.6940529, "race": "Bl\u00fcemlisalp-Lauf, Reichenbach", "date": {"dim. 26.05.2013": {"year": 2013, "day": 26, "month": 5, "categories": {"F20": {"distance": 14, "rank": 10, "pace": 361000000000, "time": 5064.7}}, "weekday": "sunday", "livingplace": "Corcelles pres Payerne"}}, "location": "Reichenbach im Kandertal"}, "Glacier 3000 Run, Gstaad": {"latitude": 46.4717588, "longitude": 7.2865728, "race": "Glacier 3000 Run, Gstaad", "date": {"sam. 10.08.2013": {"year": 2013, "day": 10, "month": 8, "categories": {"F20": {"distance": 26, "rank": 11, "pace": 633000000000, "time": 16459.8}}, "weekday": "saturday", "livingplace": "Corcelles pres Payerne"}}, "location": "Gstaad"}, "Morat-Fribourg": {"latitude": 46.92922110000001, "longitude": 7.120184, "race": "Morat-Fribourg", "date": {"sam. 06.10.2012": {"year": 2012, "day": 6, "month": 10, "categories": {"17-W20": {"distance": 17, "rank": 145, "pace": 319000000000, "time": 5579.8}}, "weekday": "saturday", "livingplace": "Corcelles pres Payerne"}}, "location": "Murten"}, "Corrida Bulloise, Bulle": {"latitude": 46.6154512, "longitude": 7.057726799999999, "race": "Corrida Bulloise, Bulle", "date": {"sam. 19.11.2011": {"year": 2011, "day": 19, "month": 11, "categories": {"F20": {"distance": 6, "rank": 55, "pace": 287000000000, "time": 1765.9}}, "weekday": "saturday", "livingplace": "Vers chez Perrin"}}, "location": "Bulle"}, "Schweizer Frauenlauf Bern": {"latitude": 46.9479739, "longitude": 7.4474468, "race": "Schweizer Frauenlauf Bern", "date": {"dim. 10.06.2012": {"year": 2012, "day": 10, "month": 6, "categories": {"10-W20": {"distance": 10, "rank": 73, "pace": 286000000000, "time": 2862.5}}, "weekday": "sunday", "livingplace": "Vers chez Perrin"}, "dim. 19.06.2011": {"year": 2011, "day": 19, "month": 6, "categories": {"10-W20": {"distance": 10, "rank": 155, "pace": 303000000000, "time": 3033.0}}, "weekday": "sunday", "livingplace": "Vers chez Perrin"}}, "location": "Bern"}, "20km de Lausanne": {"latitude": 46.5196535, "longitude": 6.6322734, "race": "20km de Lausanne", "date": {"sam. 30.04.2011": {"year": 2011, "day": 30, "month": 4, "categories": {"10-F20": {"distance": 10, "rank": 110, "pace": 315000000000, "time": 3153.6}}, "weekday": "saturday", "livingplace": "Vers chez Perrin"}, "sam. 28.04.2012": {"year": 2012, "day": 28, "month": 4, "categories": {"10-F20": {"distance": 10, "rank": 54, "pace": 303000000000, "time": 3039.7}}, "weekday": "saturday", "livingplace": "Vers chez Perrin"}}, "location": "Lausanne"}, "Aletsch-Halbmarathon, Bettmeralp": {"latitude": NaN, "longitude": NaN, "race": "Aletsch-Halbmarathon, Bettmeralp", "date": {"dim. 24.06.2012": {"year": 2012, "day": 24, "month": 6, "categories": {"F20": {"distance": 21, "rank": 36, "pace": 500000000000, "time": 10618.3}}, "weekday": "sunday", "livingplace": "Vers chez Perrin"}}, "location": "Bettmeralp"}, "Kerzerslauf": {"latitude": 46.97488999999999, "longitude": 7.1954365, "race": "Kerzerslauf", "date": {"sam. 17.03.2012": {"year": 2012, "day": 17, "month": 3, "categories": {"15-F20": {"distance": 15, "rank": 186, "pace": 323000000000, "time": 4846.1}}, "weekday": "saturday", "livingplace": "Vers chez Perrin"}}, "location": "Kerzers"}}, "birth": 1987}