{"name": "Monnier St\u00e9phane", "sex": "M", "races": {"Tour du Chablais #1 Roche": {"latitude": 46.2957462, "longitude": 6.9916269, "race": "Tour du Chablais #1 Roche", "date": {"mer. 03.04.2013": {"year": 2013, "day": 3, "month": 4, "categories": {"M-M40": {"distance": 9, "rank": 50, "pace": 262000000000, "time": 2326.6}}, "weekday": "wednesday", "livingplace": "Val d'Illiez"}}, "location": "Ollon VD"}, "Tour du Chablais #6 Monthey": {"latitude": 46.3190253, "longitude": 6.970566, "race": "Tour du Chablais #6 Monthey", "date": {"mer. 08.05.2013": {"year": 2013, "day": 8, "month": 5, "categories": {"M-M40": {"distance": 9, "rank": 58, "pace": 263000000000, "time": 2456.4}}, "weekday": "wednesday", "livingplace": "Val d'Illiez"}}, "location": "Aigle"}, "Tour du Chablais #1 Martigny": {"latitude": 46.2957462, "longitude": 6.9916269, "race": "Tour du Chablais #1 Martigny", "date": {"mer. 23.04.2014": {"year": 2014, "day": 23, "month": 4, "categories": {"M-M40": {"distance": 9, "rank": 41, "pace": 258000000000, "time": 2199.3}}, "weekday": "wednesday", "livingplace": "Val d'Illiez"}}, "location": "Ollon VD"}, "20km de Lausanne": {"latitude": 46.5196535, "longitude": 6.6322734, "race": "20km de Lausanne", "date": {"sam. 25.04.2015": {"year": 2015, "day": 25, "month": 4, "categories": {"10-H40": {"distance": 10, "rank": 37, "pace": 258000000000, "time": 2584.8}}, "weekday": "saturday", "livingplace": "Val d'Illiez"}, "sam. 26.04.2014": {"year": 2014, "day": 26, "month": 4, "categories": {"10-H40": {"distance": 10, "rank": 69, "pace": 271000000000, "time": 2716.8}}, "weekday": "saturday", "livingplace": "Val d'Illiez"}}, "location": "Lausanne"}, "Tour du Chablais #4 St  Maurice": {"latitude": NaN, "longitude": NaN, "race": "Tour du Chablais #4 St  Maurice", "date": {"mer. 24.04.2013": {"year": 2013, "day": 24, "month": 4, "categories": {"M-M40": {"distance": 10, "rank": 46, "pace": 263000000000, "time": 2633.8}}, "weekday": "wednesday", "livingplace": "Val d'Illiez"}}, "location": "Les Mosses"}, "Tour du Chablais #2 Yvorne": {"latitude": 46.3835529, "longitude": 6.854975199999999, "race": "Tour du Chablais #2 Yvorne", "date": {"mer. 10.04.2013": {"year": 2013, "day": 10, "month": 4, "categories": {"M-M40": {"distance": 8, "rank": 45, "pace": 287000000000, "time": 2298.6}}, "weekday": "wednesday", "livingplace": "Val d'Illiez"}}, "location": "Bouveret"}, "Tour du Chablais #3 Bouveret": {"latitude": 46.1782231, "longitude": 7.0223787, "race": "Tour du Chablais #3 Bouveret", "date": {"mer. 17.04.2013": {"year": 2013, "day": 17, "month": 4, "categories": {"M-M40": {"distance": 10, "rank": 50, "pace": 265000000000, "time": 2656.7}}, "weekday": "wednesday", "livingplace": "Val d'Illiez"}}, "location": "Evionnaz"}, "Tour du Chablais #5 Morgins": {"latitude": 46.3603257, "longitude": 6.931504599999999, "race": "Tour du Chablais #5 Morgins", "date": {"mer. 01.05.2013": {"year": 2013, "day": 1, "month": 5, "categories": {"M-M40": {"distance": 8, "rank": 36, "pace": 274000000000, "time": 2085.7}}, "weekday": "wednesday", "livingplace": "Val d'Illiez"}}, "location": "Roche VD"}}, "birth": 1973}