{"name": "Monney Tatiana", "sex": "F", "races": {"Gurtenclassic, Wabern": {"latitude": 46.92901639999999, "longitude": 7.448973199999999, "race": "Gurtenclassic, Wabern", "date": {"dim. 03.11.2013": {"year": 2013, "day": 3, "month": 11, "categories": {"W30": {"distance": 15, "rank": 28, "pace": 383000000000, "time": 5757.2}}, "weekday": "sunday", "livingplace": "Fribourg"}}, "location": "Wabern"}, "Course en f\u00f4ret, Romont": {"latitude": 46.691887, "longitude": 6.9118086, "race": "Course en f\u00f4ret, Romont", "date": {"dim. 21.09.2003": {"year": 2003, "day": 21, "month": 9, "categories": {"F20": {"distance": 15, "rank": 55, "pace": 357000000000, "time": 5260.9}}, "weekday": "sunday", "livingplace": "Fribourg"}}, "location": "Romont FR"}, "Groupe E Tour Fribourg #5, Givisiez": {"latitude": 46.8128615, "longitude": 7.131657799999999, "race": "Groupe E Tour Fribourg #5, Givisiez", "date": {"mer. 17.09.2014": {"year": 2014, "day": 17, "month": 9, "categories": {"D-Dam2": {"distance": 10, "rank": 24, "pace": 364000000000, "time": 3746.0}}, "weekday": "wednesday", "livingplace": "Fribourg"}}, "location": "Givisiez"}, "Morat-Fribourg": {"latitude": 46.92922110000001, "longitude": 7.120184, "race": "Morat-Fribourg", "date": {"dim. 05.10.2003": {"year": 2003, "day": 5, "month": 10, "categories": {"W20": {"distance": 17, "rank": 247, "pace": 352000000000, "time": 6047.4}}, "weekday": "sunday", "livingplace": "Fribourg"}, "sam. 04.10.2014": {"year": 2014, "day": 4, "month": 10, "categories": {"17-W35": {"distance": 17, "rank": 138, "pace": 348000000000, "time": 5986.8}}, "weekday": "saturday", "livingplace": "Fribourg"}}, "location": "Murten"}, "Schweizer Frauenlauf Bern": {"latitude": 46.9479739, "longitude": 7.4474468, "race": "Schweizer Frauenlauf Bern", "date": {"dim. 15.06.2014": {"year": 2014, "day": 15, "month": 6, "categories": {"10-W35": {"distance": 10, "rank": 127, "pace": 317000000000, "time": 3175.7}}, "weekday": "sunday", "livingplace": "Fribourg"}, "dim. 13.06.2004": {"year": 2004, "day": 13, "month": 6, "categories": {"W20": {"distance": 5, "rank": 663, "pace": 320000000000, "time": 1603.3}}, "weekday": "sunday", "livingplace": "Fribourg"}}, "location": "Bern"}}, "birth": 1978}