{"name": "Monteiro Pedro", "sex": "M", "races": {"Tour du Pays de Vaud #2 - Genolier": {"latitude": 46.5955273, "longitude": 6.7702883, "race": "Tour du Pays de Vaud #2 - Genolier", "date": {"mer. 15.08.2012": {"year": 2012, "day": 15, "month": 8, "categories": {"H-Hom": {"distance": 9, "rank": 10, "pace": 225000000000, "time": 1918.1}}, "weekday": "wednesday", "livingplace": "Gland"}}, "location": "M\u00e9zi\u00e8res VD"}, "Semi-Marathon de la C\u00f4te, Allaman-Nyon": {"latitude": 46.3832683, "longitude": 6.2347852, "race": "Semi-Marathon de la C\u00f4te, Allaman-Nyon", "date": {"dim. 14.09.2014": {"year": 2014, "day": 14, "month": 9, "categories": {"21-H30": {"distance": 21, "rank": 34, "pace": 254000000000, "time": 5373.7}}, "weekday": "sunday", "livingplace": "Gland"}}, "location": "Nyon"}, "Tour du Pays de Vaud printanier #1 Chavornay": {"latitude": 46.3832683, "longitude": 6.2347852, "race": "Tour du Pays de Vaud printanier #1 Chavornay", "date": {"mer. 30.05.2012": {"year": 2012, "day": 30, "month": 5, "categories": {"H-Hom": {"distance": 9, "rank": 13, "pace": 258000000000, "time": 2311.6}}, "weekday": "wednesday", "livingplace": "Gland"}}, "location": "Nyon"}, "Noviodurun, Nyon": {"latitude": 46.3832683, "longitude": 6.2347852, "race": "Noviodurun, Nyon", "date": {"sam. 01.11.2014": {"year": 2014, "day": 1, "month": 11, "categories": {"Hom2": {"distance": 6, "rank": 12, "pace": 220000000000, "time": 1427.6}}, "weekday": "saturday", "livingplace": "Gland"}}, "location": "Nyon"}, "Lausanne Marathon": {"latitude": 46.5196535, "longitude": 6.6322734, "race": "Lausanne Marathon", "date": {"sam. 24.10.2015": {"year": 2015, "day": 24, "month": 10, "categories": {"10-H30": {"distance": 10, "rank": 56, "pace": 229000000000, "time": 2291.4}}, "weekday": "saturday", "livingplace": "Gland"}}, "location": "Lausanne"}, "Tour du pays de Vaud #1 - Penthaz": {"latitude": 46.5993131, "longitude": 6.539251200000001, "race": "Tour du pays de Vaud #1 - Penthaz", "date": {"mer. 08.08.2012": {"year": 2012, "day": 8, "month": 8, "categories": {"H-Hom": {"distance": 9, "rank": 18, "pace": 242000000000, "time": 2065.3}}, "weekday": "wednesday", "livingplace": "Gland"}}, "location": "Penthaz"}, "Tour du Pays de Vaud printanier #2 Yens": {"latitude": 46.6698891, "longitude": 6.7975224, "race": "Tour du Pays de Vaud printanier #2 Yens", "date": {"mer. 06.06.2012": {"year": 2012, "day": 6, "month": 6, "categories": {"H-Hom": {"distance": 9, "rank": 4, "pace": 229000000000, "time": 2092.7}}, "weekday": "wednesday", "livingplace": "Gland"}}, "location": "Moudon"}}, "birth": 1984}