{"name": "Moos Yolande", "sex": "F", "races": {"Tour du Chablais #1 Roche": {"latitude": 46.2957462, "longitude": 6.9916269, "race": "Tour du Chablais #1 Roche", "date": {"mer. 07.04.2010": {"year": 2010, "day": 7, "month": 4, "categories": {"F-F50": {"distance": 9, "rank": 1, "pace": 251000000000, "time": 2248.1}}, "weekday": "wednesday", "livingplace": "Chippis"}, "mer. 03.04.2013": {"year": 2013, "day": 3, "month": 4, "categories": {"F-F50": {"distance": 9, "rank": 2, "pace": 256000000000, "time": 2273.0}}, "weekday": "wednesday", "livingplace": "Chippis"}}, "location": "Ollon VD"}, "Tour du Chablais #2 Rennaz": {"latitude": 46.3835529, "longitude": 6.854975199999999, "race": "Tour du Chablais #2 Rennaz", "date": {"mer. 04.05.2011": {"year": 2011, "day": 4, "month": 5, "categories": {"F-F50": {"distance": 9, "rank": 2, "pace": 272000000000, "time": 2545.0}}, "weekday": "wednesday", "livingplace": "Chippis"}}, "location": "Bouveret"}, "Morat-Fribourg": {"latitude": 46.92922110000001, "longitude": 7.120184, "race": "Morat-Fribourg", "date": {"sam. 04.10.2008": {"year": 2008, "day": 4, "month": 10, "categories": {"C-W50": {"distance": 17, "rank": 3, "pace": 275000000000, "time": 4732.9}}, "weekday": "saturday", "livingplace": "Chippis"}, "sam. 03.10.2009": {"year": 2009, "day": 3, "month": 10, "categories": {"C-W50": {"distance": 17, "rank": 45, "pace": 339000000000, "time": 5832.9}}, "weekday": "saturday", "livingplace": "Chippis"}, "dim. 07.10.2001": {"year": 2001, "day": 7, "month": 10, "categories": {"W45": {"distance": 17, "rank": 1, "pace": 258000000000, "time": 4436.2}}, "weekday": "sunday", "livingplace": "Chippis"}}, "location": "Murten"}, "Tour du Chablais #3 Le Bouveret": {"latitude": 46.1782231, "longitude": 7.0223787, "race": "Tour du Chablais #3 Le Bouveret", "date": {"mer. 11.05.2011": {"year": 2011, "day": 11, "month": 5, "categories": {"F-F50": {"distance": 10, "rank": 1, "pace": 263000000000, "time": 2639.2}}, "weekday": "wednesday", "livingplace": "Chippis"}}, "location": "Evionnaz"}, "Tour du Chablais #6 Monthey": {"latitude": 46.3190253, "longitude": 6.970566, "race": "Tour du Chablais #6 Monthey", "date": {"mer. 08.05.2013": {"year": 2013, "day": 8, "month": 5, "categories": {"F-F50": {"distance": 9, "rank": 2, "pace": 257000000000, "time": 2402.1}}, "weekday": "wednesday", "livingplace": "Chippis"}}, "location": "Aigle"}, "Tour du Chablais #1 Lavey": {"latitude": 46.2957462, "longitude": 6.9916269, "race": "Tour du Chablais #1 Lavey", "date": {"mer. 27.04.2011": {"year": 2011, "day": 27, "month": 4, "categories": {"F-F50": {"distance": 9, "rank": 1, "pace": 264000000000, "time": 2378.6}}, "weekday": "wednesday", "livingplace": "Chippis"}}, "location": "Ollon VD"}, "Tour du Chablais #2 Yvorne": {"latitude": 46.3835529, "longitude": 6.854975199999999, "race": "Tour du Chablais #2 Yvorne", "date": {"mer. 10.04.2013": {"year": 2013, "day": 10, "month": 4, "categories": {"F-F50": {"distance": 8, "rank": 1, "pace": 283000000000, "time": 2266.3}}, "weekday": "wednesday", "livingplace": "Chippis"}}, "location": "Bouveret"}, "Tour du Chablais #5 Leysin": {"latitude": 46.3603257, "longitude": 6.931504599999999, "race": "Tour du Chablais #5 Leysin", "date": {"mer. 05.05.2010": {"year": 2010, "day": 5, "month": 5, "categories": {"F-F50": {"distance": 8, "rank": 2, "pace": 295000000000, "time": 2498.4}}, "weekday": "wednesday", "livingplace": "Chippis"}}, "location": "Roche VD"}, "Tour du Chablais #5 Bex": {"latitude": 46.3603257, "longitude": 6.931504599999999, "race": "Tour du Chablais #5 Bex", "date": {"mer. 09.05.2012": {"year": 2012, "day": 9, "month": 5, "categories": {"F-F50": {"distance": 9, "rank": 1, "pace": 247000000000, "time": 2191.6}}, "weekday": "wednesday", "livingplace": "Chippis"}}, "location": "Roche VD"}, "Tour du Chablais #4 Champ\u00e9ry": {"latitude": NaN, "longitude": NaN, "race": "Tour du Chablais #4 Champ\u00e9ry", "date": {"mer. 02.05.2012": {"year": 2012, "day": 2, "month": 5, "categories": {"F-F50": {"distance": 8, "rank": 1, "pace": 257000000000, "time": 2139.7}}, "weekday": "wednesday", "livingplace": "Chippis"}}, "location": "Les Mosses"}, "Tour du Chablais #5 Morgins": {"latitude": 46.3603257, "longitude": 6.931504599999999, "race": "Tour du Chablais #5 Morgins", "date": {"mer. 01.05.2013": {"year": 2013, "day": 1, "month": 5, "categories": {"F-F50": {"distance": 8, "rank": 1, "pace": 277000000000, "time": 2106.8}}, "weekday": "wednesday", "livingplace": "Chippis"}}, "location": "Roche VD"}, "Tour du Chablais #5 Les Mosses": {"latitude": 46.3603257, "longitude": 6.931504599999999, "race": "Tour du Chablais #5 Les Mosses", "date": {"mer. 25.05.2011": {"year": 2011, "day": 25, "month": 5, "categories": {"F-F50": {"distance": 8, "rank": 1, "pace": 282000000000, "time": 2263.8}}, "weekday": "wednesday", "livingplace": "Chippis"}}, "location": "Roche VD"}, "Lausanne Marathon": {"latitude": 46.5196535, "longitude": 6.6322734, "race": "Lausanne Marathon", "date": {"sam. 24.10.2015": {"year": 2015, "day": 24, "month": 10, "categories": {"10-D60": {"distance": 10, "rank": 1, "pace": 261000000000, "time": 2610.8}}, "weekday": "saturday", "livingplace": "Chippis"}}, "location": "Lausanne"}, "Tour du Chablais #6 Aigle": {"latitude": 46.3190253, "longitude": 6.970566, "race": "Tour du Chablais #6 Aigle", "date": {"mer. 01.06.2011": {"year": 2011, "day": 1, "month": 6, "categories": {"F-F50": {"distance": 10, "rank": 1, "pace": 255000000000, "time": 2605.5}}, "weekday": "wednesday", "livingplace": "Chippis"}}, "location": "Aigle"}, "Tour du Chablais #3 Bex": {"latitude": 46.1782231, "longitude": 7.0223787, "race": "Tour du Chablais #3 Bex", "date": {"mer. 21.04.2010": {"year": 2010, "day": 21, "month": 4, "categories": {"F-F50": {"distance": 10, "rank": 1, "pace": 258000000000, "time": 2584.3}}, "weekday": "wednesday", "livingplace": "Chippis"}}, "location": "Evionnaz"}, "Tour du Chablais #3 Collombey-Muraz": {"latitude": 46.1782231, "longitude": 7.0223787, "race": "Tour du Chablais #3 Collombey-Muraz", "date": {"mer. 25.04.2012": {"year": 2012, "day": 25, "month": 4, "categories": {"F-F50": {"distance": 9, "rank": 1, "pace": 252000000000, "time": 2266.9}}, "weekday": "wednesday", "livingplace": "Chippis"}}, "location": "Evionnaz"}, "Tour du Chablais #1 Martigny": {"latitude": 46.2957462, "longitude": 6.9916269, "race": "Tour du Chablais #1 Martigny", "date": {"mer. 23.04.2014": {"year": 2014, "day": 23, "month": 4, "categories": {"F-F50": {"distance": 9, "rank": 3, "pace": 265000000000, "time": 2257.7}}, "weekday": "wednesday", "livingplace": "Chippis"}}, "location": "Ollon VD"}, "Tour du Chablais #4 St  Maurice": {"latitude": NaN, "longitude": NaN, "race": "Tour du Chablais #4 St  Maurice", "date": {"mer. 24.04.2013": {"year": 2013, "day": 24, "month": 4, "categories": {"F-F50": {"distance": 10, "rank": 1, "pace": 263000000000, "time": 2632.1}}, "weekday": "wednesday", "livingplace": "Chippis"}}, "location": "Les Mosses"}, "Tour du Chablais #4 Morgins": {"latitude": NaN, "longitude": NaN, "race": "Tour du Chablais #4 Morgins", "date": {"mer. 18.05.2011": {"year": 2011, "day": 18, "month": 5, "categories": {"F-F50": {"distance": 8, "rank": 1, "pace": 279000000000, "time": 2337.7}}, "weekday": "wednesday", "livingplace": "Chippis"}}, "location": "Les Mosses"}, "Sierre-Zinal, Sierre": {"latitude": 46.29413110000001, "longitude": 7.533536199999999, "race": "Sierre-Zinal, Sierre", "date": {"dim. 12.08.2012": {"year": 2012, "day": 12, "month": 8, "categories": {"Femm_II": {"distance": 31, "rank": 4, "pace": 503000000000, "time": 15593.8}}, "weekday": "sunday", "livingplace": "Chippis"}, "dim. 11.08.2013": {"year": 2013, "day": 11, "month": 8, "categories": {"Femm_II": {"distance": 31, "rank": 3, "pace": 525000000000, "time": 16305.5}}, "weekday": "sunday", "livingplace": "Chippis"}, "dim. 09.08.2015": {"year": 2015, "day": 9, "month": 8, "categories": {"Femm_II": {"distance": 31, "rank": 8, "pace": 553000000000, "time": 17172.2}}, "weekday": "sunday", "livingplace": "Chippis"}}, "location": "Sierre"}, "Aletsch-Halbmarathon, Bettmeralp": {"latitude": NaN, "longitude": NaN, "race": "Aletsch-Halbmarathon, Bettmeralp", "date": {"dim. 29.06.2008": {"year": 2008, "day": 29, "month": 6, "categories": {"F50": {"distance": 21, "rank": 3, "pace": 425000000000, "time": 8931.6}}, "weekday": "sunday", "livingplace": "CA Sierre"}, "dim. 28.06.2009": {"year": 2009, "day": 28, "month": 6, "categories": {"F50": {"distance": 21, "rank": 4, "pace": 417000000000, "time": 8757.0}}, "weekday": "sunday", "livingplace": "CA Sierre"}}, "location": "Bettmeralp"}, "Tour du Chablais #6 Mouthey": {"latitude": 46.3190253, "longitude": 6.970566, "race": "Tour du Chablais #6 Mouthey", "date": {"mer. 12.05.2010": {"year": 2010, "day": 12, "month": 5, "categories": {"F-F50": {"distance": 9, "rank": 2, "pace": 265000000000, "time": 2444.5}}, "weekday": "wednesday", "livingplace": "Chippis"}}, "location": "Aigle"}, "Tour du Chablais #1 Montreux": {"latitude": 46.2957462, "longitude": 6.9916269, "race": "Tour du Chablais #1 Montreux", "date": {"mer. 11.04.2012": {"year": 2012, "day": 11, "month": 4, "categories": {"F-F50": {"distance": 8, "rank": 1, "pace": 264000000000, "time": 2012.4}}, "weekday": "wednesday", "livingplace": "Chippis"}}, "location": "Ollon VD"}, "Tour du Chablais #3 Bouveret": {"latitude": 46.1782231, "longitude": 7.0223787, "race": "Tour du Chablais #3 Bouveret", "date": {"mer. 17.04.2013": {"year": 2013, "day": 17, "month": 4, "categories": {"F-F50": {"distance": 10, "rank": 2, "pace": 261000000000, "time": 2618.4}}, "weekday": "wednesday", "livingplace": "Chippis"}}, "location": "Evionnaz"}, "Tour du Chablais #2 St-Gingolph": {"latitude": 46.3835529, "longitude": 6.854975199999999, "race": "Tour du Chablais #2 St-Gingolph", "date": {"mer. 14.04.2010": {"year": 2010, "day": 14, "month": 4, "categories": {"F-F50": {"distance": 8, "rank": 1, "pace": 280000000000, "time": 2345.9}}, "weekday": "wednesday", "livingplace": "Chippis"}}, "location": "Bouveret"}, "Tour du Chablais #4 Yvorne": {"latitude": NaN, "longitude": NaN, "race": "Tour du Chablais #4 Yvorne", "date": {"mer. 28.04.2010": {"year": 2010, "day": 28, "month": 4, "categories": {"F-F50": {"distance": 8, "rank": 1, "pace": 283000000000, "time": 2343.4}}, "weekday": "wednesday", "livingplace": "Chippis"}}, "location": "Les Mosses"}, "Tour du Chablais #2 Bex": {"latitude": 46.3835529, "longitude": 6.854975199999999, "race": "Tour du Chablais #2 Bex", "date": {"mer. 18.04.2012": {"year": 2012, "day": 18, "month": 4, "categories": {"F-F50": {"distance": 8, "rank": 2, "pace": 263000000000, "time": 2104.4}}, "weekday": "wednesday", "livingplace": "Chippis"}}, "location": "Bouveret"}, "Tour du Chablais #6 Montreux": {"latitude": 46.3190253, "longitude": 6.970566, "race": "Tour du Chablais #6 Montreux", "date": {"mer. 16.05.2012": {"year": 2012, "day": 16, "month": 5, "categories": {"F-F50": {"distance": 9, "rank": 1, "pace": 247000000000, "time": 2290.0}}, "weekday": "wednesday", "livingplace": "Chippis"}}, "location": "Aigle"}}, "birth": 1955}