{"name": "Moraz Pierre", "sex": "M", "races": {"Tour du Chablais #2 Rennaz": {"latitude": 46.3835529, "longitude": 6.854975199999999, "race": "Tour du Chablais #2 Rennaz", "date": {"mer. 04.05.2011": {"year": 2011, "day": 4, "month": 5, "categories": {"M-EC3": {"distance": 3, "rank": 5, "pace": 228000000000, "time": 730.7}}, "weekday": "wednesday", "livingplace": "St Legier"}}, "location": "Bouveret"}, "Tour du Chablais #6 Monthey": {"latitude": 46.3190253, "longitude": 6.970566, "race": "Tour du Chablais #6 Monthey", "date": {"mer. 08.05.2013": {"year": 2013, "day": 8, "month": 5, "categories": {"M-EC2": {"distance": 3, "rank": 18, "pace": 239000000000, "time": 751.2}}, "weekday": "wednesday", "livingplace": "St Legier"}}, "location": "Aigle"}, "20km de Lausanne": {"latitude": 46.5196535, "longitude": 6.6322734, "race": "20km de Lausanne", "date": {"sam. 25.04.2009": {"year": 2009, "day": 25, "month": 4, "categories": {"EcolD-M": {"distance": 2, "rank": 23, "pace": 261000000000, "time": 523.8}}, "weekday": "saturday", "livingplace": "La Tour de Peilz"}, "sam. 28.04.2007": {"year": 2007, "day": 28, "month": 4, "categories": {"11": {"distance": 2, "rank": 17, "pace": 285000000000, "time": 570.5}}, "weekday": "saturday", "livingplace": "La Tour de Peilz"}, "sam. 25.04.2015": {"year": 2015, "day": 25, "month": 4, "categories": {"4-H17": {"distance": 4, "rank": 5, "pace": 206000000000, "time": 827.8}}, "weekday": "saturday", "livingplace": "Triviera"}}, "location": "Lausanne"}, "Course de l'Escalade, Gen\u00e8ve": {"latitude": 46.2043907, "longitude": 6.1431577, "race": "Course de l'Escalade, Gen\u00e8ve", "date": {"sam. 05.12.2015": {"year": 2015, "day": 5, "month": 12, "categories": {"Cad-A-M": {"distance": 5, "rank": 12, "pace": 203000000000, "time": 981.1}}, "weekday": "saturday", "livingplace": "St Legier"}}, "location": "Gen\u00e8ve"}, "Corrida Bulloise, Bulle": {"latitude": 46.6154512, "longitude": 7.057726799999999, "race": "Corrida Bulloise, Bulle", "date": {"sam. 20.11.2010": {"year": 2010, "day": 20, "month": 11, "categories": {"EB": {"distance": 2, "rank": 5, "pace": 230000000000, "time": 402.6}}, "weekday": "saturday", "livingplace": "St Legier"}}, "location": "Bulle"}, "Tour du Chablais #4 Morgins": {"latitude": NaN, "longitude": NaN, "race": "Tour du Chablais #4 Morgins", "date": {"mer. 18.05.2011": {"year": 2011, "day": 18, "month": 5, "categories": {"M-EC3": {"distance": 4, "rank": 9, "pace": 264000000000, "time": 951.9}}, "weekday": "wednesday", "livingplace": "St Legier"}}, "location": "Les Mosses"}, "Les Traine-Savates, Cheseaux-sur-Lausanne": {"latitude": 46.585452, "longitude": 6.6047712, "race": "Les Traine-Savates, Cheseaux-sur-Lausanne", "date": {"sam. 04.04.2009": {"year": 2009, "day": 4, "month": 4, "categories": {"EcolB-M": {"distance": 3, "rank": 4, "pace": 238000000000, "time": 811.1}}, "weekday": "saturday", "livingplace": "St Legier La Chiesaz"}}, "location": "Cheseaux-sur-Lausanne"}, "Tour du Chablais #5 Leysin": {"latitude": 46.3603257, "longitude": 6.931504599999999, "race": "Tour du Chablais #5 Leysin", "date": {"mer. 05.05.2010": {"year": 2010, "day": 5, "month": 5, "categories": {"M-EC3": {"distance": 4, "rank": 3, "pace": 256000000000, "time": 908.8}}, "weekday": "wednesday", "livingplace": "St Legier"}}, "location": "Roche VD"}, "Tour du Chablais #6 Mouthey": {"latitude": 46.3190253, "longitude": 6.970566, "race": "Tour du Chablais #6 Mouthey", "date": {"mer. 12.05.2010": {"year": 2010, "day": 12, "month": 5, "categories": {"M-EC3": {"distance": 3, "rank": 4, "pace": 230000000000, "time": 738.0}}, "weekday": "wednesday", "livingplace": "St Legier"}}, "location": "Aigle"}, "Tour du Chablais #6 Aigle": {"latitude": 46.3190253, "longitude": 6.970566, "race": "Tour du Chablais #6 Aigle", "date": {"mer. 01.06.2011": {"year": 2011, "day": 1, "month": 6, "categories": {"M-EC3": {"distance": 5, "rank": 6, "pace": 247000000000, "time": 1186.1}}, "weekday": "wednesday", "livingplace": "St Legier"}}, "location": "Aigle"}, "Tour du Chablais #4 Yvorne": {"latitude": NaN, "longitude": NaN, "race": "Tour du Chablais #4 Yvorne", "date": {"mer. 28.04.2010": {"year": 2010, "day": 28, "month": 4, "categories": {"M-EC3": {"distance": 3, "rank": 3, "pace": 253000000000, "time": 812.6}}, "weekday": "wednesday", "livingplace": "St Legier"}}, "location": "Les Mosses"}, "Course en f\u00f4ret, Romont": {"latitude": 46.691887, "longitude": 6.9118086, "race": "Course en f\u00f4ret, Romont", "date": {"dim. 21.09.2003": {"year": 2003, "day": 21, "month": 9, "categories": {"GC": {"distance": 1, "rank": 35, "pace": 385000000000, "time": 308.4}}, "weekday": "sunday", "livingplace": "La Tour de Peilz"}}, "location": "Romont FR"}, "Course Titz\u00e9 de no\u00ebl Sion": {"latitude": 46.2331221, "longitude": 7.360625999999999, "race": "Course Titz\u00e9 de no\u00ebl Sion", "date": {"sam. 14.12.2013": {"year": 2013, "day": 14, "month": 12, "categories": {"K-CMB": {"distance": 3, "rank": 15, "pace": 227000000000, "time": 683.1}}, "weekday": "saturday", "livingplace": "St Legier"}}, "location": "Sion"}}, "birth": 1999}