{"name": "Moreillon Jean-Michel", "sex": "M", "races": {"Tour du Chablais #1 Roche": {"latitude": 46.2957462, "longitude": 6.9916269, "race": "Tour du Chablais #1 Roche", "date": {"mer. 07.04.2010": {"year": 2010, "day": 7, "month": 4, "categories": {"M-M20": {"distance": 9, "rank": 97, "pace": 263000000000, "time": 2356.2}}, "weekday": "wednesday", "livingplace": "Les Plans sur Bex"}}, "location": "Ollon VD"}, "Glacier 3000 Run, Gstaad": {"latitude": 46.4717588, "longitude": 7.2865728, "race": "Glacier 3000 Run, Gstaad", "date": {"sam. 08.08.2009": {"year": 2009, "day": 8, "month": 8, "categories": {"M30": {"distance": 26, "rank": 27, "pace": 462000000000, "time": 12037.6}}, "weekday": "saturday", "livingplace": "Les Plans sur Bex"}}, "location": "Gstaad"}, "Morat-Fribourg": {"latitude": 46.92922110000001, "longitude": 7.120184, "race": "Morat-Fribourg", "date": {"sam. 03.10.2009": {"year": 2009, "day": 3, "month": 10, "categories": {"C-M20": {"distance": 17, "rank": 710, "pace": 288000000000, "time": 4957.3}}, "weekday": "saturday", "livingplace": "Les Plans sur Bex"}, "sam. 04.10.2008": {"year": 2008, "day": 4, "month": 10, "categories": {"C-M20": {"distance": 17, "rank": 982, "pace": 301000000000, "time": 5179.8}}, "weekday": "saturday", "livingplace": "Les Plans sur Bex"}}, "location": "Murten"}, "Tour du Chablais #3 Bex": {"latitude": 46.1782231, "longitude": 7.0223787, "race": "Tour du Chablais #3 Bex", "date": {"mer. 21.04.2010": {"year": 2010, "day": 21, "month": 4, "categories": {"M-M20": {"distance": 10, "rank": 65, "pace": 259000000000, "time": 2590.2}}, "weekday": "wednesday", "livingplace": "Bex"}}, "location": "Evionnaz"}, "Tour du Chablais #5 Leysin": {"latitude": 46.3603257, "longitude": 6.931504599999999, "race": "Tour du Chablais #5 Leysin", "date": {"mer. 05.05.2010": {"year": 2010, "day": 5, "month": 5, "categories": {"M-M20": {"distance": 8, "rank": 63, "pace": 280000000000, "time": 2368.9}}, "weekday": "wednesday", "livingplace": "Bex"}}, "location": "Roche VD"}, "Tour du Chablais #6 Mouthey": {"latitude": 46.3190253, "longitude": 6.970566, "race": "Tour du Chablais #6 Mouthey", "date": {"mer. 12.05.2010": {"year": 2010, "day": 12, "month": 5, "categories": {"M-M20": {"distance": 9, "rank": 83, "pace": 251000000000, "time": 2314.3}}, "weekday": "wednesday", "livingplace": "Bex"}}, "location": "Aigle"}, "Tour du Chablais #2 St-Gingolph": {"latitude": 46.3835529, "longitude": 6.854975199999999, "race": "Tour du Chablais #2 St-Gingolph", "date": {"mer. 14.04.2010": {"year": 2010, "day": 14, "month": 4, "categories": {"M-M20": {"distance": 8, "rank": 66, "pace": 274000000000, "time": 2294.5}}, "weekday": "wednesday", "livingplace": "Bex"}}, "location": "Bouveret"}}, "birth": 1976}