{"name": "Morgenthaler Heinz", "sex": "M", "races": {"Morat-Fribourg": {"latitude": 46.92922110000001, "longitude": 7.120184, "race": "Morat-Fribourg", "date": {"sam. 04.10.2008": {"year": 2008, "day": 4, "month": 10, "categories": {"C-M45": {"distance": 17, "rank": 544, "pace": 333000000000, "time": 5734.3}}, "weekday": "saturday", "livingplace": "Neuchatel"}, "dim. 07.10.2001": {"year": 2001, "day": 7, "month": 10, "categories": {"M20": {"distance": 17, "rank": 1311, "pace": 301000000000, "time": 5178.5}}, "weekday": "sunday", "livingplace": "Neuchatel"}}, "location": "Murten"}, "BCN Tour La Br\u00e9vine": {"latitude": 46.999113, "longitude": 6.733554799999999, "race": "BCN Tour La Br\u00e9vine", "date": {"mer. 04.05.2011": {"year": 2011, "day": 4, "month": 5, "categories": {"HS2": {"distance": 10, "rank": 213, "pace": 332000000000, "time": 3320.4}}, "weekday": "wednesday", "livingplace": "Chezard St Martin"}}, "location": "Les Ponts-de-Martel"}, "BCN Tour Fontaine Cernier": {"latitude": 47.0624261, "longitude": 6.9175754, "race": "BCN Tour Fontaine Cernier", "date": {"mer. 27.04.2011": {"year": 2011, "day": 27, "month": 4, "categories": {"HS2": {"distance": 10, "rank": 208, "pace": 308000000000, "time": 3182.2}}, "weekday": "wednesday", "livingplace": "Chezard St Martin"}}, "location": "Ch\u00e9zard-St-Martin"}, "BCN Tour Neuch\u00e2tel": {"latitude": 46.9899874, "longitude": 6.9292732, "race": "BCN Tour Neuch\u00e2tel", "date": {"mer. 25.05.2011": {"year": 2011, "day": 25, "month": 5, "categories": {"HS2": {"distance": 11, "rank": 170, "pace": 325000000000, "time": 3707.3}}, "weekday": "wednesday", "livingplace": "Chezard St Martin"}}, "location": "Neuch\u00e2tel"}, "BCN Tour Les Ponts de Martel": {"latitude": 46.9262933, "longitude": 6.6324944, "race": "BCN Tour Les Ponts de Martel", "date": {"mer. 18.05.2011": {"year": 2011, "day": 18, "month": 5, "categories": {"HS2": {"distance": 13, "rank": 155, "pace": 316000000000, "time": 4054.6}}, "weekday": "wednesday", "livingplace": "Chezard St Martin"}}, "location": "Couvet"}, "BCN Tour Auvernier": {"latitude": 46.9668714, "longitude": 6.8589727, "race": "BCN Tour Auvernier", "date": {"mer. 20.04.2011": {"year": 2011, "day": 20, "month": 4, "categories": {"HS2": {"distance": 11, "rank": 227, "pace": 347000000000, "time": 3752.7}}, "weekday": "wednesday", "livingplace": "Chezard St Martin"}}, "location": "Colombier NE"}, "Kerzerslauf": {"latitude": 46.97488999999999, "longitude": 7.1954365, "race": "Kerzerslauf", "date": {"sam. 18.03.2000": {"year": 2000, "day": 18, "month": 3, "categories": {"M35": {"distance": 15, "rank": 307, "pace": 303000000000, "time": 4549.9}}, "weekday": "saturday", "livingplace": "Neuchatel"}, "sam. 20.03.2004": {"year": 2004, "day": 20, "month": 3, "categories": {"M40": {"distance": 15, "rank": 479, "pace": 341000000000, "time": 5116.3}}, "weekday": "saturday", "livingplace": "Neuchatel"}}, "location": "Kerzers"}}, "birth": 1962}