{"name": "Mori Dante", "sex": "M", "races": {"Tour du Chablais #6 Mouthey": {"latitude": 46.3190253, "longitude": 6.970566, "race": "Tour du Chablais #6 Mouthey", "date": {"mer. 12.05.2010": {"year": 2010, "day": 12, "month": 5, "categories": {"M-M40": {"distance": 9, "rank": 100, "pace": 276000000000, "time": 2539.3}}, "weekday": "wednesday", "livingplace": "Muraz Collombey"}}, "location": "Aigle"}, "Morat-Fribourg": {"latitude": 46.92922110000001, "longitude": 7.120184, "race": "Morat-Fribourg", "date": {"dim. 05.10.2003": {"year": 2003, "day": 5, "month": 10, "categories": {"M20": {"distance": 17, "rank": 397, "pace": 256000000000, "time": 4409.2}}, "weekday": "sunday", "livingplace": "Muraz Collombey"}}, "location": "Murten"}, "Course de l'Escalade, Gen\u00e8ve": {"latitude": 46.2043907, "longitude": 6.1431577, "race": "Course de l'Escalade, Gen\u00e8ve", "date": {"sam. 07.12.2002": {"year": 2002, "day": 7, "month": 12, "categories": {"HElite": {"distance": 7, "rank": 231, "pace": 234000000000, "time": 1700.6}}, "weekday": "saturday", "livingplace": "Muraz Collombey"}}, "location": "Gen\u00e8ve"}, "20km de Lausanne": {"latitude": 46.5196535, "longitude": 6.6322734, "race": "20km de Lausanne", "date": {"sam. 30.04.2011": {"year": 2011, "day": 30, "month": 4, "categories": {"20-H40": {"distance": 20, "rank": 40, "pace": 251000000000, "time": 5027.7}}, "weekday": "saturday", "livingplace": "Muraz Collombey"}, "sam. 28.04.2012": {"year": 2012, "day": 28, "month": 4, "categories": {"20-H40": {"distance": 20, "rank": 38, "pace": 257000000000, "time": 5152.9}}, "weekday": "saturday", "livingplace": "Muraz Collombey"}}, "location": "Lausanne"}, "Tour du Chablais #3 Bex": {"latitude": 46.1782231, "longitude": 7.0223787, "race": "Tour du Chablais #3 Bex", "date": {"mer. 21.04.2010": {"year": 2010, "day": 21, "month": 4, "categories": {"M-M40": {"distance": 10, "rank": 31, "pace": 248000000000, "time": 2480.2}}, "weekday": "wednesday", "livingplace": "Muraz Collombey"}}, "location": "Evionnaz"}, "Les Traine-Savates, Cheseaux-sur-Lausanne": {"latitude": 46.585452, "longitude": 6.6047712, "race": "Les Traine-Savates, Cheseaux-sur-Lausanne", "date": {"sam. 13.04.2013": {"year": 2013, "day": 13, "month": 4, "categories": {"10-M40": {"distance": 10, "rank": 43, "pace": 256000000000, "time": 2642.6}}, "weekday": "saturday", "livingplace": "Muraz Collombey"}}, "location": "Cheseaux-sur-Lausanne"}}, "birth": 1969}