{"name": "Morisod Kevin", "sex": "M", "races": {"Tour du Chablais #1 Roche": {"latitude": 46.2957462, "longitude": 6.9916269, "race": "Tour du Chablais #1 Roche", "date": {"mer. 07.04.2010": {"year": 2010, "day": 7, "month": 4, "categories": {"M-Jun": {"distance": 9, "rank": 8, "pace": 236000000000, "time": 2116.7}}, "weekday": "wednesday", "livingplace": "Collombey"}}, "location": "Ollon VD"}, "Tour du Chablais #3 Bex": {"latitude": 46.1782231, "longitude": 7.0223787, "race": "Tour du Chablais #3 Bex", "date": {"mer. 21.04.2010": {"year": 2010, "day": 21, "month": 4, "categories": {"M-Jun": {"distance": 10, "rank": 9, "pace": 237000000000, "time": 2379.3}}, "weekday": "wednesday", "livingplace": "Collombey"}}, "location": "Evionnaz"}, "Tour du Chablais #3 Le Bouveret": {"latitude": 46.1782231, "longitude": 7.0223787, "race": "Tour du Chablais #3 Le Bouveret", "date": {"mer. 11.05.2011": {"year": 2011, "day": 11, "month": 5, "categories": {"M-Jun": {"distance": 10, "rank": 14, "pace": 256000000000, "time": 2560.4}}, "weekday": "wednesday", "livingplace": "Collombey"}}, "location": "Evionnaz"}, "Tour du Chablais #4 Morgins": {"latitude": NaN, "longitude": NaN, "race": "Tour du Chablais #4 Morgins", "date": {"mer. 18.05.2011": {"year": 2011, "day": 18, "month": 5, "categories": {"M-Jun": {"distance": 8, "rank": 9, "pace": 261000000000, "time": 2180.4}}, "weekday": "wednesday", "livingplace": "Collombey"}}, "location": "Les Mosses"}, "20km de Lausanne": {"latitude": 46.5196535, "longitude": 6.6322734, "race": "20km de Lausanne", "date": {"sam. 25.04.2015": {"year": 2015, "day": 25, "month": 4, "categories": {"20-H20": {"distance": 20, "rank": 488, "pace": 296000000000, "time": 5924.7}}, "weekday": "saturday", "livingplace": "Collombey"}, "sam. 26.04.2014": {"year": 2014, "day": 26, "month": 4, "categories": {"20-H20": {"distance": 20, "rank": 196, "pace": 279000000000, "time": 5592.4}}, "weekday": "saturday", "livingplace": "Se bouger pour sa sante 6"}}, "location": "Lausanne"}, "Tour du Chablais #1 Lavey": {"latitude": 46.2957462, "longitude": 6.9916269, "race": "Tour du Chablais #1 Lavey", "date": {"mer. 27.04.2011": {"year": 2011, "day": 27, "month": 4, "categories": {"M-Jun": {"distance": 9, "rank": 10, "pace": 262000000000, "time": 2360.8}}, "weekday": "wednesday", "livingplace": "Collombey"}}, "location": "Ollon VD"}, "Tour du Chablais #5 Leysin": {"latitude": 46.3603257, "longitude": 6.931504599999999, "race": "Tour du Chablais #5 Leysin", "date": {"mer. 05.05.2010": {"year": 2010, "day": 5, "month": 5, "categories": {"M-Jun": {"distance": 8, "rank": 5, "pace": 248000000000, "time": 2100.5}}, "weekday": "wednesday", "livingplace": "Collombey"}}, "location": "Roche VD"}, "Tour du Chablais #6 Mouthey": {"latitude": 46.3190253, "longitude": 6.970566, "race": "Tour du Chablais #6 Mouthey", "date": {"mer. 12.05.2010": {"year": 2010, "day": 12, "month": 5, "categories": {"M-Jun": {"distance": 9, "rank": 7, "pace": 225000000000, "time": 2069.2}}, "weekday": "wednesday", "livingplace": "Collombey"}}, "location": "Aigle"}, "Tour du Chablais #5 Les Mosses": {"latitude": 46.3603257, "longitude": 6.931504599999999, "race": "Tour du Chablais #5 Les Mosses", "date": {"mer. 25.05.2011": {"year": 2011, "day": 25, "month": 5, "categories": {"M-Jun": {"distance": 8, "rank": 9, "pace": 268000000000, "time": 2146.0}}, "weekday": "wednesday", "livingplace": "Collombey"}}, "location": "Roche VD"}, "Tour du Chablais #6 Aigle": {"latitude": 46.3190253, "longitude": 6.970566, "race": "Tour du Chablais #6 Aigle", "date": {"mer. 01.06.2011": {"year": 2011, "day": 1, "month": 6, "categories": {"M-Jun": {"distance": 10, "rank": 10, "pace": 248000000000, "time": 2536.3}}, "weekday": "wednesday", "livingplace": "Collombey"}}, "location": "Aigle"}, "Tour du Chablais #2 St-Gingolph": {"latitude": 46.3835529, "longitude": 6.854975199999999, "race": "Tour du Chablais #2 St-Gingolph", "date": {"mer. 14.04.2010": {"year": 2010, "day": 14, "month": 4, "categories": {"M-Jun": {"distance": 8, "rank": 11, "pace": 257000000000, "time": 2148.7}}, "weekday": "wednesday", "livingplace": "Collombey"}}, "location": "Bouveret"}, "Tour du Chablais #4 Yvorne": {"latitude": NaN, "longitude": NaN, "race": "Tour du Chablais #4 Yvorne", "date": {"mer. 28.04.2010": {"year": 2010, "day": 28, "month": 4, "categories": {"M-Jun": {"distance": 8, "rank": 6, "pace": 243000000000, "time": 2015.5}}, "weekday": "wednesday", "livingplace": "Collombey"}}, "location": "Les Mosses"}}, "birth": 1993}