{"name": "Morisetti Muriel", "sex": "F", "races": {"20km de Lausanne": {"latitude": 46.5196535, "longitude": 6.6322734, "race": "20km de Lausanne", "date": {"sam. 30.04.2011": {"year": 2011, "day": 30, "month": 4, "categories": {"10-F30": {"distance": 10, "rank": 402, "pace": 363000000000, "time": 3635.7}}, "weekday": "saturday", "livingplace": "BCV Concours"}}, "location": "Lausanne"}, "Morat-Fribourg": {"latitude": 46.92922110000001, "longitude": 7.120184, "race": "Morat-Fribourg", "date": {"sam. 05.10.2013": {"year": 2013, "day": 5, "month": 10, "categories": {"17-W35": {"distance": 17, "rank": 220, "pace": 359000000000, "time": 6265.0}}, "weekday": "saturday", "livingplace": "Ursy"}, "sam. 06.10.2012": {"year": 2012, "day": 6, "month": 10, "categories": {"8-JoggF": {"distance": 9, "rank": 132, "pace": 371000000000, "time": 3298.1}}, "weekday": "saturday", "livingplace": "Ursy"}, "sam. 04.10.2014": {"year": 2014, "day": 4, "month": 10, "categories": {"17-W40": {"distance": 17, "rank": 113, "pace": 341000000000, "time": 5871.3}}, "weekday": "saturday", "livingplace": "Ursy"}}, "location": "Murten"}, "Kerzerslauf": {"latitude": 46.97488999999999, "longitude": 7.1954365, "race": "Kerzerslauf", "date": {"sam. 16.03.2013": {"year": 2013, "day": 16, "month": 3, "categories": {"15-F35": {"distance": 15, "rank": 132, "pace": 380000000000, "time": 5707.2}}, "weekday": "saturday", "livingplace": "Ursy"}}, "location": "Kerzers"}, "Corrida Bulloise, Bulle": {"latitude": 46.6154512, "longitude": 7.057726799999999, "race": "Corrida Bulloise, Bulle", "date": {"sam. 17.11.2012": {"year": 2012, "day": 17, "month": 11, "categories": {"F20": {"distance": 6, "rank": 192, "pace": 339000000000, "time": 2085.5}}, "weekday": "saturday", "livingplace": "Ursy"}}, "location": "Bulle"}, "Schweizer Frauenlauf Bern": {"latitude": 46.9479739, "longitude": 7.4474468, "race": "Schweizer Frauenlauf Bern", "date": {"dim. 09.06.2013": {"year": 2013, "day": 9, "month": 6, "categories": {"10-W35": {"distance": 10, "rank": 271, "pace": 352000000000, "time": 3526.8}}, "weekday": "sunday", "livingplace": "Ursy"}}, "location": "Bern"}}, "birth": 1974}