{"name": "Moro Diego", "sex": "M", "races": {"BCN Tour M\u00f4tier": {"latitude": 46.9262933, "longitude": 6.6324944, "race": "BCN Tour M\u00f4tier", "date": {"mer. 19.05.2010": {"year": 2010, "day": 19, "month": 5, "categories": {"HS1": {"distance": 10, "rank": 27, "pace": 238000000000, "time": 2365.0}}, "weekday": "wednesday", "livingplace": "St Imier"}}, "location": "Couvet"}, "BCN Tour Neuch\u00e2tel": {"latitude": 46.9899874, "longitude": 6.9292732, "race": "BCN Tour Neuch\u00e2tel", "date": {"mer. 25.05.2011": {"year": 2011, "day": 25, "month": 5, "categories": {"HS2": {"distance": 11, "rank": 32, "pace": 260000000000, "time": 2967.7}}, "weekday": "wednesday", "livingplace": "St Imier"}}, "location": "Neuch\u00e2tel"}, "Course de l'Escalade, Gen\u00e8ve": {"latitude": 46.2043907, "longitude": 6.1431577, "race": "Course de l'Escalade, Gen\u00e8ve", "date": {"sam. 04.12.2010": {"year": 2010, "day": 4, "month": 12, "categories": {"H-Elite": {"distance": 7, "rank": 156, "pace": 211000000000, "time": 1536.5}}, "weekday": "saturday", "livingplace": "Saint Imier"}}, "location": "Gen\u00e8ve"}, "20km de Lausanne": {"latitude": 46.5196535, "longitude": 6.6322734, "race": "20km de Lausanne", "date": {"sam. 30.04.2011": {"year": 2011, "day": 30, "month": 4, "categories": {"10-H40": {"distance": 10, "rank": 18, "pace": 239000000000, "time": 2391.1}}, "weekday": "saturday", "livingplace": "St Imier"}, "sam. 24.04.2010": {"year": 2010, "day": 24, "month": 4, "categories": {"10-H30": {"distance": 10, "rank": 23, "pace": 231000000000, "time": 2319.4}}, "weekday": "saturday", "livingplace": "St Imier"}, "sam. 25.04.2009": {"year": 2009, "day": 25, "month": 4, "categories": {"10-H30": {"distance": 10, "rank": 18, "pace": 224000000000, "time": 2248.4}}, "weekday": "saturday", "livingplace": "St Imier"}}, "location": "Lausanne"}, "BCN Tour La Chaux-de-fonds": {"latitude": 47.1034892, "longitude": 6.832783800000001, "race": "BCN Tour La Chaux-de-fonds", "date": {"mer. 12.05.2010": {"year": 2010, "day": 12, "month": 5, "categories": {"HS1": {"distance": 11, "rank": 25, "pace": 301000000000, "time": 3223.0}}, "weekday": "wednesday", "livingplace": "St Imier"}}, "location": "La Chaux-de-Fonds"}, "Les Traine-Savates, Cheseaux-sur-Lausanne": {"latitude": 46.585452, "longitude": 6.6047712, "race": "Les Traine-Savates, Cheseaux-sur-Lausanne", "date": {"sam. 04.04.2009": {"year": 2009, "day": 4, "month": 4, "categories": {"Hom Sen": {"distance": 10, "rank": 26, "pace": 229000000000, "time": 2387.8}}, "weekday": "saturday", "livingplace": "St Imier"}, "sam. 09.04.2011": {"year": 2011, "day": 9, "month": 4, "categories": {"10-M40": {"distance": 10, "rank": 42, "pace": 251000000000, "time": 2614.2}}, "weekday": "saturday", "livingplace": "St Imier"}, "sam. 10.04.2010": {"year": 2010, "day": 10, "month": 4, "categories": {"Hom Sen": {"distance": 10, "rank": 30, "pace": 225000000000, "time": 2348.4}}, "weekday": "saturday", "livingplace": "St Imier"}}, "location": "Cheseaux-sur-Lausanne"}, "BCN Tour Auvernier": {"latitude": 46.9668714, "longitude": 6.8589727, "race": "BCN Tour Auvernier", "date": {"mer. 20.04.2011": {"year": 2011, "day": 20, "month": 4, "categories": {"HS2": {"distance": 11, "rank": 31, "pace": 257000000000, "time": 2781.2}}, "weekday": "wednesday", "livingplace": "St Imier"}}, "location": "Colombier NE"}}, "birth": 1971}