{"name": "Mory Sylvie", "sex": "F", "races": {"Les Traine-Savates, Cheseaux-sur-Lausanne": {"latitude": 46.585452, "longitude": 6.6047712, "race": "Les Traine-Savates, Cheseaux-sur-Lausanne", "date": {"sam. 10.04.2010": {"year": 2010, "day": 10, "month": 4, "categories": {"DamSen": {"distance": 10, "rank": 117, "pace": 387000000000, "time": 4027.6}}, "weekday": "saturday", "livingplace": "Grolley"}}, "location": "Cheseaux-sur-Lausanne"}, "Morat-Fribourg": {"latitude": 46.92922110000001, "longitude": 7.120184, "race": "Morat-Fribourg", "date": {"sam. 03.10.2009": {"year": 2009, "day": 3, "month": 10, "categories": {"C-W20": {"distance": 17, "rank": 436, "pace": 445000000000, "time": 7643.5}}, "weekday": "saturday", "livingplace": "Grolley"}, "sam. 02.10.2010": {"year": 2010, "day": 2, "month": 10, "categories": {"17-W20": {"distance": 17, "rank": 385, "pace": 407000000000, "time": 7003.6}}, "weekday": "saturday", "livingplace": "Domdidier"}}, "location": "Murten"}, "Kerzerslauf": {"latitude": 46.97488999999999, "longitude": 7.1954365, "race": "Kerzerslauf", "date": {"sam. 20.03.2010": {"year": 2010, "day": 20, "month": 3, "categories": {"15-F20": {"distance": 15, "rank": 294, "pace": 425000000000, "time": 6375.0}}, "weekday": "saturday", "livingplace": "Grolley"}, "sam. 19.03.2011": {"year": 2011, "day": 19, "month": 3, "categories": {"5-F20": {"distance": 5, "rank": 190, "pace": 419000000000, "time": 2099.2}}, "weekday": "saturday", "livingplace": "Domdidier"}}, "location": "Kerzers"}, "Corrida Bulloise, Bulle": {"latitude": 46.6154512, "longitude": 7.057726799999999, "race": "Corrida Bulloise, Bulle", "date": {"sam. 21.11.2009": {"year": 2009, "day": 21, "month": 11, "categories": {"F20": {"distance": 6, "rank": 175, "pace": 378000000000, "time": 2325.7}}, "weekday": "saturday", "livingplace": "Grolley"}}, "location": "Bulle"}, "Schweizer Frauenlauf Bern": {"latitude": 46.9479739, "longitude": 7.4474468, "race": "Schweizer Frauenlauf Bern", "date": {"dim. 13.06.2010": {"year": 2010, "day": 13, "month": 6, "categories": {"10-W20": {"distance": 10, "rank": 600, "pace": 390000000000, "time": 3902.8}}, "weekday": "sunday", "livingplace": "Grolley"}, "dim. 19.06.2011": {"year": 2011, "day": 19, "month": 6, "categories": {"10-W20": {"distance": 10, "rank": 700, "pace": 386000000000, "time": 3860.1}}, "weekday": "sunday", "livingplace": "Domdidier"}}, "location": "Bern"}}, "birth": 1984}