{"name": "Moser Rapha\u00ebl", "sex": "M", "races": {"BCN Tour #6 Neuch\u00e2tel": {"latitude": 46.9899874, "longitude": 6.9292732, "race": "BCN Tour #6 Neuch\u00e2tel", "date": {"mer. 29.05.2013": {"year": 2013, "day": 29, "month": 5, "categories": {"HS1": {"distance": 11, "rank": 95, "pace": 286000000000, "time": 3155.2}}, "weekday": "wednesday", "livingplace": "Preles"}}, "location": "Neuch\u00e2tel"}, "BCN Tour Neuch\u00e2tel": {"latitude": 46.9899874, "longitude": 6.9292732, "race": "BCN Tour Neuch\u00e2tel", "date": {"mer. 30.05.2012": {"year": 2012, "day": 30, "month": 5, "categories": {"HS1": {"distance": 11, "rank": 136, "pace": 314000000000, "time": 3523.8}}, "weekday": "wednesday", "livingplace": "Preles"}}, "location": "Neuch\u00e2tel"}, "BCN Tour #5 Colombier": {"latitude": 46.9262933, "longitude": 6.6324944, "race": "BCN Tour #5 Colombier", "date": {"mer. 22.05.2013": {"year": 2013, "day": 22, "month": 5, "categories": {"HS1": {"distance": 11, "rank": 132, "pace": 270000000000, "time": 2835.7}}, "weekday": "wednesday", "livingplace": "Preles"}}, "location": "Couvet"}, "BCN Tour #1 Corcelles": {"latitude": 46.9668714, "longitude": 6.8589727, "race": "BCN Tour #1 Corcelles", "date": {"mer. 24.04.2013": {"year": 2013, "day": 24, "month": 4, "categories": {"HS1": {"distance": 10, "rank": 163, "pace": 301000000000, "time": 2951.6}}, "weekday": "wednesday", "livingplace": "Preles"}}, "location": "Colombier NE"}, "Kerzerslauf": {"latitude": 46.97488999999999, "longitude": 7.1954365, "race": "Kerzerslauf", "date": {"sam. 15.03.2014": {"year": 2014, "day": 15, "month": 3, "categories": {"15-M35": {"distance": 15, "rank": 205, "pace": 277000000000, "time": 4158.8}}, "weekday": "saturday", "livingplace": "Preles"}}, "location": "Kerzers"}, "BCN Tour #3 Dombresson": {"latitude": 46.999113, "longitude": 6.733554799999999, "race": "BCN Tour #3 Dombresson", "date": {"mer. 08.05.2013": {"year": 2013, "day": 8, "month": 5, "categories": {"HS1": {"distance": 10, "rank": 117, "pace": 277000000000, "time": 2744.1}}, "weekday": "wednesday", "livingplace": "Preles"}}, "location": "Les Ponts-de-Martel"}}, "birth": 1979}