{"name": "Mottet Fabienne", "sex": "F", "races": {"Tour du Pays de Vaud #4, La Sarraz": {"latitude": 46.7088129, "longitude": 6.5707689, "race": "Tour du Pays de Vaud #4, La Sarraz", "date": {"mer. 03.09.2014": {"year": 2014, "day": 3, "month": 9, "categories": {"D-Sen2": {"distance": 9, "rank": 26, "pace": 323000000000, "time": 2749.5}}, "weekday": "wednesday", "livingplace": "Blonay"}}, "location": "Chavornay"}, "Tour du Pays de Vaud printanier #3 - Yens": {"latitude": 46.7829756, "longitude": 6.5728678, "race": "Tour du Pays de Vaud printanier #3 - Yens", "date": {"mer. 18.06.2014": {"year": 2014, "day": 18, "month": 6, "categories": {"D-Sen2": {"distance": 9, "rank": 13, "pace": 345000000000, "time": 3142.1}}, "weekday": "wednesday", "livingplace": "Blonay"}}, "location": "Champvent"}, "Tour du Pays de Vaud #2, Mezi\u00e8res": {"latitude": 46.5955273, "longitude": 6.7702883, "race": "Tour du Pays de Vaud #2, Mezi\u00e8res", "date": {"mer. 20.08.2014": {"year": 2014, "day": 20, "month": 8, "categories": {"D-Sen2": {"distance": 8, "rank": 20, "pace": 359000000000, "time": 2912.2}}, "weekday": "wednesday", "livingplace": "Blonay"}}, "location": "M\u00e9zi\u00e8res VD"}, "Morat-Fribourg": {"latitude": 46.92922110000001, "longitude": 7.120184, "race": "Morat-Fribourg", "date": {"sam. 03.10.2015": {"year": 2015, "day": 3, "month": 10, "categories": {"17-W50": {"distance": 17, "rank": 58, "pace": 343000000000, "time": 5904.0}}, "weekday": "saturday", "livingplace": "Blonay"}, "sam. 04.10.2014": {"year": 2014, "day": 4, "month": 10, "categories": {"8-JoggF": {"distance": 9, "rank": 39, "pace": 307000000000, "time": 2668.9}}, "weekday": "saturday", "livingplace": "Blonay"}}, "location": "Murten"}, "20km de Lausanne": {"latitude": 46.5196535, "longitude": 6.6322734, "race": "20km de Lausanne", "date": {"sam. 25.04.2015": {"year": 2015, "day": 25, "month": 4, "categories": {"10-F50": {"distance": 10, "rank": 10, "pace": 305000000000, "time": 3057.2}}, "weekday": "saturday", "livingplace": "Blonay"}, "sam. 26.04.2014": {"year": 2014, "day": 26, "month": 4, "categories": {"10-F45": {"distance": 10, "rank": 99, "pace": 348000000000, "time": 3487.3}}, "weekday": "saturday", "livingplace": "Blonay"}}, "location": "Lausanne"}, "Tour du Pays de Vaud #3, Chavornay": {"latitude": 46.7784736, "longitude": 6.641183, "race": "Tour du Pays de Vaud #3, Chavornay", "date": {"mer. 27.08.2014": {"year": 2014, "day": 27, "month": 8, "categories": {"D-Sen2": {"distance": 9, "rank": 26, "pace": 344000000000, "time": 2960.4}}, "weekday": "wednesday", "livingplace": "Blonay"}}, "location": "Yverdon-les-Bains"}}, "birth": 1965}