{"name": "Mottas Nicolas", "sex": "M", "races": {"Groupe E Tour Fribourg #1 Gurmels": {"latitude": 46.81832, "longitude": 6.977279999999999, "race": "Groupe E Tour Fribourg #1 Gurmels", "date": {"mer. 29.08.2012": {"year": 2012, "day": 29, "month": 8, "categories": {"HE": {"distance": 8, "rank": 24, "pace": 321000000000, "time": 2700.0}}, "weekday": "wednesday", "livingplace": "Cottens"}}, "location": "Cousset"}, "Morat-Fribourg": {"latitude": 46.92922110000001, "longitude": 7.120184, "race": "Morat-Fribourg", "date": {"sam. 06.10.2012": {"year": 2012, "day": 6, "month": 10, "categories": {"17-M20": {"distance": 17, "rank": 1424, "pace": 327000000000, "time": 5708.3}}, "weekday": "saturday", "livingplace": "Cottens"}, "sam. 03.10.2015": {"year": 2015, "day": 3, "month": 10, "categories": {"17-M20": {"distance": 17, "rank": 1904, "pace": 356000000000, "time": 6121.7}}, "weekday": "saturday", "livingplace": "Cottens"}, "sam. 05.10.2013": {"year": 2013, "day": 5, "month": 10, "categories": {"17-M20": {"distance": 17, "rank": 1229, "pace": 302000000000, "time": 5279.8}}, "weekday": "saturday", "livingplace": "Cottens"}, "sam. 02.10.2010": {"year": 2010, "day": 2, "month": 10, "categories": {"17-M20": {"distance": 17, "rank": 1596, "pace": 349000000000, "time": 5995.9}}, "weekday": "saturday", "livingplace": "Cottens"}, "sam. 01.10.2011": {"year": 2011, "day": 1, "month": 10, "categories": {"17-M20": {"distance": 17, "rank": 1502, "pace": 338000000000, "time": 5814.3}}, "weekday": "saturday", "livingplace": "Cottens"}, "sam. 04.10.2014": {"year": 2014, "day": 4, "month": 10, "categories": {"17-M20": {"distance": 17, "rank": 1933, "pace": 359000000000, "time": 6165.5}}, "weekday": "saturday", "livingplace": "Cottens"}}, "location": "Murten"}, "Corrida Bulloise, Bulle": {"latitude": 46.6154512, "longitude": 7.057726799999999, "race": "Corrida Bulloise, Bulle", "date": {"sam. 19.11.2011": {"year": 2011, "day": 19, "month": 11, "categories": {"PH": {"distance": 6, "rank": 269, "pace": 296000000000, "time": 1821.5}}, "weekday": "saturday", "livingplace": "Cottens"}}, "location": "Bulle"}, "Groupe E Tour Fribourg #3 Estavayer-le-Lac": {"latitude": 46.97488999999999, "longitude": 7.1954365, "race": "Groupe E Tour Fribourg #3 Estavayer-le-Lac", "date": {"mer. 12.09.2012": {"year": 2012, "day": 12, "month": 9, "categories": {"HE": {"distance": 10, "rank": 25, "pace": 282000000000, "time": 2785.0}}, "weekday": "wednesday", "livingplace": "Cottens"}}, "location": "Kerzers"}, "Groupe E Tour Fribourg #4 Montagny": {"latitude": 46.6585092, "longitude": 6.877722, "race": "Groupe E Tour Fribourg #4 Montagny", "date": {"mer. 11.09.2013": {"year": 2013, "day": 11, "month": 9, "categories": {"HE": {"distance": 10, "rank": 34, "pace": 301000000000, "time": 2957.5}}, "weekday": "wednesday", "livingplace": "Cottens"}}, "location": "Siviriez"}, "Groupe E Tour Fribourg #4 Siviriez": {"latitude": 46.6585092, "longitude": 6.877722, "race": "Groupe E Tour Fribourg #4 Siviriez", "date": {"mer. 19.09.2012": {"year": 2012, "day": 19, "month": 9, "categories": {"HE": {"distance": 9, "rank": 26, "pace": 311000000000, "time": 2926.8}}, "weekday": "wednesday", "livingplace": "Cottens"}}, "location": "Siviriez"}, "Lausanne Marathon": {"latitude": 46.5196535, "longitude": 6.6322734, "race": "Lausanne Marathon", "date": {"sam. 24.10.2015": {"year": 2015, "day": 24, "month": 10, "categories": {"10-H30": {"distance": 10, "rank": 384, "pace": 291000000000, "time": 2917.5}}, "weekday": "saturday", "livingplace": "Cottens"}}, "location": "Lausanne"}, "Groupe E Tour Fribourg #5 Fribourg": {"latitude": 46.8128615, "longitude": 7.131657799999999, "race": "Groupe E Tour Fribourg #5 Fribourg", "date": {"mer. 18.09.2013": {"year": 2013, "day": 18, "month": 9, "categories": {"HE": {"distance": 10, "rank": 30, "pace": 287000000000, "time": 2873.0}}, "weekday": "wednesday", "livingplace": "Cottens"}, "mer. 26.09.2012": {"year": 2012, "day": 26, "month": 9, "categories": {"HE": {"distance": 11, "rank": 27, "pace": 299000000000, "time": 3204.0}}, "weekday": "wednesday", "livingplace": "Cottens"}}, "location": "Givisiez"}, "Groupe E Tour Fribourg #3 Charmey": {"latitude": 46.97488999999999, "longitude": 7.1954365, "race": "Groupe E Tour Fribourg #3 Charmey", "date": {"mer. 04.09.2013": {"year": 2013, "day": 4, "month": 9, "categories": {"HE": {"distance": 11, "rank": 34, "pace": 324000000000, "time": 3532.3}}, "weekday": "wednesday", "livingplace": "Cottens"}}, "location": "Kerzers"}, "Groupe E Tour Fribourg #1 Siviriez": {"latitude": 46.81832, "longitude": 6.977279999999999, "race": "Groupe E Tour Fribourg #1 Siviriez", "date": {"mer. 21.08.2013": {"year": 2013, "day": 21, "month": 8, "categories": {"HE": {"distance": 10, "rank": 28, "pace": 319000000000, "time": 3132.6}}, "weekday": "wednesday", "livingplace": "Cottens"}}, "location": "Cousset"}, "Groupe E Tour Fribourg #2 Plafayon": {"latitude": 46.6175845, "longitude": 7.1654493, "race": "Groupe E Tour Fribourg #2 Plafayon", "date": {"mer. 05.09.2012": {"year": 2012, "day": 5, "month": 9, "categories": {"HE": {"distance": 9, "rank": 16, "pace": 292000000000, "time": 2730.5}}, "weekday": "wednesday", "livingplace": "Cottens"}}, "location": "Charmey (Gruy\u00e8re)"}, "Groupe E Tour Fribourg #2 Kerzers": {"latitude": 46.6175845, "longitude": 7.1654493, "race": "Groupe E Tour Fribourg #2 Kerzers", "date": {"mer. 28.08.2013": {"year": 2013, "day": 28, "month": 8, "categories": {"HE": {"distance": 12, "rank": 28, "pace": 308000000000, "time": 3651.7}}, "weekday": "wednesday", "livingplace": "Cottens"}}, "location": "Charmey (Gruy\u00e8re)"}}, "birth": 1984}