{"name": "Moulin Lantz Armelle", "sex": "F", "races": {"Lucerne Marathon, Luzern": {"latitude": 47.05016819999999, "longitude": 8.3093072, "race": "Lucerne Marathon, Luzern", "date": {"dim. 31.10.2010": {"year": 2010, "day": 31, "month": 10, "categories": {"H-F30": {"distance": 21, "rank": 29, "pace": 279000000000, "time": 5897.5}}, "weekday": "sunday", "livingplace": "Adliswil"}}, "location": "Luzern"}, "Pfingstlauf Wohlen AG": {"latitude": 47.3493653, "longitude": 8.2768762, "race": "Pfingstlauf Wohlen AG", "date": {"sam. 11.06.2011": {"year": 2011, "day": 11, "month": 6, "categories": {"8-10-F30": {"distance": 10, "rank": 2, "pace": 258000000000, "time": 2588.8}}, "weekday": "saturday", "livingplace": "Adliswil"}}, "location": "Wohlen AG"}, "SwissCityMarathon - Lucerne, Luzern": {"latitude": 47.05016819999999, "longitude": 8.3093072, "race": "SwissCityMarathon - Lucerne, Luzern", "date": {"dim. 26.10.2014": {"year": 2014, "day": 26, "month": 10, "categories": {"H-F40": {"distance": 21, "rank": 17, "pace": 266000000000, "time": 5616.5}}, "weekday": "sunday", "livingplace": "Thalwil"}}, "location": "Luzern"}, "ASICS Bremgarter Reusslauf": {"latitude": 47.34917739999999, "longitude": 8.3397905, "race": "ASICS Bremgarter Reusslauf", "date": {"sam. 26.02.2011": {"year": 2011, "day": 26, "month": 2, "categories": {"F30": {"distance": 11, "rank": 25, "pace": 255000000000, "time": 2810.2}}, "weekday": "saturday", "livingplace": "Adliswil"}}, "location": "Bremgarten AG"}, "Hallwilerseelauf, Beinwil am See": {"latitude": NaN, "longitude": NaN, "race": "Hallwilerseelauf, Beinwil am See", "date": {"sam. 15.10.2011": {"year": 2011, "day": 15, "month": 10, "categories": {"21-F30": {"distance": 21, "rank": 17, "pace": 268000000000, "time": 5669.7}}, "weekday": "saturday", "livingplace": "Thalwil"}}, "location": "Beinwil am See"}, "Sihltaler Fr\u00fchlingslauf, Gattikon": {"latitude": 47.2949282, "longitude": 8.5644799, "race": "Sihltaler Fr\u00fchlingslauf, Gattikon", "date": {"dim. 01.05.2011": {"year": 2011, "day": 1, "month": 5, "categories": {"10-F30": {"distance": 10, "rank": 4, "pace": 266000000000, "time": 2668.3}}, "weekday": "sunday", "livingplace": "Adliswil"}}, "location": "Gattikon"}, "Z\u00fcrich Marathon, Teamrun und Cityrun": {"latitude": 47.3768866, "longitude": 8.541694, "race": "Z\u00fcrich Marathon, Teamrun und Cityrun", "date": {"dim. 06.04.2014": {"year": 2014, "day": 6, "month": 4, "categories": {"10-W40": {"distance": 10, "rank": 6, "pace": 257000000000, "time": 2524.6}}, "weekday": "sunday", "livingplace": "Thalwil"}}, "location": "Z\u00fcrich"}}, "birth": 1972}