{"name": "Moullet Tamara", "sex": "F", "races": {"Groupe E Tour Fribourg #4, Siviriez": {"latitude": 46.6585092, "longitude": 6.877722, "race": "Groupe E Tour Fribourg #4, Siviriez", "date": {"mer. 10.09.2014": {"year": 2014, "day": 10, "month": 9, "categories": {"D-Dam1": {"distance": 11, "rank": 26, "pace": 399000000000, "time": 4319.7}}, "weekday": "wednesday", "livingplace": "Villarimboud"}}, "location": "Siviriez"}, "SwissCityMarathon - Lucerne, Luzern": {"latitude": 47.05016819999999, "longitude": 8.3093072, "race": "SwissCityMarathon - Lucerne, Luzern", "date": {"dim. 26.10.2014": {"year": 2014, "day": 26, "month": 10, "categories": {"H-F20": {"distance": 21, "rank": 364, "pace": 351000000000, "time": 7410.1}}, "weekday": "sunday", "livingplace": "Villarimboud"}}, "location": "Luzern"}, "Groupe E Tour Fribourg #2, Charmey": {"latitude": 46.6175845, "longitude": 7.1654493, "race": "Groupe E Tour Fribourg #2, Charmey", "date": {"mer. 27.08.2014": {"year": 2014, "day": 27, "month": 8, "categories": {"D-Dam1": {"distance": 10, "rank": 28, "pace": 394000000000, "time": 3802.4}}, "weekday": "wednesday", "livingplace": "Villarimboud"}}, "location": "Charmey (Gruy\u00e8re)"}, "Groupe E Tour Fribourg #3, Kerzers": {"latitude": 46.97488999999999, "longitude": 7.1954365, "race": "Groupe E Tour Fribourg #3, Kerzers", "date": {"mer. 03.09.2014": {"year": 2014, "day": 3, "month": 9, "categories": {"D-Dam1": {"distance": 10, "rank": 22, "pace": 339000000000, "time": 3457.5}}, "weekday": "wednesday", "livingplace": "Villarimboud"}}, "location": "Kerzers"}, "20km de Lausanne": {"latitude": 46.5196535, "longitude": 6.6322734, "race": "20km de Lausanne", "date": {"sam. 26.04.2014": {"year": 2014, "day": 26, "month": 4, "categories": {"10-F20": {"distance": 10, "rank": 470, "pace": 349000000000, "time": 3499.9}}, "weekday": "saturday", "livingplace": "Villarimboud"}}, "location": "Lausanne"}, "Groupe E Tour Fribourg #5, Givisiez": {"latitude": 46.8128615, "longitude": 7.131657799999999, "race": "Groupe E Tour Fribourg #5, Givisiez", "date": {"mer. 17.09.2014": {"year": 2014, "day": 17, "month": 9, "categories": {"D-Dam1": {"distance": 10, "rank": 22, "pace": 352000000000, "time": 3621.5}}, "weekday": "wednesday", "livingplace": "Villarimboud"}}, "location": "Givisiez"}, "Morat-Fribourg": {"latitude": 46.92922110000001, "longitude": 7.120184, "race": "Morat-Fribourg", "date": {"sam. 04.10.2014": {"year": 2014, "day": 4, "month": 10, "categories": {"17-W20": {"distance": 17, "rank": 428, "pace": 368000000000, "time": 6328.8}}, "weekday": "saturday", "livingplace": "Villarimboud"}}, "location": "Murten"}, "Kerzerslauf": {"latitude": 46.97488999999999, "longitude": 7.1954365, "race": "Kerzerslauf", "date": {"sam. 21.03.2015": {"year": 2015, "day": 21, "month": 3, "categories": {"5-F20": {"distance": 5, "rank": 48, "pace": 308000000000, "time": 1542.1}}, "weekday": "saturday", "livingplace": "Villarimboud"}}, "location": "Kerzers"}, "Groupe E Tour Fribourg #1, Cousset": {"latitude": 46.81832, "longitude": 6.977279999999999, "race": "Groupe E Tour Fribourg #1, Cousset", "date": {"mer. 20.08.2014": {"year": 2014, "day": 20, "month": 8, "categories": {"D-Dam1": {"distance": 9, "rank": 33, "pace": 355000000000, "time": 3342.3}}, "weekday": "wednesday", "livingplace": "Villarimboud"}}, "location": "Cousset"}}, "birth": 1988}