{"name": "Moulin Vincent", "sex": "M", "races": {"Tour du Chablais #1 Roche": {"latitude": 46.2957462, "longitude": 6.9916269, "race": "Tour du Chablais #1 Roche", "date": {"mer. 07.04.2010": {"year": 2010, "day": 7, "month": 4, "categories": {"M-Jun": {"distance": 9, "rank": 5, "pace": 230000000000, "time": 2064.8}}, "weekday": "wednesday", "livingplace": "St Gingolph"}}, "location": "Ollon VD"}, "Tour du Chablais #2 Rennaz": {"latitude": 46.3835529, "longitude": 6.854975199999999, "race": "Tour du Chablais #2 Rennaz", "date": {"mer. 04.05.2011": {"year": 2011, "day": 4, "month": 5, "categories": {"M-M20": {"distance": 9, "rank": 39, "pace": 235000000000, "time": 2199.3}}, "weekday": "wednesday", "livingplace": "St Gingolph"}}, "location": "Bouveret"}, "Morat-Fribourg": {"latitude": 46.92922110000001, "longitude": 7.120184, "race": "Morat-Fribourg", "date": {"sam. 06.10.2007": {"year": 2007, "day": 6, "month": 10, "categories": {"C/CadH": {"distance": 17, "rank": 8, "pace": 279000000000, "time": 4802.7}}, "weekday": "saturday", "livingplace": "St Gingolph"}}, "location": "Murten"}, "Tour du Chablais #3 Le Bouveret": {"latitude": 46.1782231, "longitude": 7.0223787, "race": "Tour du Chablais #3 Le Bouveret", "date": {"mer. 11.05.2011": {"year": 2011, "day": 11, "month": 5, "categories": {"M-M20": {"distance": 10, "rank": 37, "pace": 232000000000, "time": 2320.4}}, "weekday": "wednesday", "livingplace": "St Gingolph"}}, "location": "Evionnaz"}, "Tour du Chablais #4 Morgins": {"latitude": NaN, "longitude": NaN, "race": "Tour du Chablais #4 Morgins", "date": {"mer. 18.05.2011": {"year": 2011, "day": 18, "month": 5, "categories": {"M-M20": {"distance": 8, "rank": 28, "pace": 240000000000, "time": 2006.7}}, "weekday": "wednesday", "livingplace": "St Gingolph"}}, "location": "Les Mosses"}, "Sierre-Zinal, Sierre": {"latitude": 46.29413110000001, "longitude": 7.533536199999999, "race": "Sierre-Zinal, Sierre", "date": {"dim. 09.08.2015": {"year": 2015, "day": 9, "month": 8, "categories": {"ElitesHo": {"distance": 31, "rank": 300, "pace": 496000000000, "time": 15384.7}}, "weekday": "sunday", "livingplace": "St Gingolph"}}, "location": "Sierre"}, "Tour du Chablais #1 Lavey": {"latitude": 46.2957462, "longitude": 6.9916269, "race": "Tour du Chablais #1 Lavey", "date": {"mer. 27.04.2011": {"year": 2011, "day": 27, "month": 4, "categories": {"M-M20": {"distance": 9, "rank": 38, "pace": 236000000000, "time": 2131.8}}, "weekday": "wednesday", "livingplace": "St Gingolph"}}, "location": "Ollon VD"}, "Course de l'Escalade, Gen\u00e8ve": {"latitude": 46.2043907, "longitude": 6.1431577, "race": "Course de l'Escalade, Gen\u00e8ve", "date": {"sam. 01.12.2007": {"year": 2007, "day": 1, "month": 12, "categories": {"HCadA": {"distance": 5, "rank": 43, "pace": 229000000000, "time": 1099.0}}, "weekday": "saturday", "livingplace": "St Gingolph"}, "sam. 06.12.2003": {"year": 2003, "day": 6, "month": 12, "categories": {"HEcolA": {"distance": 2, "rank": 207, "pace": 267000000000, "time": 621.4}}, "weekday": "saturday", "livingplace": "Saint Gingolph"}, "sam. 02.12.2006": {"year": 2006, "day": 2, "month": 12, "categories": {"HCadA": {"distance": 5, "rank": 55, "pace": 232000000000, "time": 1109.1}}, "weekday": "saturday", "livingplace": "St Gingolph"}, "sam. 06.12.2008": {"year": 2008, "day": 6, "month": 12, "categories": {"HCadA": {"distance": 5, "rank": 35, "pace": 224000000000, "time": 1075.0}}, "weekday": "saturday", "livingplace": "St Gingolph"}}, "location": "Gen\u00e8ve"}, "Tour du Chablais #2 Bex": {"latitude": 46.3835529, "longitude": 6.854975199999999, "race": "Tour du Chablais #2 Bex", "date": {"mer. 18.04.2012": {"year": 2012, "day": 18, "month": 4, "categories": {"M-M20": {"distance": 8, "rank": 38, "pace": 235000000000, "time": 1882.9}}, "weekday": "wednesday", "livingplace": "St Gingolph"}}, "location": "Bouveret"}, "Tour du Chablais #1 Montreux": {"latitude": 46.2957462, "longitude": 6.9916269, "race": "Tour du Chablais #1 Montreux", "date": {"mer. 11.04.2012": {"year": 2012, "day": 11, "month": 4, "categories": {"M-M20": {"distance": 8, "rank": 34, "pace": 236000000000, "time": 1800.4}}, "weekday": "wednesday", "livingplace": "St Gingolph"}}, "location": "Ollon VD"}, "Tour du Chablais #5 Les Mosses": {"latitude": 46.3603257, "longitude": 6.931504599999999, "race": "Tour du Chablais #5 Les Mosses", "date": {"mer. 25.05.2011": {"year": 2011, "day": 25, "month": 5, "categories": {"M-M20": {"distance": 8, "rank": 28, "pace": 245000000000, "time": 1964.0}}, "weekday": "wednesday", "livingplace": "St Gingolph"}}, "location": "Roche VD"}, "Tour du Chablais #6 Aigle": {"latitude": 46.3190253, "longitude": 6.970566, "race": "Tour du Chablais #6 Aigle", "date": {"mer. 01.06.2011": {"year": 2011, "day": 1, "month": 6, "categories": {"M-M20": {"distance": 10, "rank": 28, "pace": 222000000000, "time": 2273.6}}, "weekday": "wednesday", "livingplace": "St Gingolph"}}, "location": "Aigle"}, "Tour du Chablais #2 St-Gingolph": {"latitude": 46.3835529, "longitude": 6.854975199999999, "race": "Tour du Chablais #2 St-Gingolph", "date": {"mer. 14.04.2010": {"year": 2010, "day": 14, "month": 4, "categories": {"M-Jun": {"distance": 8, "rank": 10, "pace": 252000000000, "time": 2112.4}}, "weekday": "wednesday", "livingplace": "St Gingolph"}}, "location": "Bouveret"}, "Internationaler Matterhornlauf, Zermatt": {"latitude": NaN, "longitude": NaN, "race": "Internationaler Matterhornlauf, Zermatt", "date": {"sam. 19.08.2006": {"year": 2006, "day": 19, "month": 8, "categories": {"MHL/MJun": {"distance": 12, "rank": 10, "pace": 465000000000, "time": 5725.5}}, "weekday": "saturday", "livingplace": "St Gingolph"}}, "location": "Zermatt"}}, "birth": 1991}