{"name": "Mouquin Eve", "sex": "F", "races": {"Tour du Pays de Vaud #2 - Genolier": {"latitude": 46.5955273, "longitude": 6.7702883, "race": "Tour du Pays de Vaud #2 - Genolier", "date": {"mer. 18.08.2010": {"year": 2010, "day": 18, "month": 8, "categories": {"Dam": {"distance": 8, "rank": 8, "pace": 314000000000, "time": 2548.6}}, "weekday": "wednesday", "livingplace": "Orient"}}, "location": "M\u00e9zi\u00e8res VD"}, "Tour du Pays de Vaud etape 1 - Le Mont sur Lausanne": {"latitude": 46.7784736, "longitude": 6.641183, "race": "Tour du Pays de Vaud etape 1 - Le Mont sur Lausanne", "date": {"mer. 12.08.2009": {"year": 2009, "day": 12, "month": 8, "categories": {"Dam": {"distance": 9, "rank": 12, "pace": 329000000000, "time": 3063.4}}, "weekday": "wednesday", "livingplace": "Orient"}}, "location": "Yverdon-les-Bains"}, "20km de Lausanne": {"latitude": 46.5196535, "longitude": 6.6322734, "race": "20km de Lausanne", "date": {"sam. 30.04.2011": {"year": 2011, "day": 30, "month": 4, "categories": {"10-F30": {"distance": 10, "rank": 41, "pace": 292000000000, "time": 2927.3}}, "weekday": "saturday", "livingplace": "Footing Vallee de Joux 10"}, "sam. 24.04.2010": {"year": 2010, "day": 24, "month": 4, "categories": {"10-F20": {"distance": 10, "rank": 32, "pace": 292000000000, "time": 2925.6}}, "weekday": "saturday", "livingplace": "Orient"}, "sam. 25.04.2009": {"year": 2009, "day": 25, "month": 4, "categories": {"10-F20": {"distance": 10, "rank": 49, "pace": 300000000000, "time": 3004.4}}, "weekday": "saturday", "livingplace": "Orient"}}, "location": "Lausanne"}, "Les Traine-Savates, Cheseaux-sur-Lausanne": {"latitude": 46.585452, "longitude": 6.6047712, "race": "Les Traine-Savates, Cheseaux-sur-Lausanne", "date": {"sam. 10.04.2010": {"year": 2010, "day": 10, "month": 4, "categories": {"DamSen": {"distance": 10, "rank": 30, "pace": 292000000000, "time": 3047.0}}, "weekday": "saturday", "livingplace": "Orient"}}, "location": "Cheseaux-sur-Lausanne"}, "Tour du Pays de Vaud #5 - La Sarraz": {"latitude": 46.5993131, "longitude": 6.539251200000001, "race": "Tour du Pays de Vaud #5 - La Sarraz", "date": {"mer. 08.09.2010": {"year": 2010, "day": 8, "month": 9, "categories": {"Dam": {"distance": 9, "rank": 9, "pace": 306000000000, "time": 2791.7}}, "weekday": "wednesday", "livingplace": "Orient"}}, "location": "Penthaz"}}, "birth": 1981}