{"name": "Mourot Lucas", "sex": "M", "races": {"Morat-Fribourg": {"latitude": 46.92922110000001, "longitude": 7.120184, "race": "Morat-Fribourg", "date": {"sam. 05.10.2013": {"year": 2013, "day": 5, "month": 10, "categories": {"17-M20": {"distance": 17, "rank": 1183, "pace": 300000000000, "time": 5243.6}}, "weekday": "saturday", "livingplace": "Cortaillod"}, "sam. 06.10.2012": {"year": 2012, "day": 6, "month": 10, "categories": {"17-M20": {"distance": 17, "rank": 1129, "pace": 307000000000, "time": 5369.6}}, "weekday": "saturday", "livingplace": "Cortaillod"}, "sam. 04.10.2014": {"year": 2014, "day": 4, "month": 10, "categories": {"17-M20": {"distance": 17, "rank": 839, "pace": 294000000000, "time": 5050.4}}, "weekday": "saturday", "livingplace": "Neuchatel"}}, "location": "Murten"}, "BCN Tour Les Ponts-de-Martel": {"latitude": 46.999113, "longitude": 6.733554799999999, "race": "BCN Tour Les Ponts-de-Martel", "date": {"mer. 09.05.2012": {"year": 2012, "day": 9, "month": 5, "categories": {"HE": {"distance": 10, "rank": 202, "pace": 335000000000, "time": 3453.6}}, "weekday": "wednesday", "livingplace": "Cortaillod"}}, "location": "Les Ponts-de-Martel"}, "20km de Lausanne": {"latitude": 46.5196535, "longitude": 6.6322734, "race": "20km de Lausanne", "date": {"sam. 27.04.2013": {"year": 2013, "day": 27, "month": 4, "categories": {"20-H30": {"distance": 20, "rank": 439, "pace": 290000000000, "time": 5819.1}}, "weekday": "saturday", "livingplace": "Cortaillod"}, "sam. 25.04.2015": {"year": 2015, "day": 25, "month": 4, "categories": {"20-H30": {"distance": 20, "rank": 348, "pace": 277000000000, "time": 5559.4}}, "weekday": "saturday", "livingplace": "Neuchatel"}, "sam. 26.04.2014": {"year": 2014, "day": 26, "month": 4, "categories": {"20-H30": {"distance": 20, "rank": 285, "pace": 280000000000, "time": 5614.4}}, "weekday": "saturday", "livingplace": "Neuchatel"}}, "location": "Lausanne"}, "BCN Tour #1 Corcelles": {"latitude": 46.9668714, "longitude": 6.8589727, "race": "BCN Tour #1 Corcelles", "date": {"mer. 24.04.2013": {"year": 2013, "day": 24, "month": 4, "categories": {"HS1": {"distance": 10, "rank": 124, "pace": 290000000000, "time": 2849.0}}, "weekday": "wednesday", "livingplace": "Cortaillod"}}, "location": "Colombier NE"}, "Aletsch-Halbmarathon, Bettmeralp": {"latitude": NaN, "longitude": NaN, "race": "Aletsch-Halbmarathon, Bettmeralp", "date": {"dim. 24.06.2012": {"year": 2012, "day": 24, "month": 6, "categories": {"M20": {"distance": 21, "rank": 112, "pace": 481000000000, "time": 10195.1}}, "weekday": "sunday", "livingplace": "Cortaillod"}, "dim. 28.06.2015": {"year": 2015, "day": 28, "month": 6, "categories": {"M20": {"distance": 21, "rank": 200, "pace": 433000000000, "time": 9149.4}}, "weekday": "sunday", "livingplace": "Neuchatel"}, "dim. 29.06.2014": {"year": 2014, "day": 29, "month": 6, "categories": {"M20": {"distance": 13, "rank": 184, "pace": 362000000000, "time": 4818.7}}, "weekday": "sunday", "livingplace": "Neuchatel"}}, "location": "Bettmeralp"}, "BCN Tour #4 Fleurier": {"latitude": 47.1034892, "longitude": 6.832783800000001, "race": "BCN Tour #4 Fleurier", "date": {"mer. 15.05.2013": {"year": 2013, "day": 15, "month": 5, "categories": {"HS1": {"distance": 9, "rank": 146, "pace": 299000000000, "time": 2589.2}}, "weekday": "wednesday", "livingplace": "Cortaillod"}}, "location": "La Chaux-de-Fonds"}, "Kerzerslauf": {"latitude": 46.97488999999999, "longitude": 7.1954365, "race": "Kerzerslauf", "date": {"sam. 16.03.2013": {"year": 2013, "day": 16, "month": 3, "categories": {"15-M20": {"distance": 15, "rank": 406, "pace": 305000000000, "time": 4585.6}}, "weekday": "saturday", "livingplace": "Cortaillod"}}, "location": "Kerzers"}, "BCN Tour #2 La Chaux-de-Fonds": {"latitude": 47.0624261, "longitude": 6.9175754, "race": "BCN Tour #2 La Chaux-de-Fonds", "date": {"mer. 01.05.2013": {"year": 2013, "day": 1, "month": 5, "categories": {"HS1": {"distance": 11, "rank": 160, "pace": 291000000000, "time": 3114.8}}, "weekday": "wednesday", "livingplace": "Cortaillod"}}, "location": "Ch\u00e9zard-St-Martin"}, "BCN Tour La Chaux-de-Fonds": {"latitude": 46.9262933, "longitude": 6.6324944, "race": "BCN Tour La Chaux-de-Fonds", "date": {"mer. 23.05.2012": {"year": 2012, "day": 23, "month": 5, "categories": {"HE": {"distance": 11, "rank": 184, "pace": 326000000000, "time": 3526.8}}, "weekday": "wednesday", "livingplace": "Cortaillod"}}, "location": "Couvet"}, "BCN Tour #6 Neuch\u00e2tel": {"latitude": 46.9899874, "longitude": 6.9292732, "race": "BCN Tour #6 Neuch\u00e2tel", "date": {"mer. 29.05.2013": {"year": 2013, "day": 29, "month": 5, "categories": {"HS1": {"distance": 11, "rank": 134, "pace": 301000000000, "time": 3317.9}}, "weekday": "wednesday", "livingplace": "Cortaillod"}}, "location": "Neuch\u00e2tel"}, "La Trotteuse-Tissot, La Chaux-de-Fonds": {"latitude": 47.1034892, "longitude": 6.832783800000001, "race": "La Trotteuse-Tissot, La Chaux-de-Fonds", "date": {"sam. 08.12.2012": {"year": 2012, "day": 8, "month": 12, "categories": {"GC-H20": {"distance": 8, "rank": 55, "pace": 306000000000, "time": 2455.8}}, "weekday": "saturday", "livingplace": "Cortaillod"}}, "location": "La Chaux-de-Fonds"}, "BCN Tour Neuch\u00e2tel": {"latitude": 46.9899874, "longitude": 6.9292732, "race": "BCN Tour Neuch\u00e2tel", "date": {"mer. 30.05.2012": {"year": 2012, "day": 30, "month": 5, "categories": {"HE": {"distance": 11, "rank": 199, "pace": 337000000000, "time": 3783.2}}, "weekday": "wednesday", "livingplace": "Cortaillod"}}, "location": "Neuch\u00e2tel"}, "Lausanne Marathon": {"latitude": 46.5196535, "longitude": 6.6322734, "race": "Lausanne Marathon", "date": {"dim. 27.10.2013": {"year": 2013, "day": 27, "month": 10, "categories": {"21-H2": {"distance": 21, "rank": 278, "pace": 286000000000, "time": 6047.8}}, "weekday": "sunday", "livingplace": "Cortaillod"}}, "location": "Lausanne"}, "BCN Tour #5 Colombier": {"latitude": 46.9262933, "longitude": 6.6324944, "race": "BCN Tour #5 Colombier", "date": {"mer. 22.05.2013": {"year": 2013, "day": 22, "month": 5, "categories": {"HS1": {"distance": 11, "rank": 146, "pace": 273000000000, "time": 2875.3}}, "weekday": "wednesday", "livingplace": "Cortaillod"}}, "location": "Couvet"}, "BCN Tour #3 Dombresson": {"latitude": 46.999113, "longitude": 6.733554799999999, "race": "BCN Tour #3 Dombresson", "date": {"mer. 08.05.2013": {"year": 2013, "day": 8, "month": 5, "categories": {"HS1": {"distance": 10, "rank": 164, "pace": 289000000000, "time": 2863.0}}, "weekday": "wednesday", "livingplace": "Cortaillod"}}, "location": "Les Ponts-de-Martel"}, "BCN Tour Colombier": {"latitude": 47.1034892, "longitude": 6.832783800000001, "race": "BCN Tour Colombier", "date": {"mer. 16.05.2012": {"year": 2012, "day": 16, "month": 5, "categories": {"HE": {"distance": 11, "rank": 184, "pace": 313000000000, "time": 3384.8}}, "weekday": "wednesday", "livingplace": "Cortaillod"}}, "location": "La Chaux-de-Fonds"}, "Course p\u00e9destre Thyon-Dixence, Thyon": {"latitude": NaN, "longitude": NaN, "race": "Course p\u00e9destre Thyon-Dixence, Thyon", "date": {"dim. 05.08.2012": {"year": 2012, "day": 5, "month": 8, "categories": {"HomElite": {"distance": 16, "rank": 112, "pace": 488000000000, "time": 7990.3}}, "weekday": "sunday", "livingplace": "Cortaillod"}}, "location": "Thyon-Les Collons"}}, "birth": 1983}