{"name": "Mozzon Jean-Marie", "sex": "M", "races": {"Tour du Pays de Vaud #1, Penthaz": {"latitude": 46.5993131, "longitude": 6.539251200000001, "race": "Tour du Pays de Vaud #1, Penthaz", "date": {"mer. 13.08.2014": {"year": 2014, "day": 13, "month": 8, "categories": {"H-Sen2": {"distance": 9, "rank": 54, "pace": 269000000000, "time": 2297.3}}, "weekday": "wednesday", "livingplace": "Le Sentier"}}, "location": "Penthaz"}, "Morat-Fribourg": {"latitude": 46.92922110000001, "longitude": 7.120184, "race": "Morat-Fribourg", "date": {"sam. 04.10.2014": {"year": 2014, "day": 4, "month": 10, "categories": {"17-M45": {"distance": 17, "rank": 91, "pace": 272000000000, "time": 4678.1}}, "weekday": "saturday", "livingplace": "Le Sentier"}}, "location": "Murten"}, "Tour du Pays de Vaud #2, Mezi\u00e8res": {"latitude": 46.5955273, "longitude": 6.7702883, "race": "Tour du Pays de Vaud #2, Mezi\u00e8res", "date": {"mer. 20.08.2014": {"year": 2014, "day": 20, "month": 8, "categories": {"H-Sen2": {"distance": 8, "rank": 89, "pace": 346000000000, "time": 2809.0}}, "weekday": "wednesday", "livingplace": "Le Sentier"}}, "location": "M\u00e9zi\u00e8res VD"}, "Lausanne Marathon": {"latitude": 46.5196535, "longitude": 6.6322734, "race": "Lausanne Marathon", "date": {"dim. 26.10.2014": {"year": 2014, "day": 26, "month": 10, "categories": {"21-H40": {"distance": 21, "rank": 94, "pace": 267000000000, "time": 5640.2}}, "weekday": "sunday", "livingplace": "Le Sentier"}}, "location": "Lausanne"}, "Tour du Pays de Vaud #4, La Sarraz": {"latitude": 46.7088129, "longitude": 6.5707689, "race": "Tour du Pays de Vaud #4, La Sarraz", "date": {"mer. 03.09.2014": {"year": 2014, "day": 3, "month": 9, "categories": {"H-Sen2": {"distance": 9, "rank": 35, "pace": 267000000000, "time": 2277.5}}, "weekday": "wednesday", "livingplace": "Le Sentier"}}, "location": "Chavornay"}, "Tour du Pays de Vaud #3, Chavornay": {"latitude": 46.7784736, "longitude": 6.641183, "race": "Tour du Pays de Vaud #3, Chavornay", "date": {"mer. 27.08.2014": {"year": 2014, "day": 27, "month": 8, "categories": {"H-Sen2": {"distance": 9, "rank": 44, "pace": 279000000000, "time": 2404.9}}, "weekday": "wednesday", "livingplace": "Le Sentier"}}, "location": "Yverdon-les-Bains"}}, "birth": 1968}