{"name": "Mroczek Flavien", "sex": "M", "races": {"Tour du Chablais #1 Roche": {"latitude": 46.2957462, "longitude": 6.9916269, "race": "Tour du Chablais #1 Roche", "date": {"mer. 03.04.2013": {"year": 2013, "day": 3, "month": 4, "categories": {"M-Jun": {"distance": 9, "rank": 4, "pace": 252000000000, "time": 2235.5}}, "weekday": "wednesday", "livingplace": "Vevey"}}, "location": "Ollon VD"}, "Tour du Chablais #6 Monthey": {"latitude": 46.3190253, "longitude": 6.970566, "race": "Tour du Chablais #6 Monthey", "date": {"mer. 08.05.2013": {"year": 2013, "day": 8, "month": 5, "categories": {"M-Jun": {"distance": 9, "rank": 10, "pace": 256000000000, "time": 2391.1}}, "weekday": "wednesday", "livingplace": "Vevey"}}, "location": "Aigle"}, "20km de Lausanne": {"latitude": 46.5196535, "longitude": 6.6322734, "race": "20km de Lausanne", "date": {"sam. 30.04.2011": {"year": 2011, "day": 30, "month": 4, "categories": {"10-Hesp": {"distance": 10, "rank": 172, "pace": 315000000000, "time": 3159.8}}, "weekday": "saturday", "livingplace": "Vevey"}}, "location": "Lausanne"}, "Tour du Chablais #4 St  Maurice": {"latitude": NaN, "longitude": NaN, "race": "Tour du Chablais #4 St  Maurice", "date": {"mer. 24.04.2013": {"year": 2013, "day": 24, "month": 4, "categories": {"M-Jun": {"distance": 10, "rank": 12, "pace": 271000000000, "time": 2714.2}}, "weekday": "wednesday", "livingplace": "Vevey"}}, "location": "Les Mosses"}, "Tour du Chablais #2 Yvorne": {"latitude": 46.3835529, "longitude": 6.854975199999999, "race": "Tour du Chablais #2 Yvorne", "date": {"mer. 10.04.2013": {"year": 2013, "day": 10, "month": 4, "categories": {"M-Jun": {"distance": 8, "rank": 5, "pace": 283000000000, "time": 2264.4}}, "weekday": "wednesday", "livingplace": "Vevey"}}, "location": "Bouveret"}, "Tour du Chablais #3 Bouveret": {"latitude": 46.1782231, "longitude": 7.0223787, "race": "Tour du Chablais #3 Bouveret", "date": {"mer. 17.04.2013": {"year": 2013, "day": 17, "month": 4, "categories": {"M-Jun": {"distance": 10, "rank": 6, "pace": 273000000000, "time": 2733.7}}, "weekday": "wednesday", "livingplace": "Vevey"}}, "location": "Evionnaz"}, "Tour du Chablais #5 Morgins": {"latitude": 46.3603257, "longitude": 6.931504599999999, "race": "Tour du Chablais #5 Morgins", "date": {"mer. 01.05.2013": {"year": 2013, "day": 1, "month": 5, "categories": {"M-Jun": {"distance": 8, "rank": 8, "pace": 274000000000, "time": 2086.8}}, "weekday": "wednesday", "livingplace": "Vevey"}}, "location": "Roche VD"}}, "birth": 1994}