{"name": "Muenstermann Didi", "sex": "M", "races": {"Bl\u00fcemlisalp-Lauf, Reichenbach": {"latitude": 46.6254387, "longitude": 7.6940529, "race": "Bl\u00fcemlisalp-Lauf, Reichenbach", "date": {"dim. 29.05.2011": {"year": 2011, "day": 29, "month": 5, "categories": {"M40": {"distance": 16, "rank": 83, "pace": 376000000000, "time": 6064.4}}, "weekday": "sunday", "livingplace": "Bern"}}, "location": "Reichenbach im Kandertal"}, "ASICS Bremgarter Reusslauf": {"latitude": 47.34917739999999, "longitude": 8.3397905, "race": "ASICS Bremgarter Reusslauf", "date": {"sam. 25.02.2012": {"year": 2012, "day": 25, "month": 2, "categories": {"M40": {"distance": 11, "rank": 239, "pace": 259000000000, "time": 2857.2}}, "weekday": "saturday", "livingplace": "Bern"}}, "location": "Bremgarten AG"}, "10km, Payerne": {"latitude": 46.8220266, "longitude": 6.9405663, "race": "10km, Payerne", "date": {"sam. 10.03.2012": {"year": 2012, "day": 10, "month": 3, "categories": {"M40": {"distance": 10, "rank": 42, "pace": 254000000000, "time": 2549.4}}, "weekday": "saturday", "livingplace": "Bern"}}, "location": "Payerne"}, "10km Schweizer Meisterschaften Lyss": {"latitude": 47.0746504, "longitude": 7.3077022, "race": "10km Schweizer Meisterschaften Lyss", "date": {"sam. 02.04.2011": {"year": 2011, "day": 2, "month": 4, "categories": {"10-M40": {"distance": 10, "rank": 32, "pace": 260000000000, "time": 2605.3}}, "weekday": "saturday", "livingplace": "Bern"}, "sam. 31.03.2012": {"year": 2012, "day": 31, "month": 3, "categories": {"10-M40": {"distance": 10, "rank": 42, "pace": 256000000000, "time": 2563.8}}, "weekday": "saturday", "livingplace": "Bern"}}, "location": "Lyss"}, "Gurtenclassic, Wabern": {"latitude": 46.92901639999999, "longitude": 7.448973199999999, "race": "Gurtenclassic, Wabern", "date": {"dim. 06.11.2011": {"year": 2011, "day": 6, "month": 11, "categories": {"M40": {"distance": 15, "rank": 71, "pace": 322000000000, "time": 4836.9}}, "weekday": "sunday", "livingplace": "Bern"}, "dim. 07.11.2010": {"year": 2010, "day": 7, "month": 11, "categories": {"M40": {"distance": 16, "rank": 49, "pace": 299000000000, "time": 4819.5}}, "weekday": "sunday", "livingplace": "Bern"}}, "location": "Wabern"}, "Kerzerslauf": {"latitude": 46.97488999999999, "longitude": 7.1954365, "race": "Kerzerslauf", "date": {"sam. 19.03.2011": {"year": 2011, "day": 19, "month": 3, "categories": {"15-M40": {"distance": 15, "rank": 229, "pace": 276000000000, "time": 4147.3}}, "weekday": "saturday", "livingplace": "Bern"}, "sam. 17.03.2012": {"year": 2012, "day": 17, "month": 3, "categories": {"15-M40": {"distance": 15, "rank": 196, "pace": 273000000000, "time": 4099.1}}, "weekday": "saturday", "livingplace": "Bern"}}, "location": "Kerzers"}, "Z\u00fcrcher Silvesterlauf, Z\u00fcrich": {"latitude": 47.3768866, "longitude": 8.541694, "race": "Z\u00fcrcher Silvesterlauf, Z\u00fcrich", "date": {"dim. 11.12.2011": {"year": 2011, "day": 11, "month": 12, "categories": {"8-MenAK2": {"distance": 9, "rank": 192, "pace": 253000000000, "time": 2179.1}}, "weekday": "sunday", "livingplace": "Bern"}}, "location": "Z\u00fcrich"}}, "birth": 1969}