{"name": "Muller Philippe", "sex": "M", "races": {"Lucerne Marathon, Luzern": {"latitude": 47.05016819999999, "longitude": 8.3093072, "race": "Lucerne Marathon, Luzern", "date": {"dim. 31.10.2010": {"year": 2010, "day": 31, "month": 10, "categories": {"M-M20": {"distance": 42, "rank": 37, "pace": 285000000000, "time": 12053.7}}, "weekday": "sunday", "livingplace": "Baar"}}, "location": "Luzern"}, "M\u00e4nnlichen Halbmarathon, Grindelwald": {"latitude": 46.624164, "longitude": 8.0413962, "race": "M\u00e4nnlichen Halbmarathon, Grindelwald", "date": {"dim. 09.06.2013": {"year": 2013, "day": 9, "month": 6, "categories": {"M30": {"distance": 21, "rank": 29, "pace": 454000000000, "time": 9593.8}}, "weekday": "sunday", "livingplace": "Bottmingen"}}, "location": "Grindelwald"}, "Morat-Fribourg": {"latitude": 46.92922110000001, "longitude": 7.120184, "race": "Morat-Fribourg", "date": {"sam. 04.10.2008": {"year": 2008, "day": 4, "month": 10, "categories": {"C-M20": {"distance": 17, "rank": 216, "pace": 255000000000, "time": 4383.4}}, "weekday": "saturday", "livingplace": "Allschwil"}}, "location": "Murten"}, "Jungfrau-Marathon, Interlaken": {"latitude": NaN, "longitude": NaN, "race": "Jungfrau-Marathon, Interlaken", "date": {"sam. 08.09.2012": {"year": 2012, "day": 8, "month": 9, "categories": {"SO-M20": {"distance": 42, "rank": 411, "pace": 406000000000, "time": 17140.7}}, "weekday": "saturday", "livingplace": "Bottmingen"}}, "location": "Interlaken"}, "Basler Stadtlauf": {"latitude": 47.5595986, "longitude": 7.5885761, "race": "Basler Stadtlauf", "date": {"sam. 29.11.2008": {"year": 2008, "day": 29, "month": 11, "categories": {"M": {"distance": 6, "rank": 88, "pace": 237000000000, "time": 1305.8}}, "weekday": "saturday", "livingplace": "Basel"}, "sam. 27.11.2010": {"year": 2010, "day": 27, "month": 11, "categories": {"M": {"distance": 6, "rank": 80, "pace": 231000000000, "time": 1271.4}}, "weekday": "saturday", "livingplace": "Baar"}}, "location": "Basel"}, "Eiger Ultra Trail, Grindelwald": {"latitude": 46.624164, "longitude": 8.0413962, "race": "Eiger Ultra Trail, Grindelwald", "date": {"sam. 19.07.2014": {"year": 2014, "day": 19, "month": 7, "categories": {"B-H": {"distance": 51, "rank": 17, "pace": 540000000000, "time": 27587.6}}, "weekday": "saturday", "livingplace": "Bottmingen"}}, "location": "Grindelwald"}, "Basel City Marathon": {"latitude": 47.5595986, "longitude": 7.5885761, "race": "Basel City Marathon", "date": {"dim. 03.09.2006": {"year": 2006, "day": 3, "month": 9, "categories": {"M-M20": {"distance": 42, "rank": 12, "pace": 295000000000, "time": 12465.4}}, "weekday": "sunday", "livingplace": "Allschwil"}}, "location": "Basel"}, "Aletsch-Halbmarathon, Bettmeralp": {"latitude": NaN, "longitude": NaN, "race": "Aletsch-Halbmarathon, Bettmeralp", "date": {"dim. 27.06.2010": {"year": 2010, "day": 27, "month": 6, "categories": {"M20": {"distance": 21, "rank": 30, "pace": 401000000000, "time": 8437.1}}, "weekday": "sunday", "livingplace": "Baar"}}, "location": "Bettmeralp"}, "Int Greifenseelauf, Uster": {"latitude": 47.3482747, "longitude": 8.717873899999999, "race": "Int Greifenseelauf, Uster", "date": {"sam. 19.09.2009": {"year": 2009, "day": 19, "month": 9, "categories": {"H-M20": {"distance": 21, "rank": 76, "pace": 265000000000, "time": 5594.7}}, "weekday": "saturday", "livingplace": "Baar"}}, "location": "Uster"}}, "birth": 1981}