{"name": "M\u00fcller Flavia", "sex": "F", "races": {"Glacier 3000 Run, Gstaad": {"latitude": 46.4717588, "longitude": 7.2865728, "race": "Glacier 3000 Run, Gstaad", "date": {"sam. 04.08.2012": {"year": 2012, "day": 4, "month": 8, "categories": {"F30": {"distance": 26, "rank": 27, "pace": 577000000000, "time": 15005.6}}, "weekday": "saturday", "livingplace": "Bern"}, "sam. 10.08.2013": {"year": 2013, "day": 10, "month": 8, "categories": {"F30": {"distance": 26, "rank": 15, "pace": 555000000000, "time": 14436.6}}, "weekday": "saturday", "livingplace": "Bern"}}, "location": "Gstaad"}, "Morat-Fribourg": {"latitude": 46.92922110000001, "longitude": 7.120184, "race": "Morat-Fribourg", "date": {"dim. 06.10.2002": {"year": 2002, "day": 6, "month": 10, "categories": {"W20": {"distance": 17, "rank": 345, "pace": 394000000000, "time": 6779.8}}, "weekday": "sunday", "livingplace": "Bern"}}, "location": "Murten"}, "Aletsch-Halbmarathon, Bettmeralp": {"latitude": NaN, "longitude": NaN, "race": "Aletsch-Halbmarathon, Bettmeralp", "date": {"dim. 26.06.2011": {"year": 2011, "day": 26, "month": 6, "categories": {"F30": {"distance": 21, "rank": 101, "pace": 511000000000, "time": 10745.5}}, "weekday": "sunday", "livingplace": "Bern"}, "dim. 27.06.2010": {"year": 2010, "day": 27, "month": 6, "categories": {"F30": {"distance": 21, "rank": 84, "pace": 517000000000, "time": 10867.2}}, "weekday": "sunday", "livingplace": "Bern"}}, "location": "Bettmeralp"}, "Int Greifenseelauf, Uster": {"latitude": 47.3482747, "longitude": 8.717873899999999, "race": "Int Greifenseelauf, Uster", "date": {"sam. 22.09.2007": {"year": 2007, "day": 22, "month": 9, "categories": {"K/W30": {"distance": 21, "rank": 168, "pace": 349000000000, "time": 7383.4}}, "weekday": "saturday", "livingplace": "Bern"}, "sam. 16.09.2006": {"year": 2006, "day": 16, "month": 9, "categories": {"H/W30": {"distance": 21, "rank": 200, "pace": 348000000000, "time": 7357.0}}, "weekday": "saturday", "livingplace": "Bern"}}, "location": "Uster"}, "Gurtenclassic, Wabern": {"latitude": 46.92901639999999, "longitude": 7.448973199999999, "race": "Gurtenclassic, Wabern", "date": {"dim. 06.11.2005": {"year": 2005, "day": 6, "month": 11, "categories": {"KW20": {"distance": 8, "rank": 70, "pace": 397000000000, "time": 3342.4}}, "weekday": "sunday", "livingplace": "Bern"}}, "location": "Wabern"}, "Kerzerslauf": {"latitude": 46.97488999999999, "longitude": 7.1954365, "race": "Kerzerslauf", "date": {"sam. 17.03.2012": {"year": 2012, "day": 17, "month": 3, "categories": {"5-F20": {"distance": 5, "rank": 43, "pace": 304000000000, "time": 1522.0}}, "weekday": "saturday", "livingplace": "Bern"}}, "location": "Kerzers"}, "Bieler Lauftage, Biel Bienne": {"latitude": 47.1367785, "longitude": 7.2467909, "race": "Bieler Lauftage, Biel Bienne", "date": {"ven. 15.06.2007": {"year": 2007, "day": 15, "month": 6, "categories": {"M/W30": {"distance": 42, "rank": 5, "pace": 411000000000, "time": 17348.4}}, "weekday": "friday", "livingplace": "Bern"}}, "location": "Biel/Bienne"}, "Z\u00fcrich Marathon, Teamrun und Cityrun": {"latitude": 47.3768866, "longitude": 8.541694, "race": "Z\u00fcrich Marathon, Teamrun und Cityrun", "date": {"dim. 26.04.2009": {"year": 2009, "day": 26, "month": 4, "categories": {"W30": {"distance": 42, "rank": 197, "pace": 377000000000, "time": 15922.3}}, "weekday": "sunday", "livingplace": "Bern"}}, "location": "Z\u00fcrich"}}, "birth": 1976}