{"name": "M\u00fcller Selina", "sex": "F", "races": {"Badener Limmat-Lauf, Baden": {"latitude": 48.5699281, "longitude": 8.5303972, "race": "Badener Limmat-Lauf, Baden", "date": {"sam. 29.03.2014": {"year": 2014, "day": 29, "month": 3, "categories": {"F20": {"distance": 13, "rank": 19, "pace": 301000000000, "time": 3969.0}}, "weekday": "saturday", "livingplace": "Mohlin"}}, "location": "Baden"}, "IWB Basel Marathon": {"latitude": 47.5595986, "longitude": 7.5885761, "race": "IWB Basel Marathon", "date": {"dim. 22.09.2013": {"year": 2013, "day": 22, "month": 9, "categories": {"H-21-F20": {"distance": 21, "rank": 41, "pace": 336000000000, "time": 7092.6}}, "weekday": "sunday", "livingplace": "Rheinfelden"}}, "location": "Basel"}, "Schweizer Frauenlauf Bern": {"latitude": 46.9479739, "longitude": 7.4474468, "race": "Schweizer Frauenlauf Bern", "date": {"dim. 15.06.2014": {"year": 2014, "day": 15, "month": 6, "categories": {"10-W20": {"distance": 10, "rank": 87, "pace": 293000000000, "time": 2931.3}}, "weekday": "sunday", "livingplace": "Mohlin"}}, "location": "Bern"}, "Liestaler Stadtlauf": {"latitude": 47.4866143, "longitude": 7.7334272, "race": "Liestaler Stadtlauf", "date": {"mer. 28.08.2013": {"year": 2013, "day": 28, "month": 8, "categories": {"W20": {"distance": 12, "rank": 13, "pace": 347000000000, "time": 4170.5}}, "weekday": "wednesday", "livingplace": "Rheinfelden"}}, "location": "Liestal"}, "Aletsch-Halbmarathon, Bettmeralp": {"latitude": NaN, "longitude": NaN, "race": "Aletsch-Halbmarathon, Bettmeralp", "date": {"dim. 28.06.2015": {"year": 2015, "day": 28, "month": 6, "categories": {"F20": {"distance": 21, "rank": 41, "pace": 438000000000, "time": 9258.3}}, "weekday": "sunday", "livingplace": "Lsvb"}}, "location": "Bettmeralp"}, "Z\u00fcrich Marathon, Teamrun und Cityrun": {"latitude": 47.3768866, "longitude": 8.541694, "race": "Z\u00fcrich Marathon, Teamrun und Cityrun", "date": {"dim. 19.04.2015": {"year": 2015, "day": 19, "month": 4, "categories": {"42-W20": {"distance": 42, "rank": 16, "pace": 309000000000, "time": 13067.0}}, "weekday": "sunday", "livingplace": "Mohlin"}}, "location": "Z\u00fcrich"}}, "birth": 1990}