{"name": "M\u00fcller Valentin", "sex": "M", "races": {"Tour du Pays de Vaud #4 - La Sarraz": {"latitude": 46.7088129, "longitude": 6.5707689, "race": "Tour du Pays de Vaud #4 - La Sarraz", "date": {"mer. 04.09.2013": {"year": 2013, "day": 4, "month": 9, "categories": {"H-Hom": {"distance": 9, "rank": 18, "pace": 242000000000, "time": 2064.6}}, "weekday": "wednesday", "livingplace": "Cossonay Ville"}}, "location": "Chavornay"}, "Tour du Pays de Vaud #2 - Mezi\u00e8res": {"latitude": 46.5955273, "longitude": 6.7702883, "race": "Tour du Pays de Vaud #2 - Mezi\u00e8res", "date": {"mer. 21.08.2013": {"year": 2013, "day": 21, "month": 8, "categories": {"H-Hom": {"distance": 8, "rank": 16, "pace": 257000000000, "time": 2086.5}}, "weekday": "wednesday", "livingplace": "Cossonay Ville"}}, "location": "M\u00e9zi\u00e8res VD"}, "Lausanne Marathon": {"latitude": 46.5196535, "longitude": 6.6322734, "race": "Lausanne Marathon", "date": {"dim. 27.10.2013": {"year": 2013, "day": 27, "month": 10, "categories": {"10-H1": {"distance": 10, "rank": 55, "pace": 234000000000, "time": 2349.1}}, "weekday": "sunday", "livingplace": "Cossonay Ville"}}, "location": "Lausanne"}, "Sierre-Zinal, Sierre": {"latitude": 46.29413110000001, "longitude": 7.533536199999999, "race": "Sierre-Zinal, Sierre", "date": {"dim. 11.08.2013": {"year": 2013, "day": 11, "month": 8, "categories": {"Elites": {"distance": 31, "rank": 185, "pace": 466000000000, "time": 14446.3}}, "weekday": "sunday", "livingplace": "Cossonay Ville"}}, "location": "Sierre"}, "Tour du pays de Vaud #1 - Penthaz": {"latitude": 46.5993131, "longitude": 6.539251200000001, "race": "Tour du pays de Vaud #1 - Penthaz", "date": {"mer. 14.08.2013": {"year": 2013, "day": 14, "month": 8, "categories": {"H-Hom": {"distance": 9, "rank": 16, "pace": 235000000000, "time": 2007.2}}, "weekday": "wednesday", "livingplace": "Cossonay Ville"}}, "location": "Penthaz"}, "Tour du Pays de Vaud #3 - Chavornay": {"latitude": 46.7784736, "longitude": 6.641183, "race": "Tour du Pays de Vaud #3 - Chavornay", "date": {"mer. 28.08.2013": {"year": 2013, "day": 28, "month": 8, "categories": {"H-Hom": {"distance": 9, "rank": 17, "pace": 234000000000, "time": 2087.7}}, "weekday": "wednesday", "livingplace": "Cossonay Ville"}}, "location": "Yverdon-les-Bains"}, "20km de Lausanne": {"latitude": 46.5196535, "longitude": 6.6322734, "race": "20km de Lausanne", "date": {"sam. 27.04.2013": {"year": 2013, "day": 27, "month": 4, "categories": {"10-H20": {"distance": 10, "rank": 29, "pace": 232000000000, "time": 2323.1}}, "weekday": "saturday", "livingplace": "Lausanne"}, "sam. 25.04.2015": {"year": 2015, "day": 25, "month": 4, "categories": {"10-H30": {"distance": 10, "rank": 46, "pace": 242000000000, "time": 2424.6}}, "weekday": "saturday", "livingplace": "Lausanne"}, "sam. 26.04.2014": {"year": 2014, "day": 26, "month": 4, "categories": {"10-H30": {"distance": 10, "rank": 47, "pace": 241000000000, "time": 2413.9}}, "weekday": "saturday", "livingplace": "Lausanne"}}, "location": "Lausanne"}, "Les Traine-Savates, Cheseaux-sur-Lausanne": {"latitude": 46.585452, "longitude": 6.6047712, "race": "Les Traine-Savates, Cheseaux-sur-Lausanne", "date": {"sam. 13.04.2013": {"year": 2013, "day": 13, "month": 4, "categories": {"10-M20": {"distance": 10, "rank": 45, "pace": 245000000000, "time": 2528.5}}, "weekday": "saturday", "livingplace": "Cossonay Ville"}, "sam. 12.04.2014": {"year": 2014, "day": 12, "month": 4, "categories": {"10-M20": {"distance": 10, "rank": 26, "pace": 234000000000, "time": 2412.8}}, "weekday": "saturday", "livingplace": "Cossonay Ville"}}, "location": "Cheseaux-sur-Lausanne"}}, "birth": 1984}