{"name": "M\u00fcller Camille", "sex": "F", "races": {"Tour du Pays de Vaud #4 - La Sarraz": {"latitude": 46.7088129, "longitude": 6.5707689, "race": "Tour du Pays de Vaud #4 - La Sarraz", "date": {"mer. 04.09.2013": {"year": 2013, "day": 4, "month": 9, "categories": {"D-Dam": {"distance": 9, "rank": 43, "pace": 372000000000, "time": 3164.6}}, "weekday": "wednesday", "livingplace": "Cossonay Ville"}}, "location": "Chavornay"}, "Tour du pays de Vaud #6 - St  Prex": {"latitude": 46.4829113, "longitude": 6.458343500000001, "race": "Tour du pays de Vaud #6 - St  Prex", "date": {"mer. 14.09.2011": {"year": 2011, "day": 14, "month": 9, "categories": {"D-Dam": {"distance": 9, "rank": 46, "pace": 385000000000, "time": 3317.8}}, "weekday": "wednesday", "livingplace": "Cossonay Ville"}}, "location": "St-Prex"}, "Tour du Pays de Vaud #3 - Chavornay": {"latitude": 46.7784736, "longitude": 6.641183, "race": "Tour du Pays de Vaud #3 - Chavornay", "date": {"mer. 28.08.2013": {"year": 2013, "day": 28, "month": 8, "categories": {"D-Dam": {"distance": 9, "rank": 30, "pace": 338000000000, "time": 3010.0}}, "weekday": "wednesday", "livingplace": "Cossonay Ville"}}, "location": "Yverdon-les-Bains"}, "Tour du Pays de Vaud #3 - Mezi\u00e8res": {"latitude": 46.7784736, "longitude": 6.641183, "race": "Tour du Pays de Vaud #3 - Mezi\u00e8res", "date": {"mer. 22.08.2012": {"year": 2012, "day": 22, "month": 8, "categories": {"D-Dam": {"distance": 8, "rank": 49, "pace": 401000000000, "time": 3371.5}}, "weekday": "wednesday", "livingplace": "Cossonay Ville"}}, "location": "Yverdon-les-Bains"}, "Tour du pays de Vaud #1 - Penthaz": {"latitude": 46.5993131, "longitude": 6.539251200000001, "race": "Tour du pays de Vaud #1 - Penthaz", "date": {"mer. 14.08.2013": {"year": 2013, "day": 14, "month": 8, "categories": {"D-Dam": {"distance": 9, "rank": 36, "pace": 361000000000, "time": 3080.1}}, "weekday": "wednesday", "livingplace": "Cossonay Ville"}}, "location": "Penthaz"}, "Tour du Pays de Vaud #2 - Mezi\u00e8res": {"latitude": 46.5955273, "longitude": 6.7702883, "race": "Tour du Pays de Vaud #2 - Mezi\u00e8res", "date": {"mer. 21.08.2013": {"year": 2013, "day": 21, "month": 8, "categories": {"D-Dam": {"distance": 8, "rank": 32, "pace": 384000000000, "time": 3114.6}}, "weekday": "wednesday", "livingplace": "Cossonay Ville"}}, "location": "M\u00e9zi\u00e8res VD"}, "Tour du pays de Vaud #1 - Mezi\u00e8res": {"latitude": 46.7784736, "longitude": 6.641183, "race": "Tour du pays de Vaud #1 - Mezi\u00e8res", "date": {"mer. 10.08.2011": {"year": 2011, "day": 10, "month": 8, "categories": {"D-Dam": {"distance": 9, "rank": 28, "pace": 375000000000, "time": 3192.4}}, "weekday": "wednesday", "livingplace": "Cossonay Ville"}}, "location": "Yverdon-les-Bains"}}, "birth": 1984}