{"name": "M\u00fcller Daniel", "sex": "M", "races": {"Schlosslauf Rapperswil-Jona": {"latitude": 47.2266239, "longitude": 8.818437399999999, "race": "Schlosslauf Rapperswil-Jona", "date": {"dim. 07.10.2007": {"year": 2007, "day": 7, "month": 10, "categories": {"M2": {"distance": 9, "rank": 49, "pace": 286000000000, "time": 2584.5}}, "weekday": "sunday", "livingplace": "Rapperswil"}}, "location": "Rapperswil SG"}, "Thuner Stadtlauf, Thun": {"latitude": 46.7579868, "longitude": 7.6279881, "race": "Thuner Stadtlauf, Thun", "date": {"dim. 05.09.2004": {"year": 2004, "day": 5, "month": 9, "categories": {"M30": {"distance": 10, "rank": 15, "pace": 224000000000, "time": 2240.3}}, "weekday": "sunday", "livingplace": "Ostermundigen"}}, "location": "Thun"}, "Z\u00fcrich Marathon, Teamrun und Cityrun": {"latitude": 47.3768866, "longitude": 8.541694, "race": "Z\u00fcrich Marathon, Teamrun und Cityrun", "date": {"dim. 03.04.2005": {"year": 2005, "day": 3, "month": 4, "categories": {"M30": {"distance": 42, "rank": 1086, "pace": 335000000000, "time": 14148.7}}, "weekday": "sunday", "livingplace": "Schlieren"}, "dim. 04.04.2004": {"year": 2004, "day": 4, "month": 4, "categories": {"M30": {"distance": 42, "rank": 981, "pace": 319000000000, "time": 13496.5}}, "weekday": "sunday", "livingplace": "Schlieren"}}, "location": "Z\u00fcrich"}, "Burgdorfer Stadtlauf, Burgdorf": {"latitude": 45.277123, "longitude": -115.9129022, "race": "Burgdorfer Stadtlauf, Burgdorf", "date": {"sam. 15.09.2007": {"year": 2007, "day": 15, "month": 9, "categories": {"MHE1": {"distance": 8, "rank": 4, "pace": 232000000000, "time": 1860.9}}, "weekday": "saturday", "livingplace": "Koniz"}}, "location": "Burgdorf"}, "Int Greifenseelauf, Uster": {"latitude": 47.3482747, "longitude": 8.717873899999999, "race": "Int Greifenseelauf, Uster", "date": {"sam. 22.09.2007": {"year": 2007, "day": 22, "month": 9, "categories": {"H/M35": {"distance": 21, "rank": 365, "pace": 299000000000, "time": 6312.5}}, "weekday": "saturday", "livingplace": "Uster"}, "sam. 20.09.2003": {"year": 2003, "day": 20, "month": 9, "categories": {"H/M30": {"distance": 21, "rank": 349, "pace": 320000000000, "time": 6758.6}}, "weekday": "saturday", "livingplace": "Schlieren"}, "sam. 19.09.2009": {"year": 2009, "day": 19, "month": 9, "categories": {"H-M40": {"distance": 21, "rank": 352, "pace": 290000000000, "time": 6126.0}}, "weekday": "saturday", "livingplace": "Uster"}}, "location": "Uster"}}, "birth": 1969}