{"name": "Muller Arnaud", "sex": "M", "races": {"BCN Tour #3 Dombresson": {"latitude": 46.999113, "longitude": 6.733554799999999, "race": "BCN Tour #3 Dombresson", "date": {"mer. 08.05.2013": {"year": 2013, "day": 8, "month": 5, "categories": {"HE": {"distance": 10, "rank": 162, "pace": 284000000000, "time": 2821.0}}, "weekday": "wednesday", "livingplace": "Sales Gruyere"}}, "location": "Les Ponts-de-Martel"}, "Course de l'Escalade, Gen\u00e8ve": {"latitude": 46.2043907, "longitude": 6.1431577, "race": "Course de l'Escalade, Gen\u00e8ve", "date": {"sam. 05.12.2015": {"year": 2015, "day": 5, "month": 12, "categories": {"Esc-Hom2": {"distance": 7, "rank": 917, "pace": 277000000000, "time": 2031.8}}, "weekday": "saturday", "livingplace": "Sales Gruyere"}, "sam. 01.12.2012": {"year": 2012, "day": 1, "month": 12, "categories": {"Duc-Hom1": {"distance": 18, "rank": 126, "pace": 285000000000, "time": 5000.5}}, "weekday": "saturday", "livingplace": "Renens"}}, "location": "Gen\u00e8ve"}, "BCN Tour #6 Neuch\u00e2tel": {"latitude": 46.9899874, "longitude": 6.9292732, "race": "BCN Tour #6 Neuch\u00e2tel", "date": {"mer. 29.05.2013": {"year": 2013, "day": 29, "month": 5, "categories": {"HE": {"distance": 11, "rank": 197, "pace": 313000000000, "time": 3446.2}}, "weekday": "wednesday", "livingplace": "Sales Gruyere"}}, "location": "Neuch\u00e2tel"}, "Lausanne Marathon": {"latitude": 46.5196535, "longitude": 6.6322734, "race": "Lausanne Marathon", "date": {"dim. 28.10.2012": {"year": 2012, "day": 28, "month": 10, "categories": {"21-H1": {"distance": 21, "rank": 105, "pace": 268000000000, "time": 5667.6}}, "weekday": "sunday", "livingplace": "Renens"}}, "location": "Lausanne"}, "BCN Tour #5 Colombier": {"latitude": 46.9262933, "longitude": 6.6324944, "race": "BCN Tour #5 Colombier", "date": {"mer. 22.05.2013": {"year": 2013, "day": 22, "month": 5, "categories": {"HE": {"distance": 11, "rank": 162, "pace": 269000000000, "time": 2828.8}}, "weekday": "wednesday", "livingplace": "Sales Gruyere"}}, "location": "Couvet"}, "20km de Lausanne": {"latitude": 46.5196535, "longitude": 6.6322734, "race": "20km de Lausanne", "date": {"sam. 25.04.2015": {"year": 2015, "day": 25, "month": 4, "categories": {"20-H30": {"distance": 20, "rank": 392, "pace": 280000000000, "time": 5617.0}}, "weekday": "saturday", "livingplace": "Renens"}}, "location": "Lausanne"}, "BCN Tour #1 Corcelles": {"latitude": 46.9668714, "longitude": 6.8589727, "race": "BCN Tour #1 Corcelles", "date": {"mer. 24.04.2013": {"year": 2013, "day": 24, "month": 4, "categories": {"HE": {"distance": 10, "rank": 229, "pace": 322000000000, "time": 3156.4}}, "weekday": "wednesday", "livingplace": "Sales Gruyere"}}, "location": "Colombier NE"}, "BCN Tour #4 Fleurier": {"latitude": 47.1034892, "longitude": 6.832783800000001, "race": "BCN Tour #4 Fleurier", "date": {"mer. 15.05.2013": {"year": 2013, "day": 15, "month": 5, "categories": {"HE": {"distance": 9, "rank": 159, "pace": 291000000000, "time": 2524.0}}, "weekday": "wednesday", "livingplace": "Sales Gruyere"}}, "location": "La Chaux-de-Fonds"}, "BCN Tour #2 La Chaux-de-Fonds": {"latitude": 47.0624261, "longitude": 6.9175754, "race": "BCN Tour #2 La Chaux-de-Fonds", "date": {"mer. 01.05.2013": {"year": 2013, "day": 1, "month": 5, "categories": {"HE": {"distance": 11, "rank": 183, "pace": 292000000000, "time": 3125.0}}, "weekday": "wednesday", "livingplace": "Sales Gruyere"}}, "location": "Ch\u00e9zard-St-Martin"}}, "birth": 1985}