{"name": "Muncey John", "sex": "M", "races": {"Z\u00fcrcher Silvesterlauf, Z\u00fcrich": {"latitude": 47.3768866, "longitude": 8.541694, "race": "Z\u00fcrcher Silvesterlauf, Z\u00fcrich", "date": {"dim. 15.12.2013": {"year": 2013, "day": 15, "month": 12, "categories": {"10-M40": {"distance": 10, "rank": 443, "pace": 274000000000, "time": 2746.7}}, "weekday": "sunday", "livingplace": "Feldmeilen"}}, "location": "Z\u00fcrich"}, "GP der Stadt D\u00fcbendorf": {"latitude": 47.3971476, "longitude": 8.618012799999999, "race": "GP der Stadt D\u00fcbendorf", "date": {"sam. 14.04.2012": {"year": 2012, "day": 14, "month": 4, "categories": {"C": {"distance": 10, "rank": 140, "pace": 270000000000, "time": 2707.4}}, "weekday": "saturday", "livingplace": "Feldmeilen"}}, "location": "D\u00fcbendorf"}, "Dreil\u00e4nder-Lauf, Basel": {"latitude": 47.5595986, "longitude": 7.5885761, "race": "Dreil\u00e4nder-Lauf, Basel", "date": {"dim. 20.05.2012": {"year": 2012, "day": 20, "month": 5, "categories": {"21M40": {"distance": 21, "rank": 147, "pace": 335000000000, "time": 7070.6}}, "weekday": "sunday", "livingplace": "Feldmeilen"}}, "location": "Basel"}, "ASICS Bremgarter Reusslauf": {"latitude": 47.34917739999999, "longitude": 8.3397905, "race": "ASICS Bremgarter Reusslauf", "date": {"sam. 25.02.2012": {"year": 2012, "day": 25, "month": 2, "categories": {"M40": {"distance": 11, "rank": 384, "pace": 279000000000, "time": 3071.3}}, "weekday": "saturday", "livingplace": "Feldmeilen"}}, "location": "Bremgarten AG"}, "M\u00e4nned\u00f6rfler Waldlauf": {"latitude": 47.2574625, "longitude": 8.6946733, "race": "M\u00e4nned\u00f6rfler Waldlauf", "date": {"sam. 23.03.2013": {"year": 2013, "day": 23, "month": 3, "categories": {"C": {"distance": 12, "rank": 96, "pace": 289000000000, "time": 3330.4}}, "weekday": "saturday", "livingplace": "Feldmeilen"}}, "location": "M\u00e4nnedorf"}}, "birth": 1968}