{"name": "Munoz David", "sex": "M", "races": {"Lucerne Marathon, Luzern": {"latitude": 47.05016819999999, "longitude": 8.3093072, "race": "Lucerne Marathon, Luzern", "date": {"dim. 31.10.2010": {"year": 2010, "day": 31, "month": 10, "categories": {"H-M20": {"distance": 21, "rank": 201, "pace": 283000000000, "time": 5975.6}}, "weekday": "sunday", "livingplace": "Basel"}, "dim. 30.10.2011": {"year": 2011, "day": 30, "month": 10, "categories": {"H-M20": {"distance": 21, "rank": 193, "pace": 283000000000, "time": 5979.6}}, "weekday": "sunday", "livingplace": "Basel"}}, "location": "Luzern"}, "IWB Basel Marathon": {"latitude": 47.5595986, "longitude": 7.5885761, "race": "IWB Basel Marathon", "date": {"dim. 11.09.2011": {"year": 2011, "day": 11, "month": 9, "categories": {"H-21-M20": {"distance": 21, "rank": 23, "pace": 294000000000, "time": 6223.7}}, "weekday": "sunday", "livingplace": "Basel"}}, "location": "Basel"}, "ASICS Bremgarter Reusslauf": {"latitude": 47.34917739999999, "longitude": 8.3397905, "race": "ASICS Bremgarter Reusslauf", "date": {"sam. 25.02.2012": {"year": 2012, "day": 25, "month": 2, "categories": {"M20": {"distance": 11, "rank": 98, "pace": 261000000000, "time": 2871.3}}, "weekday": "saturday", "livingplace": "Basel"}}, "location": "Bremgarten AG"}, "Basler Stadtlauf": {"latitude": 47.5595986, "longitude": 7.5885761, "race": "Basler Stadtlauf", "date": {"sam. 30.11.2013": {"year": 2013, "day": 30, "month": 11, "categories": {"M30": {"distance": 6, "rank": 208, "pace": 274000000000, "time": 1511.9}}, "weekday": "saturday", "livingplace": "Basel"}}, "location": "Basel"}, "Birslauf Basel": {"latitude": 47.5595986, "longitude": 7.5885761, "race": "Birslauf Basel", "date": {"sam. 28.03.2015": {"year": 2015, "day": 28, "month": 3, "categories": {"M\u00e4nner": {"distance": 10, "rank": 308, "pace": 306000000000, "time": 3064.3}}, "weekday": "saturday", "livingplace": "Basel"}}, "location": "Basel"}, "Morat-Fribourg": {"latitude": 46.92922110000001, "longitude": 7.120184, "race": "Morat-Fribourg", "date": {"sam. 03.10.2009": {"year": 2009, "day": 3, "month": 10, "categories": {"C-M20": {"distance": 17, "rank": 1122, "pace": 309000000000, "time": 5314.8}}, "weekday": "saturday", "livingplace": "Basel"}, "sam. 01.10.2011": {"year": 2011, "day": 1, "month": 10, "categories": {"17-M20": {"distance": 17, "rank": 655, "pace": 286000000000, "time": 4918.1}}, "weekday": "saturday", "livingplace": "Basel"}, "sam. 03.10.2015": {"year": 2015, "day": 3, "month": 10, "categories": {"17-M20": {"distance": 17, "rank": 1102, "pace": 306000000000, "time": 5270.2}}, "weekday": "saturday", "livingplace": "Basel"}, "sam. 02.10.2010": {"year": 2010, "day": 2, "month": 10, "categories": {"17-M20": {"distance": 17, "rank": 798, "pace": 296000000000, "time": 5090.6}}, "weekday": "saturday", "livingplace": "Basel"}}, "location": "Murten"}, "20km de Lausanne": {"latitude": 46.5196535, "longitude": 6.6322734, "race": "20km de Lausanne", "date": {"sam. 25.04.2015": {"year": 2015, "day": 25, "month": 4, "categories": {"10-H30": {"distance": 10, "rank": 518, "pace": 303000000000, "time": 3038.8}}, "weekday": "saturday", "livingplace": "Basel"}}, "location": "Lausanne"}, "Kerzerslauf": {"latitude": 46.97488999999999, "longitude": 7.1954365, "race": "Kerzerslauf", "date": {"sam. 19.03.2011": {"year": 2011, "day": 19, "month": 3, "categories": {"15-M20": {"distance": 15, "rank": 275, "pace": 279000000000, "time": 4198.0}}, "weekday": "saturday", "livingplace": "Basel"}}, "location": "Kerzers"}}, "birth": 1983}