{"name": "Murawski Carsten", "sex": "M", "races": {"Winterthur Marathon": {"latitude": 39.8088766, "longitude": -75.6037351, "race": "Winterthur Marathon", "date": {"dim. 20.05.2007": {"year": 2007, "day": 20, "month": 5, "categories": {"HMAktiv": {"distance": 21, "rank": 4, "pace": 226000000000, "time": 4747.0}}, "weekday": "sunday", "livingplace": "Zurich"}}, "location": "Winterthur"}, "Dietiker Neujahrslauf, Dietikon": {"latitude": 47.4053885, "longitude": 8.39977, "race": "Dietiker Neujahrslauf, Dietikon", "date": {"sam. 11.01.2003": {"year": 2003, "day": 11, "month": 1, "categories": {"A": {"distance": 12, "rank": 15, "pace": 226000000000, "time": 2735.6}}, "weekday": "saturday", "livingplace": "Zurich"}}, "location": "Dietikon"}, "ASICS Bremgarter Reusslauf": {"latitude": 47.34917739999999, "longitude": 8.3397905, "race": "ASICS Bremgarter Reusslauf", "date": {"sam. 17.02.2007": {"year": 2007, "day": 17, "month": 2, "categories": {"M30": {"distance": 11, "rank": 62, "pace": 219000000000, "time": 2306.1}}, "weekday": "saturday", "livingplace": "Zurich"}}, "location": "Bremgarten AG"}, "Sihltaler Fr\u00fchlingslauf, Gattikon": {"latitude": 47.2949282, "longitude": 8.5644799, "race": "Sihltaler Fr\u00fchlingslauf, Gattikon", "date": {"mar. 01.05.2007": {"year": 2007, "day": 1, "month": 5, "categories": {"M30": {"distance": 10, "rank": 14, "pace": 227000000000, "time": 2277.3}}, "weekday": "tuesday", "livingplace": "Zurich"}}, "location": "Gattikon"}, "Int Greifenseelauf, Uster": {"latitude": 47.3482747, "longitude": 8.717873899999999, "race": "Int Greifenseelauf, Uster", "date": {"sam. 18.09.2004": {"year": 2004, "day": 18, "month": 9, "categories": {"H/M30": {"distance": 21, "rank": 15, "pace": 230000000000, "time": 4870.6}}, "weekday": "saturday", "livingplace": "Zurich"}}, "location": "Uster"}}, "birth": 1974}