{"name": "Muzzolin Laur\u00e8ne", "sex": "F", "races": {"20km de Lausanne": {"latitude": 46.5196535, "longitude": 6.6322734, "race": "20km de Lausanne", "date": {"sam. 25.04.2015": {"year": 2015, "day": 25, "month": 4, "categories": {"10-U20W": {"distance": 10, "rank": 152, "pace": 344000000000, "time": 3446.1}}, "weekday": "saturday", "livingplace": "Runners"}}, "location": "Lausanne"}, "Morat-Fribourg": {"latitude": 46.92922110000001, "longitude": 7.120184, "race": "Morat-Fribourg", "date": {"sam. 03.10.2009": {"year": 2009, "day": 3, "month": 10, "categories": {"K-EFB": {"distance": 2, "rank": 16, "pace": 234000000000, "time": 492.0}}, "weekday": "saturday", "livingplace": "Prilly"}, "sam. 01.10.2011": {"year": 2011, "day": 1, "month": 10, "categories": {"EcolFA": {"distance": 3, "rank": 13, "pace": 224000000000, "time": 627.7}}, "weekday": "saturday", "livingplace": "Prilly"}}, "location": "Murten"}, "Lausanne Marathon": {"latitude": 46.5196535, "longitude": 6.6322734, "race": "Lausanne Marathon", "date": {"sam. 24.10.2015": {"year": 2015, "day": 24, "month": 10, "categories": {"10-JunF": {"distance": 10, "rank": 118, "pace": 358000000000, "time": 3583.8}}, "weekday": "saturday", "livingplace": "Prilly"}, "dim. 26.10.2014": {"year": 2014, "day": 26, "month": 10, "categories": {"10-JunF": {"distance": 10, "rank": 97, "pace": 345000000000, "time": 3450.2}}, "weekday": "sunday", "livingplace": "Prilly"}}, "location": "Lausanne"}, "Les Traine-Savates, Cheseaux-sur-Lausanne": {"latitude": 46.585452, "longitude": 6.6047712, "race": "Les Traine-Savates, Cheseaux-sur-Lausanne", "date": {"sam. 09.04.2011": {"year": 2011, "day": 9, "month": 4, "categories": {"U14W": {"distance": 3, "rank": 17, "pace": 278000000000, "time": 945.4}}, "weekday": "saturday", "livingplace": "Prilly"}}, "location": "Cheseaux-sur-Lausanne"}, "Kerzerslauf": {"latitude": 46.97488999999999, "longitude": 7.1954365, "race": "Kerzerslauf", "date": {"sam. 20.03.2010": {"year": 2010, "day": 20, "month": 3, "categories": {"2-F11": {"distance": 1, "rank": 17, "pace": 232000000000, "time": 325.0}}, "weekday": "saturday", "livingplace": "Prilly"}}, "location": "Kerzers"}, "Course de l'Avent, Fribourg": {"latitude": 46.8064773, "longitude": 7.161971899999999, "race": "Course de l'Avent, Fribourg", "date": {"dim. 25.11.2012": {"year": 2012, "day": 25, "month": 11, "categories": {"P-FJun": {"distance": 6, "rank": 3, "pace": 343000000000, "time": 1959.4}}, "weekday": "sunday", "livingplace": "Prilly"}}, "location": "Fribourg"}}, "birth": 1999}