{"name": "Nel Linda", "sex": "F", "races": {"Lucerne Marathon, Luzern": {"latitude": 47.05016819999999, "longitude": 8.3093072, "race": "Lucerne Marathon, Luzern", "date": {"dim. 25.10.2009": {"year": 2009, "day": 25, "month": 10, "categories": {"M-F30": {"distance": 42, "rank": 2, "pace": 270000000000, "time": 11432.7}}, "weekday": "sunday", "livingplace": "Riehen"}}, "location": "Luzern"}, "SwissCityMarathon - Lucerne, Luzern": {"latitude": 47.05016819999999, "longitude": 8.3093072, "race": "SwissCityMarathon - Lucerne, Luzern", "date": {"dim. 27.10.2013": {"year": 2013, "day": 27, "month": 10, "categories": {"M-F40": {"distance": 42, "rank": 4, "pace": 281000000000, "time": 11892.2}}, "weekday": "sunday", "livingplace": "Riehen"}}, "location": "Luzern"}, "IWB Basel Marathon": {"latitude": 47.5595986, "longitude": 7.5885761, "race": "IWB Basel Marathon", "date": {"dim. 22.09.2013": {"year": 2013, "day": 22, "month": 9, "categories": {"H-21-F40": {"distance": 21, "rank": 4, "pace": 270000000000, "time": 5699.4}}, "weekday": "sunday", "livingplace": "Riehen"}}, "location": "Basel"}, "Hallwilerseelauf, Beinwil am See": {"latitude": NaN, "longitude": NaN, "race": "Hallwilerseelauf, Beinwil am See", "date": {"sam. 14.10.2006": {"year": 2006, "day": 14, "month": 10, "categories": {"F30": {"distance": 21, "rank": 29, "pace": 281000000000, "time": 5949.3}}, "weekday": "saturday", "livingplace": "Basel"}}, "location": "Beinwil am See"}, "Basel City Marathon": {"latitude": 47.5595986, "longitude": 7.5885761, "race": "Basel City Marathon", "date": {"dim. 03.09.2006": {"year": 2006, "day": 3, "month": 9, "categories": {"M-F30": {"distance": 42, "rank": 4, "pace": 295000000000, "time": 12457.1}}, "weekday": "sunday", "livingplace": "Basel"}}, "location": "Basel"}, "Wiedlisbacher L\u00e4ufe, Wiedlisbach": {"latitude": 47.2512653, "longitude": 7.6453444, "race": "Wiedlisbacher L\u00e4ufe, Wiedlisbach", "date": {"dim. 29.04.2007": {"year": 2007, "day": 29, "month": 4, "categories": {"F20-21": {"distance": 21, "rank": 3, "pace": 285000000000, "time": 6017.2}}, "weekday": "sunday", "livingplace": "Basel"}, "dim. 27.04.2008": {"year": 2008, "day": 27, "month": 4, "categories": {"F20-21": {"distance": 21, "rank": 4, "pace": 278000000000, "time": 5870.3}}, "weekday": "sunday", "livingplace": "Basel"}}, "location": "Wiedlisbach"}, "Bieler Lauftage, Biel Bienne": {"latitude": 47.1367785, "longitude": 7.2467909, "race": "Bieler Lauftage, Biel Bienne", "date": {"ven. 15.06.2007": {"year": 2007, "day": 15, "month": 6, "categories": {"M/W35": {"distance": 42, "rank": 1, "pace": 300000000000, "time": 12697.0}}, "weekday": "friday", "livingplace": "Basel"}}, "location": "Biel/Bienne"}, "Int Greifenseelauf, Uster": {"latitude": 47.3482747, "longitude": 8.717873899999999, "race": "Int Greifenseelauf, Uster", "date": {"sam. 20.09.2008": {"year": 2008, "day": 20, "month": 9, "categories": {"H-W35": {"distance": 21, "rank": 4, "pace": 247000000000, "time": 5225.1}}, "weekday": "saturday", "livingplace": "Riehen"}}, "location": "Uster"}}, "birth": 1971}