{"name": "Neyaga Delphine", "sex": "F", "races": {"Tour du Pays de Vaud printanier #2 Yverdon-les-Bains": {"latitude": 46.6698891, "longitude": 6.7975224, "race": "Tour du Pays de Vaud printanier #2 Yverdon-les-Bains", "date": {"mer. 11.06.2014": {"year": 2014, "day": 11, "month": 6, "categories": {"D-Sen1": {"distance": 9, "rank": 53, "pace": 455000000000, "time": 4142.0}}, "weekday": "wednesday", "livingplace": "Lausanne"}}, "location": "Moudon"}, "Tour du Pays de Vaud #1, Penthaz": {"latitude": 46.5993131, "longitude": 6.539251200000001, "race": "Tour du Pays de Vaud #1, Penthaz", "date": {"mer. 13.08.2014": {"year": 2014, "day": 13, "month": 8, "categories": {"D-Sen1": {"distance": 9, "rank": 40, "pace": 347000000000, "time": 2965.5}}, "weekday": "wednesday", "livingplace": "Lausanne"}}, "location": "Penthaz"}, "Morat-Fribourg": {"latitude": 46.92922110000001, "longitude": 7.120184, "race": "Morat-Fribourg", "date": {"sam. 02.10.2010": {"year": 2010, "day": 2, "month": 10, "categories": {"8-JoggF": {"distance": 9, "rank": 64, "pace": 353000000000, "time": 3037.6}}, "weekday": "saturday", "livingplace": "Lausanne"}, "sam. 04.10.2014": {"year": 2014, "day": 4, "month": 10, "categories": {"8-JoggF": {"distance": 9, "rank": 114, "pace": 338000000000, "time": 2935.6}}, "weekday": "saturday", "livingplace": "Lausanne"}}, "location": "Murten"}, "Course de l'Avent, Yverdon": {"latitude": 46.8064773, "longitude": 7.161971899999999, "race": "Course de l'Avent, Yverdon", "date": {"dim. 27.11.2011": {"year": 2011, "day": 27, "month": 11, "categories": {"E-F3": {"distance": 8, "rank": 16, "pace": 328000000000, "time": 2536.9}}, "weekday": "sunday", "livingplace": "Lausanne"}}, "location": "Fribourg"}, "Schweizer Frauenlauf Bern": {"latitude": 46.9479739, "longitude": 7.4474468, "race": "Schweizer Frauenlauf Bern", "date": {"dim. 13.06.2010": {"year": 2010, "day": 13, "month": 6, "categories": {"10-W30": {"distance": 10, "rank": 238, "pace": 342000000000, "time": 3424.9}}, "weekday": "sunday", "livingplace": "Lausanne"}, "dim. 19.06.2011": {"year": 2011, "day": 19, "month": 6, "categories": {"10-W30": {"distance": 10, "rank": 364, "pace": 372000000000, "time": 3727.2}}, "weekday": "sunday", "livingplace": "Lausanne"}}, "location": "Bern"}, "Tour du Pays de Vaud #4, La Sarraz": {"latitude": 46.7088129, "longitude": 6.5707689, "race": "Tour du Pays de Vaud #4, La Sarraz", "date": {"mer. 03.09.2014": {"year": 2014, "day": 3, "month": 9, "categories": {"D-Sen1": {"distance": 9, "rank": 49, "pace": 347000000000, "time": 2951.0}}, "weekday": "wednesday", "livingplace": "Lausanne"}}, "location": "Chavornay"}, "Tour du Pays de Vaud #3, Chavornay": {"latitude": 46.7784736, "longitude": 6.641183, "race": "Tour du Pays de Vaud #3, Chavornay", "date": {"mer. 27.08.2014": {"year": 2014, "day": 27, "month": 8, "categories": {"D-Sen1": {"distance": 9, "rank": 40, "pace": 359000000000, "time": 3090.6}}, "weekday": "wednesday", "livingplace": "Lausanne"}}, "location": "Yverdon-les-Bains"}}, "birth": 1979}