{"name": "Niederhauser Eric", "sex": "M", "races": {"Lausanne Marathon": {"latitude": 46.5196535, "longitude": 6.6322734, "race": "Lausanne Marathon", "date": {"dim. 28.10.2012": {"year": 2012, "day": 28, "month": 10, "categories": {"21-H2": {"distance": 21, "rank": 114, "pace": 265000000000, "time": 5595.5}}, "weekday": "sunday", "livingplace": "Saviese"}}, "location": "Lausanne"}, "Zermatt Marathon, Zermatt": {"latitude": NaN, "longitude": NaN, "race": "Zermatt Marathon, Zermatt", "date": {"sam. 05.07.2014": {"year": 2014, "day": 5, "month": 7, "categories": {"M-STM\u00e4": {"distance": 42, "rank": 13, "pace": 375000000000, "time": 15823.4}}, "weekday": "saturday", "livingplace": "Saviese"}}, "location": "Zermatt"}, "D\u00e9fi du vignoble, Cully": {"latitude": 45.565921, "longitude": -122.6066627, "race": "D\u00e9fi du vignoble, Cully", "date": {"mer. 14.05.2014": {"year": 2014, "day": 14, "month": 5, "categories": {"M30": {"distance": 4, "rank": 20, "pace": 466000000000, "time": 1697.2}}, "weekday": "wednesday", "livingplace": "Saviese"}}, "location": "Cully"}, "Morat-Fribourg": {"latitude": 46.92922110000001, "longitude": 7.120184, "race": "Morat-Fribourg", "date": {"sam. 02.10.2010": {"year": 2010, "day": 2, "month": 10, "categories": {"17-M20": {"distance": 17, "rank": 439, "pace": 277000000000, "time": 4756.4}}, "weekday": "saturday", "livingplace": "Saviese"}, "sam. 01.10.2011": {"year": 2011, "day": 1, "month": 10, "categories": {"17-M20": {"distance": 17, "rank": 363, "pace": 267000000000, "time": 4590.6}}, "weekday": "saturday", "livingplace": "Saviese"}}, "location": "Murten"}, "Montreux - Les Rochers de Naye": {"latitude": 46.4312213, "longitude": 6.9106799, "race": "Montreux - Les Rochers de Naye", "date": {"dim. 10.07.2011": {"year": 2011, "day": 10, "month": 7, "categories": {"M-HElite": {"distance": 19, "rank": 126, "pace": 458000000000, "time": 8624.3}}, "weekday": "sunday", "livingplace": "Saviese"}, "dim. 08.07.2012": {"year": 2012, "day": 8, "month": 7, "categories": {"M-HElite": {"distance": 19, "rank": 109, "pace": 466000000000, "time": 8777.5}}, "weekday": "sunday", "livingplace": "Saviese"}}, "location": "Montreux"}, "Sierre-Zinal, Sierre": {"latitude": 46.29413110000001, "longitude": 7.533536199999999, "race": "Sierre-Zinal, Sierre", "date": {"dim. 10.08.2014": {"year": 2014, "day": 10, "month": 8, "categories": {"ElitesHo": {"distance": 31, "rank": 265, "pace": 471000000000, "time": 14631.9}}, "weekday": "sunday", "livingplace": "Saviese"}}, "location": "Sierre"}, "Tour du Chablais #1 Lavey": {"latitude": 46.2957462, "longitude": 6.9916269, "race": "Tour du Chablais #1 Lavey", "date": {"mer. 27.04.2011": {"year": 2011, "day": 27, "month": 4, "categories": {"M-M20": {"distance": 9, "rank": 50, "pace": 244000000000, "time": 2204.3}}, "weekday": "wednesday", "livingplace": "Saviese"}}, "location": "Ollon VD"}}, "birth": 1975}