{"name": "Niederer Bettina", "sex": "F", "races": {"Lucerne Marathon, Luzern": {"latitude": 47.05016819999999, "longitude": 8.3093072, "race": "Lucerne Marathon, Luzern", "date": {"dim. 28.10.2012": {"year": 2012, "day": 28, "month": 10, "categories": {"M-F20": {"distance": 42, "rank": 39, "pace": 381000000000, "time": 16080.5}}, "weekday": "sunday", "livingplace": "Zurich"}}, "location": "Luzern"}, "Stralugano, Lugano": {"latitude": 46.0036778, "longitude": 8.951051999999999, "race": "Stralugano, Lugano", "date": {"dim. 27.09.2015": {"year": 2015, "day": 27, "month": 9, "categories": {"10-W": {"distance": 10, "rank": 96, "pace": 319000000000, "time": 3195.0}}, "weekday": "sunday", "livingplace": "Thalwil"}}, "location": "Lugano"}, "ASICS Bremgarter Reusslauf": {"latitude": 47.34917739999999, "longitude": 8.3397905, "race": "ASICS Bremgarter Reusslauf", "date": {"sam. 25.02.2012": {"year": 2012, "day": 25, "month": 2, "categories": {"F20": {"distance": 11, "rank": 49, "pace": 301000000000, "time": 3319.3}}, "weekday": "saturday", "livingplace": "Trizo"}}, "location": "Bremgarten AG"}, "Schweizer Frauenlauf Bern": {"latitude": 46.9479739, "longitude": 7.4474468, "race": "Schweizer Frauenlauf Bern", "date": {"dim. 14.06.2009": {"year": 2009, "day": 14, "month": 6, "categories": {"10-W20": {"distance": 10, "rank": 269, "pace": 334000000000, "time": 3340.0}}, "weekday": "sunday", "livingplace": "Uster"}}, "location": "Bern"}, "Z\u00fcrich Marathon, Teamrun und Cityrun": {"latitude": 47.3768866, "longitude": 8.541694, "race": "Z\u00fcrich Marathon, Teamrun und Cityrun", "date": {"dim. 07.04.2013": {"year": 2013, "day": 7, "month": 4, "categories": {"42-W20": {"distance": 42, "rank": 41, "pace": 349000000000, "time": 14756.4}}, "weekday": "sunday", "livingplace": "Zurich"}}, "location": "Z\u00fcrich"}, "Hallwilerseelauf, Beinwil am See": {"latitude": NaN, "longitude": NaN, "race": "Hallwilerseelauf, Beinwil am See", "date": {"sam. 10.10.2009": {"year": 2009, "day": 10, "month": 10, "categories": {"21-F20": {"distance": 21, "rank": 120, "pace": 346000000000, "time": 7302.6}}, "weekday": "saturday", "livingplace": "Uster"}}, "location": "Beinwil am See"}, "Kerzerslauf": {"latitude": 46.97488999999999, "longitude": 7.1954365, "race": "Kerzerslauf", "date": {"sam. 17.03.2012": {"year": 2012, "day": 17, "month": 3, "categories": {"15-F20": {"distance": 15, "rank": 142, "pace": 315000000000, "time": 4732.2}}, "weekday": "saturday", "livingplace": "Zurich"}}, "location": "Kerzers"}, "Z\u00fcrcher Silvesterlauf, Z\u00fcrich": {"latitude": 47.3768866, "longitude": 8.541694, "race": "Z\u00fcrcher Silvesterlauf, Z\u00fcrich", "date": {"dim. 16.12.2007": {"year": 2007, "day": 16, "month": 12, "categories": {"DaHK-8": {"distance": 9, "rank": 594, "pace": 408000000000, "time": 3512.2}}, "weekday": "sunday", "livingplace": "Russikon"}}, "location": "Z\u00fcrich"}}, "birth": 1986}