{"name": "Niederhauser Thibault", "sex": "M", "races": {"Tour du Chablais #6 Monthey": {"latitude": 46.3190253, "longitude": 6.970566, "race": "Tour du Chablais #6 Monthey", "date": {"mer. 08.05.2013": {"year": 2013, "day": 8, "month": 5, "categories": {"M-EC2": {"distance": 3, "rank": 8, "pace": 222000000000, "time": 698.0}}, "weekday": "wednesday", "livingplace": "Chateau d'Oex"}}, "location": "Aigle"}, "Lausanne Marathon": {"latitude": 46.5196535, "longitude": 6.6322734, "race": "Lausanne Marathon", "date": {"sam. 24.10.2015": {"year": 2015, "day": 24, "month": 10, "categories": {"10-JunG": {"distance": 10, "rank": 5, "pace": 216000000000, "time": 2165.0}}, "weekday": "saturday", "livingplace": "Chateau d'Oex"}}, "location": "Lausanne"}, "Morat-Fribourg": {"latitude": 46.92922110000001, "longitude": 7.120184, "race": "Morat-Fribourg", "date": {"sam. 05.10.2013": {"year": 2013, "day": 5, "month": 10, "categories": {"8-JoggM": {"distance": 9, "rank": 25, "pace": 257000000000, "time": 2287.0}}, "weekday": "saturday", "livingplace": "Chateau d'Oex"}, "sam. 06.10.2012": {"year": 2012, "day": 6, "month": 10, "categories": {"8-JoggM": {"distance": 9, "rank": 51, "pace": 281000000000, "time": 2503.7}}, "weekday": "saturday", "livingplace": "Chateau d'Oex"}}, "location": "Murten"}, "Corrida Bulloise, Bulle": {"latitude": 46.6154512, "longitude": 7.057726799999999, "race": "Corrida Bulloise, Bulle", "date": {"sam. 16.11.2013": {"year": 2013, "day": 16, "month": 11, "categories": {"CM-U16": {"distance": 3, "rank": 19, "pace": 225000000000, "time": 709.6}}, "weekday": "saturday", "livingplace": "Chateau d'Oex"}}, "location": "Bulle"}, "Montreux - Les Rochers de Naye": {"latitude": 46.4312213, "longitude": 6.9106799, "race": "Montreux - Les Rochers de Naye", "date": {"dim. 07.07.2013": {"year": 2013, "day": 7, "month": 7, "categories": {"C-HJun": {"distance": 10, "rank": 9, "pace": 449000000000, "time": 4274.5}}, "weekday": "sunday", "livingplace": "Chateau d'Oex"}}, "location": "Montreux"}, "Course de l'Escalade, Gen\u00e8ve": {"latitude": 46.2043907, "longitude": 6.1431577, "race": "Course de l'Escalade, Gen\u00e8ve", "date": {"sam. 02.12.2006": {"year": 2006, "day": 2, "month": 12, "categories": {"HPousA": {"distance": 2, "rank": 227, "pace": 308000000000, "time": 561.2}}, "weekday": "saturday", "livingplace": "Chateau D'Oex"}}, "location": "Gen\u00e8ve"}, "20km de Lausanne": {"latitude": 46.5196535, "longitude": 6.6322734, "race": "20km de Lausanne", "date": {"sam. 27.04.2013": {"year": 2013, "day": 27, "month": 4, "categories": {"4-CadM": {"distance": 4, "rank": 37, "pace": 240000000000, "time": 962.7}}, "weekday": "saturday", "livingplace": "Chateau d'Oex"}, "sam. 25.04.2009": {"year": 2009, "day": 25, "month": 4, "categories": {"EcolC-M": {"distance": 4, "rank": 36, "pace": 272000000000, "time": 1089.1}}, "weekday": "saturday", "livingplace": "Ch"}, "sam. 28.04.2012": {"year": 2012, "day": 28, "month": 4, "categories": {"4-CadM": {"distance": 4, "rank": 61, "pace": 255000000000, "time": 1021.7}}, "weekday": "saturday", "livingplace": "Chateau d'Oex"}, "sam. 26.04.2014": {"year": 2014, "day": 26, "month": 4, "categories": {"10-U20M": {"distance": 10, "rank": 20, "pace": 242000000000, "time": 2426.9}}, "weekday": "saturday", "livingplace": "Vevey"}}, "location": "Lausanne"}}, "birth": 1998}