{"name": "Niklaus Jenny", "sex": "F", "races": {"Tour du Pays de Vaud #2 - Genolier": {"latitude": 46.5955273, "longitude": 6.7702883, "race": "Tour du Pays de Vaud #2 - Genolier", "date": {"mer. 15.08.2012": {"year": 2012, "day": 15, "month": 8, "categories": {"D-Sen1": {"distance": 9, "rank": 43, "pace": 345000000000, "time": 2934.8}}, "weekday": "wednesday", "livingplace": "Vufflens le Chateau"}}, "location": "M\u00e9zi\u00e8res VD"}, "Tour du Pays de Vaud #4, La Sarraz": {"latitude": 46.7088129, "longitude": 6.5707689, "race": "Tour du Pays de Vaud #4, La Sarraz", "date": {"mer. 03.09.2014": {"year": 2014, "day": 3, "month": 9, "categories": {"D-Sen1": {"distance": 9, "rank": 20, "pace": 298000000000, "time": 2536.8}}, "weekday": "wednesday", "livingplace": "Vufflens le Chateau"}}, "location": "Chavornay"}, "Tour du Pays de Vaud printanier #3 - Yens": {"latitude": 46.7829756, "longitude": 6.5728678, "race": "Tour du Pays de Vaud printanier #3 - Yens", "date": {"mer. 12.06.2013": {"year": 2013, "day": 12, "month": 6, "categories": {"D-Sen1": {"distance": 9, "rank": 29, "pace": 352000000000, "time": 3206.4}}, "weekday": "wednesday", "livingplace": "Vufflens le Chateau"}}, "location": "Champvent"}, "Tour du Pays de Vaud #2 - Mezi\u00e8res": {"latitude": 46.5955273, "longitude": 6.7702883, "race": "Tour du Pays de Vaud #2 - Mezi\u00e8res", "date": {"mer. 21.08.2013": {"year": 2013, "day": 21, "month": 8, "categories": {"D-Sen1": {"distance": 8, "rank": 36, "pace": 358000000000, "time": 2907.0}}, "weekday": "wednesday", "livingplace": "Vufflens le Chateau"}}, "location": "M\u00e9zi\u00e8res VD"}, "Tour du Pays de Vaud printanier #1 Moudon": {"latitude": 46.3832683, "longitude": 6.2347852, "race": "Tour du Pays de Vaud printanier #1 Moudon", "date": {"mer. 29.05.2013": {"year": 2013, "day": 29, "month": 5, "categories": {"D-Sen1": {"distance": 8, "rank": 17, "pace": 347000000000, "time": 2967.8}}, "weekday": "wednesday", "livingplace": "Vufflens le Chateau"}, "mer. 04.06.2014": {"year": 2014, "day": 4, "month": 6, "categories": {"D-Sen1": {"distance": 8, "rank": 9, "pace": 314000000000, "time": 2643.7}}, "weekday": "wednesday", "livingplace": "Vufflens le Chateau"}}, "location": "Nyon"}, "Tour du Pays de Vaud #3 - Chavornay": {"latitude": 46.7784736, "longitude": 6.641183, "race": "Tour du Pays de Vaud #3 - Chavornay", "date": {"mer. 28.08.2013": {"year": 2013, "day": 28, "month": 8, "categories": {"D-Sen1": {"distance": 9, "rank": 41, "pace": 332000000000, "time": 2961.1}}, "weekday": "wednesday", "livingplace": "Vufflens le Chateau"}}, "location": "Yverdon-les-Bains"}, "Tour du pays de Vaud #1 - Penthaz": {"latitude": 46.5993131, "longitude": 6.539251200000001, "race": "Tour du pays de Vaud #1 - Penthaz", "date": {"mer. 14.08.2013": {"year": 2013, "day": 14, "month": 8, "categories": {"D-Sen1": {"distance": 9, "rank": 38, "pace": 330000000000, "time": 2817.1}}, "weekday": "wednesday", "livingplace": "Vufflens le Chateau"}, "mer. 08.08.2012": {"year": 2012, "day": 8, "month": 8, "categories": {"D-Sen1": {"distance": 9, "rank": 61, "pace": 353000000000, "time": 3011.8}}, "weekday": "wednesday", "livingplace": "Vufflens le Chateau"}}, "location": "Penthaz"}, "Tour du Pays de Vaud #4 - La Sarraz": {"latitude": 46.7088129, "longitude": 6.5707689, "race": "Tour du Pays de Vaud #4 - La Sarraz", "date": {"mer. 29.08.2012": {"year": 2012, "day": 29, "month": 8, "categories": {"D-Sen1": {"distance": 9, "rank": 53, "pace": 337000000000, "time": 2869.7}}, "weekday": "wednesday", "livingplace": "Vufflens le Chateau"}, "mer. 04.09.2013": {"year": 2013, "day": 4, "month": 9, "categories": {"D-Sen1": {"distance": 9, "rank": 31, "pace": 325000000000, "time": 2769.9}}, "weekday": "wednesday", "livingplace": "Vufflens le Chateau"}}, "location": "Chavornay"}, "20km de Lausanne": {"latitude": 46.5196535, "longitude": 6.6322734, "race": "20km de Lausanne", "date": {"sam. 25.04.2015": {"year": 2015, "day": 25, "month": 4, "categories": {"10-F30": {"distance": 10, "rank": 55, "pace": 294000000000, "time": 2940.6}}, "weekday": "saturday", "livingplace": "Valeyres sous Rances"}, "sam. 26.04.2014": {"year": 2014, "day": 26, "month": 4, "categories": {"10-F30": {"distance": 10, "rank": 51, "pace": 300000000000, "time": 3006.1}}, "weekday": "saturday", "livingplace": "Vufflens le Chateau"}}, "location": "Lausanne"}, "Tour du Pays de Vaud #3, Chavornay": {"latitude": 46.7784736, "longitude": 6.641183, "race": "Tour du Pays de Vaud #3, Chavornay", "date": {"mer. 27.08.2014": {"year": 2014, "day": 27, "month": 8, "categories": {"D-Sen1": {"distance": 9, "rank": 16, "pace": 317000000000, "time": 2732.6}}, "weekday": "wednesday", "livingplace": "Vufflens le Chateau"}}, "location": "Yverdon-les-Bains"}}, "birth": 1976}