{"name": "No\u00ebl Xavier", "sex": "M", "races": {"A travers Carouge - Run to Run": {"latitude": 46.1829674, "longitude": 6.1378539, "race": "A travers Carouge - Run to Run", "date": {"sam. 26.09.2009": {"year": 2009, "day": 26, "month": 9, "categories": {"HI/10": {"distance": 10, "rank": 31, "pace": 219000000000, "time": 2190.7}}, "weekday": "saturday", "livingplace": "Pev"}}, "location": "Carouge GE"}, "Tour du Chablais #1 Roche": {"latitude": 46.2957462, "longitude": 6.9916269, "race": "Tour du Chablais #1 Roche", "date": {"mer. 07.04.2010": {"year": 2010, "day": 7, "month": 4, "categories": {"M-M20": {"distance": 9, "rank": 19, "pace": 220000000000, "time": 1974.0}}, "weekday": "wednesday", "livingplace": "Vandoeuvres"}}, "location": "Ollon VD"}, "Run to Run de Carouge": {"latitude": 46.1829674, "longitude": 6.1378539, "race": "Run to Run de Carouge", "date": {"sam. 27.09.2014": {"year": 2014, "day": 27, "month": 9, "categories": {"5-Hom2": {"distance": 5, "rank": 6, "pace": 228000000000, "time": 1142.1}}, "weekday": "saturday", "livingplace": "Grandson"}}, "location": "Carouge GE"}, "Morat-Fribourg": {"latitude": 46.92922110000001, "longitude": 7.120184, "race": "Morat-Fribourg", "date": {"sam. 03.10.2009": {"year": 2009, "day": 3, "month": 10, "categories": {"C-M20": {"distance": 17, "rank": 53, "pace": 236000000000, "time": 4061.9}}, "weekday": "saturday", "livingplace": "Vandoeuvres"}}, "location": "Murten"}, "BCN Tour #6 Neuch\u00e2tel": {"latitude": 46.9899874, "longitude": 6.9292732, "race": "BCN Tour #6 Neuch\u00e2tel", "date": {"mer. 29.05.2013": {"year": 2013, "day": 29, "month": 5, "categories": {"HS2": {"distance": 11, "rank": 28, "pace": 255000000000, "time": 2810.0}}, "weekday": "wednesday", "livingplace": "Vandoeuvres"}}, "location": "Neuch\u00e2tel"}, "BCN Tour #5 Colombier": {"latitude": 46.9262933, "longitude": 6.6324944, "race": "BCN Tour #5 Colombier", "date": {"mer. 22.05.2013": {"year": 2013, "day": 22, "month": 5, "categories": {"HS2": {"distance": 11, "rank": 26, "pace": 228000000000, "time": 2404.1}}, "weekday": "wednesday", "livingplace": "Vandoeuvres"}}, "location": "Couvet"}, "BCN Tour Ponts-de-Martel": {"latitude": 47.0624261, "longitude": 6.9175754, "race": "BCN Tour Ponts-de-Martel", "date": {"mer. 28.04.2010": {"year": 2010, "day": 28, "month": 4, "categories": {"HS1": {"distance": 11, "rank": 14, "pace": 243000000000, "time": 2723.8}}, "weekday": "wednesday", "livingplace": "Vandoeuvres"}}, "location": "Ch\u00e9zard-St-Martin"}, "Hallwilerseelauf, Beinwil am See": {"latitude": NaN, "longitude": NaN, "race": "Hallwilerseelauf, Beinwil am See", "date": {"sam. 15.10.2011": {"year": 2011, "day": 15, "month": 10, "categories": {"21-M30": {"distance": 21, "rank": 70, "pace": 243000000000, "time": 5133.7}}, "weekday": "saturday", "livingplace": "Vandoeuvres"}}, "location": "Beinwil am See"}, "Course de l'Escalade, Gen\u00e8ve": {"latitude": 46.2043907, "longitude": 6.1431577, "race": "Course de l'Escalade, Gen\u00e8ve", "date": {"sam. 03.12.2011": {"year": 2011, "day": 3, "month": 12, "categories": {"H-Elite": {"distance": 7, "rank": 156, "pace": 224000000000, "time": 1628.4}}, "weekday": "saturday", "livingplace": "Vandoeuvres"}, "sam. 07.12.2013": {"year": 2013, "day": 7, "month": 12, "categories": {"Esc-Hom3": {"distance": 7, "rank": 35, "pace": 227000000000, "time": 1650.9}}, "weekday": "saturday", "livingplace": "Grandson"}, "sam. 04.12.2010": {"year": 2010, "day": 4, "month": 12, "categories": {"H-H2": {"distance": 7, "rank": 27, "pace": 212000000000, "time": 1540.8}}, "weekday": "saturday", "livingplace": "Vandoeuvres"}, "sam. 06.12.2014": {"year": 2014, "day": 6, "month": 12, "categories": {"Esc-Hom3": {"distance": 7, "rank": 54, "pace": 236000000000, "time": 1734.6}}, "weekday": "saturday", "livingplace": "Grandson"}}, "location": "Gen\u00e8ve"}, "BCN Tour Auvernier": {"latitude": 46.9668714, "longitude": 6.8589727, "race": "BCN Tour Auvernier", "date": {"mer. 20.04.2011": {"year": 2011, "day": 20, "month": 4, "categories": {"HS1": {"distance": 11, "rank": 32, "pace": 260000000000, "time": 2816.2}}, "weekday": "wednesday", "livingplace": "Vandoeuvres"}}, "location": "Colombier NE"}, "BCN Tour Colombier": {"latitude": 46.9668714, "longitude": 6.8589727, "race": "BCN Tour Colombier", "date": {"mer. 21.04.2010": {"year": 2010, "day": 21, "month": 4, "categories": {"HS1": {"distance": 10, "rank": 14, "pace": 259000000000, "time": 2590.0}}, "weekday": "wednesday", "livingplace": "Vandoeuvres"}}, "location": "Colombier NE"}}, "birth": 1972}