{"name": "Nothofer Kalle", "sex": "M", "races": {"Hallwilerseelauf, Beinwil am See": {"latitude": NaN, "longitude": NaN, "race": "Hallwilerseelauf, Beinwil am See", "date": {"sam. 10.10.2015": {"year": 2015, "day": 10, "month": 10, "categories": {"21-M50": {"distance": 21, "rank": 171, "pace": 293000000000, "time": 6194.9}}, "weekday": "saturday", "livingplace": "Sissach"}}, "location": "Beinwil am See"}, "Lausanne Marathon": {"latitude": 46.5196535, "longitude": 6.6322734, "race": "Lausanne Marathon", "date": {"dim. 30.10.2011": {"year": 2011, "day": 30, "month": 10, "categories": {"42-H3": {"distance": 42, "rank": 156, "pace": 314000000000, "time": 13270.6}}, "weekday": "sunday", "livingplace": "Diepflingen"}}, "location": "Lausanne"}, "Morat-Fribourg": {"latitude": 46.92922110000001, "longitude": 7.120184, "race": "Morat-Fribourg", "date": {"sam. 02.10.2010": {"year": 2010, "day": 2, "month": 10, "categories": {"17-M45": {"distance": 17, "rank": 194, "pace": 290000000000, "time": 4984.8}}, "weekday": "saturday", "livingplace": "Diepflingen"}}, "location": "Murten"}, "IWB Basel Marathon": {"latitude": 47.5595986, "longitude": 7.5885761, "race": "IWB Basel Marathon", "date": {"dim. 11.09.2011": {"year": 2011, "day": 11, "month": 9, "categories": {"M-42-M45": {"distance": 42, "rank": 21, "pace": 330000000000, "time": 13934.9}}, "weekday": "sunday", "livingplace": "Diepflingen"}}, "location": "Basel"}, "Birslauf Basel": {"latitude": 47.5595986, "longitude": 7.5885761, "race": "Birslauf Basel", "date": {"sam. 24.03.2007": {"year": 2007, "day": 24, "month": 3, "categories": {"M\u00e4nner": {"distance": 10, "rank": 186, "pace": 270000000000, "time": 2706.0}}, "weekday": "saturday", "livingplace": "Diepflingen"}}, "location": "Basel"}, "Birslauf (Herbst), Basel": {"latitude": 47.5595986, "longitude": 7.5885761, "race": "Birslauf (Herbst), Basel", "date": {"sam. 26.08.2006": {"year": 2006, "day": 26, "month": 8, "categories": {"M\u00e4nner": {"distance": 10, "rank": 150, "pace": 281000000000, "time": 2817.7}}, "weekday": "saturday", "livingplace": "Diepflingen"}}, "location": "Basel"}, "Gempenlauf, Dornach": {"latitude": 47.4790491, "longitude": 7.6170412, "race": "Gempenlauf, Dornach", "date": {"mer. 08.06.2011": {"year": 2011, "day": 8, "month": 6, "categories": {"M45": {"distance": 8, "rank": 39, "pace": 331000000000, "time": 2583.3}}, "weekday": "wednesday", "livingplace": "Diepflingen"}}, "location": "Dornach"}, "Dreil\u00e4nder-Lauf, Basel": {"latitude": 47.5595986, "longitude": 7.5885761, "race": "Dreil\u00e4nder-Lauf, Basel", "date": {"dim. 18.05.2008": {"year": 2008, "day": 18, "month": 5, "categories": {"21M40": {"distance": 21, "rank": 109, "pace": 310000000000, "time": 6541.3}}, "weekday": "sunday", "livingplace": "Diepflingen"}}, "location": "Basel"}, "Z\u00fcrcher Silvesterlauf, Z\u00fcrich": {"latitude": 47.3768866, "longitude": 8.541694, "race": "Z\u00fcrcher Silvesterlauf, Z\u00fcrich", "date": {"dim. 14.12.2008": {"year": 2008, "day": 14, "month": 12, "categories": {"MenAK2-8": {"distance": 9, "rank": 470, "pace": 277000000000, "time": 2384.9}}, "weekday": "sunday", "livingplace": "Diepflingen"}}, "location": "Z\u00fcrich"}}, "birth": 1964}