{"name": "Nydegger Thomas", "sex": "M", "races": {"Thuner Stadtlauf, Thun": {"latitude": 46.7579868, "longitude": 7.6279881, "race": "Thuner Stadtlauf, Thun", "date": {"dim. 26.08.2007": {"year": 2007, "day": 26, "month": 8, "categories": {"10/M20": {"distance": 10, "rank": 29, "pace": 249000000000, "time": 2498.4}}, "weekday": "sunday", "livingplace": "Frutigen"}, "dim. 25.08.2013": {"year": 2013, "day": 25, "month": 8, "categories": {"5-VolksM": {"distance": 5, "rank": 15, "pace": 218000000000, "time": 1091.6}}, "weekday": "sunday", "livingplace": "Thun"}}, "location": "Thun"}, "ASICS Bremgarter Reusslauf": {"latitude": 47.34917739999999, "longitude": 8.3397905, "race": "ASICS Bremgarter Reusslauf", "date": {"sam. 22.02.2014": {"year": 2014, "day": 22, "month": 2, "categories": {"11-M20": {"distance": 11, "rank": 122, "pace": 267000000000, "time": 2943.7}}, "weekday": "saturday", "livingplace": "Thun"}}, "location": "Bremgarten AG"}, "Laufsporttag Winterthur": {"latitude": 39.8088766, "longitude": -75.6037351, "race": "Laufsporttag Winterthur", "date": {"sam. 04.03.2006": {"year": 2006, "day": 4, "month": 3, "categories": {"A": {"distance": 11, "rank": 19, "pace": 262000000000, "time": 2882.2}}, "weekday": "saturday", "livingplace": "Frutigen"}, "sam. 05.03.2005": {"year": 2005, "day": 5, "month": 3, "categories": {"A": {"distance": 11, "rank": 33, "pace": 327000000000, "time": 3599.8}}, "weekday": "saturday", "livingplace": "Frutigen"}}, "location": "Winterthur"}, "Badener Limmat-Lauf, Baden": {"latitude": 48.5699281, "longitude": 8.5303972, "race": "Badener Limmat-Lauf, Baden", "date": {"sam. 09.04.2005": {"year": 2005, "day": 9, "month": 4, "categories": {"11": {"distance": 13, "rank": 31, "pace": 280000000000, "time": 3695.0}}, "weekday": "saturday", "livingplace": "Frutigen"}}, "location": "Baden"}, "Gurtenclassic, Wabern": {"latitude": 46.92901639999999, "longitude": 7.448973199999999, "race": "Gurtenclassic, Wabern", "date": {"dim. 06.11.2005": {"year": 2005, "day": 6, "month": 11, "categories": {"KM20": {"distance": 8, "rank": 48, "pace": 296000000000, "time": 2490.4}}, "weekday": "sunday", "livingplace": "Frutigen"}, "dim. 07.11.2010": {"year": 2010, "day": 7, "month": 11, "categories": {"KM20": {"distance": 8, "rank": 49, "pace": 296000000000, "time": 2490.7}}, "weekday": "sunday", "livingplace": "Wabern"}, "dim. 04.11.2007": {"year": 2007, "day": 4, "month": 11, "categories": {"KM20": {"distance": 8, "rank": 58, "pace": 299000000000, "time": 2517.3}}, "weekday": "sunday", "livingplace": "Frutigen"}}, "location": "Wabern"}, "Int Greifenseelauf, Uster": {"latitude": 47.3482747, "longitude": 8.717873899999999, "race": "Int Greifenseelauf, Uster", "date": {"sam. 22.09.2007": {"year": 2007, "day": 22, "month": 9, "categories": {"H/M20": {"distance": 21, "rank": 154, "pace": 283000000000, "time": 5992.3}}, "weekday": "saturday", "livingplace": "Frutigen"}}, "location": "Uster"}}, "birth": 1985}