{"name": "Oberholzer St\u00e9phanie", "sex": "F", "races": {"Tour du Chablais #6 Mouthey": {"latitude": 46.3190253, "longitude": 6.970566, "race": "Tour du Chablais #6 Mouthey", "date": {"mer. 12.05.2010": {"year": 2010, "day": 12, "month": 5, "categories": {"F-F20": {"distance": 9, "rank": 13, "pace": 263000000000, "time": 2425.7}}, "weekday": "wednesday", "livingplace": "Collombey"}}, "location": "Aigle"}, "Morat-Fribourg": {"latitude": 46.92922110000001, "longitude": 7.120184, "race": "Morat-Fribourg", "date": {"sam. 02.10.2010": {"year": 2010, "day": 2, "month": 10, "categories": {"17-W20": {"distance": 17, "rank": 60, "pace": 305000000000, "time": 5237.1}}, "weekday": "saturday", "livingplace": "Collombey"}, "sam. 01.10.2011": {"year": 2011, "day": 1, "month": 10, "categories": {"17-W20": {"distance": 17, "rank": 32, "pace": 281000000000, "time": 4835.1}}, "weekday": "saturday", "livingplace": "Collombey"}}, "location": "Murten"}, "20km de Lausanne": {"latitude": 46.5196535, "longitude": 6.6322734, "race": "20km de Lausanne", "date": {"sam. 28.04.2012": {"year": 2012, "day": 28, "month": 4, "categories": {"20-F30": {"distance": 20, "rank": 18, "pace": 286000000000, "time": 5734.5}}, "weekday": "saturday", "livingplace": "Collombey"}}, "location": "Lausanne"}, "Tour du Chablais #4 St  Maurice": {"latitude": NaN, "longitude": NaN, "race": "Tour du Chablais #4 St  Maurice", "date": {"mer. 24.04.2013": {"year": 2013, "day": 24, "month": 4, "categories": {"F-F20": {"distance": 10, "rank": 7, "pace": 252000000000, "time": 2529.8}}, "weekday": "wednesday", "livingplace": "Collombey"}}, "location": "Les Mosses"}, "Tour du Chablais #2 Yvorne": {"latitude": 46.3835529, "longitude": 6.854975199999999, "race": "Tour du Chablais #2 Yvorne", "date": {"mer. 10.04.2013": {"year": 2013, "day": 10, "month": 4, "categories": {"F-F20": {"distance": 8, "rank": 10, "pace": 271000000000, "time": 2169.2}}, "weekday": "wednesday", "livingplace": "Collombey"}}, "location": "Bouveret"}, "Tour du Chablais #3 Bouveret": {"latitude": 46.1782231, "longitude": 7.0223787, "race": "Tour du Chablais #3 Bouveret", "date": {"mer. 17.04.2013": {"year": 2013, "day": 17, "month": 4, "categories": {"F-F20": {"distance": 10, "rank": 9, "pace": 253000000000, "time": 2534.9}}, "weekday": "wednesday", "livingplace": "Collombey"}}, "location": "Evionnaz"}, "Tour du Chablais #5 Morgins": {"latitude": 46.3603257, "longitude": 6.931504599999999, "race": "Tour du Chablais #5 Morgins", "date": {"mer. 01.05.2013": {"year": 2013, "day": 1, "month": 5, "categories": {"F-F20": {"distance": 8, "rank": 6, "pace": 260000000000, "time": 1981.3}}, "weekday": "wednesday", "livingplace": "Collombey"}}, "location": "Roche VD"}}, "birth": 1982}