{"name": "Oehler Pascal", "sex": "M", "races": {"Lausanne Marathon": {"latitude": 46.5196535, "longitude": 6.6322734, "race": "Lausanne Marathon", "date": {"dim. 26.10.2014": {"year": 2014, "day": 26, "month": 10, "categories": {"42-H20": {"distance": 42, "rank": 61, "pace": 326000000000, "time": 13794.1}}, "weekday": "sunday", "livingplace": "Buchs"}}, "location": "Lausanne"}, "Thuner Stadtlauf, Thun": {"latitude": 46.7579868, "longitude": 7.6279881, "race": "Thuner Stadtlauf, Thun", "date": {"dim. 26.08.2012": {"year": 2012, "day": 26, "month": 8, "categories": {"10-M20": {"distance": 10, "rank": 26, "pace": 248000000000, "time": 2489.8}}, "weekday": "sunday", "livingplace": "Carouge"}}, "location": "Thun"}, "Basler Stadtlauf": {"latitude": 47.5595986, "longitude": 7.5885761, "race": "Basler Stadtlauf", "date": {"sam. 24.11.2012": {"year": 2012, "day": 24, "month": 11, "categories": {"M20": {"distance": 6, "rank": 95, "pace": 232000000000, "time": 1279.9}}, "weekday": "saturday", "livingplace": "Buchs"}}, "location": "Basel"}, "Birslauf Basel": {"latitude": 47.5595986, "longitude": 7.5885761, "race": "Birslauf Basel", "date": {"sam. 05.04.2014": {"year": 2014, "day": 5, "month": 4, "categories": {"M\u00e4nner": {"distance": 10, "rank": 85, "pace": 242000000000, "time": 2420.6}}, "weekday": "saturday", "livingplace": "Buchs"}}, "location": "Basel"}, "Muttenzer Herbstlauf": {"latitude": 47.5279292, "longitude": 7.6476369, "race": "Muttenzer Herbstlauf", "date": {"dim. 28.10.2012": {"year": 2012, "day": 28, "month": 10, "categories": {"10-M20": {"distance": 10, "rank": 1, "pace": 235000000000, "time": 2359.1}}, "weekday": "sunday", "livingplace": "Buchs"}}, "location": "Muttenz"}, "Hallwilerseelauf, Beinwil am See": {"latitude": NaN, "longitude": NaN, "race": "Hallwilerseelauf, Beinwil am See", "date": {"sam. 13.10.2012": {"year": 2012, "day": 13, "month": 10, "categories": {"10-Mann": {"distance": 10, "rank": 34, "pace": 228000000000, "time": 2289.1}}, "weekday": "saturday", "livingplace": "Buchs"}}, "location": "Beinwil am See"}, "Z\u00fcrcher Silvesterlauf, Z\u00fcrich": {"latitude": 47.3768866, "longitude": 8.541694, "race": "Z\u00fcrcher Silvesterlauf, Z\u00fcrich", "date": {"dim. 16.12.2012": {"year": 2012, "day": 16, "month": 12, "categories": {"8-MM20": {"distance": 9, "rank": 836, "pace": 426000000000, "time": 3668.1}}, "weekday": "sunday", "livingplace": "Buchs"}}, "location": "Z\u00fcrich"}}, "birth": 1990}