{"name": "O'Neel Bruce", "sex": "M", "races": {"Tour du pays de Vaud #1 - Penthaz": {"latitude": 46.5993131, "longitude": 6.539251200000001, "race": "Tour du pays de Vaud #1 - Penthaz", "date": {"mer. 08.08.2012": {"year": 2012, "day": 8, "month": 8, "categories": {"H-Sen2": {"distance": 9, "rank": 167, "pace": 408000000000, "time": 3485.0}}, "weekday": "wednesday", "livingplace": "Genolier"}}, "location": "Penthaz"}, "Tour du pays de Vaud #6 - St  Prex": {"latitude": 46.4829113, "longitude": 6.458343500000001, "race": "Tour du pays de Vaud #6 - St  Prex", "date": {"mer. 14.09.2011": {"year": 2011, "day": 14, "month": 9, "categories": {"H-Sen2": {"distance": 9, "rank": 202, "pace": 355000000000, "time": 3054.6}}, "weekday": "wednesday", "livingplace": "Genolier"}}, "location": "St-Prex"}, "Tour du pays de Vaud #1 - Mezi\u00e8res": {"latitude": 46.7784736, "longitude": 6.641183, "race": "Tour du pays de Vaud #1 - Mezi\u00e8res", "date": {"mer. 10.08.2011": {"year": 2011, "day": 10, "month": 8, "categories": {"H-Sen2": {"distance": 9, "rank": 185, "pace": 350000000000, "time": 2983.3}}, "weekday": "wednesday", "livingplace": "Genolier"}}, "location": "Yverdon-les-Bains"}, "Tour du Pays de Vaud #3 - Mezi\u00e8res": {"latitude": 46.7784736, "longitude": 6.641183, "race": "Tour du Pays de Vaud #3 - Mezi\u00e8res", "date": {"mer. 22.08.2012": {"year": 2012, "day": 22, "month": 8, "categories": {"H-Sen2": {"distance": 8, "rank": 184, "pace": 434000000000, "time": 3651.2}}, "weekday": "wednesday", "livingplace": "Genolier"}}, "location": "Yverdon-les-Bains"}, "20km de Lausanne": {"latitude": 46.5196535, "longitude": 6.6322734, "race": "20km de Lausanne", "date": {"sam. 30.04.2011": {"year": 2011, "day": 30, "month": 4, "categories": {"20-H45": {"distance": 20, "rank": 418, "pace": 415000000000, "time": 8319.0}}, "weekday": "saturday", "livingplace": "Genolier"}, "sam. 25.04.2015": {"year": 2015, "day": 25, "month": 4, "categories": {"10-H50": {"distance": 10, "rank": 382, "pace": 426000000000, "time": 4263.7}}, "weekday": "saturday", "livingplace": "Genolier"}, "sam. 27.04.2013": {"year": 2013, "day": 27, "month": 4, "categories": {"20-H50": {"distance": 20, "rank": 247, "pace": 426000000000, "time": 8520.4}}, "weekday": "saturday", "livingplace": "Genolier"}, "sam. 28.04.2012": {"year": 2012, "day": 28, "month": 4, "categories": {"10-H45": {"distance": 10, "rank": 398, "pace": 394000000000, "time": 3941.9}}, "weekday": "saturday", "livingplace": "Genolier"}, "sam. 26.04.2014": {"year": 2014, "day": 26, "month": 4, "categories": {"10-H50": {"distance": 10, "rank": 329, "pace": 442000000000, "time": 4420.1}}, "weekday": "saturday", "livingplace": "Henniez"}}, "location": "Lausanne"}, "BCN Tour Couvet": {"latitude": 47.0624261, "longitude": 6.9175754, "race": "BCN Tour Couvet", "date": {"mer. 02.05.2012": {"year": 2012, "day": 2, "month": 5, "categories": {"HS2": {"distance": 11, "rank": 321, "pace": 445000000000, "time": 4963.2}}, "weekday": "wednesday", "livingplace": "Genolier"}}, "location": "Ch\u00e9zard-St-Martin"}, "Tour du Pays de Vaud #2 - Genolier": {"latitude": 46.5955273, "longitude": 6.7702883, "race": "Tour du Pays de Vaud #2 - Genolier", "date": {"mer. 15.08.2012": {"year": 2012, "day": 15, "month": 8, "categories": {"H-Sen2": {"distance": 9, "rank": 164, "pace": 391000000000, "time": 3329.3}}, "weekday": "wednesday", "livingplace": "Genolier"}, "mer. 17.08.2011": {"year": 2011, "day": 17, "month": 8, "categories": {"H-Sen2": {"distance": 9, "rank": 164, "pace": 377000000000, "time": 3204.7}}, "weekday": "wednesday", "livingplace": "Genolier"}}, "location": "M\u00e9zi\u00e8res VD"}, "Tour du pays de Vaud #5 - Penthaz": {"latitude": 46.5993131, "longitude": 6.539251200000001, "race": "Tour du pays de Vaud #5 - Penthaz", "date": {"mer. 07.09.2011": {"year": 2011, "day": 7, "month": 9, "categories": {"H-Sen2": {"distance": 8, "rank": 156, "pace": 417000000000, "time": 3485.3}}, "weekday": "wednesday", "livingplace": "Genolier"}}, "location": "Penthaz"}, "BCN Tour La Chaux-de-Fonds": {"latitude": 46.9262933, "longitude": 6.6324944, "race": "BCN Tour La Chaux-de-Fonds", "date": {"mer. 23.05.2012": {"year": 2012, "day": 23, "month": 5, "categories": {"HS2": {"distance": 11, "rank": 335, "pace": 447000000000, "time": 4831.1}}, "weekday": "wednesday", "livingplace": "Genolier"}}, "location": "Couvet"}, "BCN Tour Neuch\u00e2tel": {"latitude": 46.9899874, "longitude": 6.9292732, "race": "BCN Tour Neuch\u00e2tel", "date": {"mer. 30.05.2012": {"year": 2012, "day": 30, "month": 5, "categories": {"HS2": {"distance": 11, "rank": 342, "pace": 454000000000, "time": 5092.3}}, "weekday": "wednesday", "livingplace": "Genolier"}}, "location": "Neuch\u00e2tel"}, "Lausanne Marathon": {"latitude": 46.5196535, "longitude": 6.6322734, "race": "Lausanne Marathon", "date": {"dim. 30.10.2011": {"year": 2011, "day": 30, "month": 10, "categories": {"42-H3": {"distance": 42, "rank": 397, "pace": 465000000000, "time": 19653.8}}, "weekday": "sunday", "livingplace": "Genolier"}, "dim. 28.10.2012": {"year": 2012, "day": 28, "month": 10, "categories": {"42-H3": {"distance": 42, "rank": 389, "pace": 520000000000, "time": 21978.0}}, "weekday": "sunday", "livingplace": "Genolier"}}, "location": "Lausanne"}, "Course de l'Escalade, Gen\u00e8ve": {"latitude": 46.2043907, "longitude": 6.1431577, "race": "Course de l'Escalade, Gen\u00e8ve", "date": {"sam. 01.12.2012": {"year": 2012, "day": 1, "month": 12, "categories": {"Esc-Hom3": {"distance": 7, "rank": 1403, "pace": 397000000000, "time": 2885.4}}, "weekday": "saturday", "livingplace": "Genolier"}}, "location": "Gen\u00e8ve"}, "Tour du Pays de Vaud #4 - La Sarraz": {"latitude": 46.7088129, "longitude": 6.5707689, "race": "Tour du Pays de Vaud #4 - La Sarraz", "date": {"mer. 29.08.2012": {"year": 2012, "day": 29, "month": 8, "categories": {"H-Sen2": {"distance": 9, "rank": 171, "pace": 379000000000, "time": 3229.0}}, "weekday": "wednesday", "livingplace": "Genolier"}}, "location": "Chavornay"}, "BCN Tour Cornaux": {"latitude": 46.9668714, "longitude": 6.8589727, "race": "BCN Tour Cornaux", "date": {"mer. 25.04.2012": {"year": 2012, "day": 25, "month": 4, "categories": {"HS2": {"distance": 11, "rank": 323, "pace": 484000000000, "time": 5332.0}}, "weekday": "wednesday", "livingplace": "Genolier"}}, "location": "Colombier NE"}}, "birth": 1963}