{"name": "Ory Patrick", "sex": "M", "races": {"Tour de Presinge": {"latitude": 46.21860299999999, "longitude": 6.2535283, "race": "Tour de Presinge", "date": {"dim. 16.03.2014": {"year": 2014, "day": 16, "month": 3, "categories": {"10-Hom2": {"distance": 10, "rank": 24, "pace": 247000000000, "time": 2472.5}}, "weekday": "sunday", "livingplace": "Ville la Grand"}, "dim. 15.03.2015": {"year": 2015, "day": 15, "month": 3, "categories": {"10-Hom2": {"distance": 10, "rank": 28, "pace": 255000000000, "time": 2557.1}}, "weekday": "sunday", "livingplace": "Ville la Grand"}}, "location": "Presinge"}, "Run to Run de Carouge": {"latitude": 46.1829674, "longitude": 6.1378539, "race": "Run to Run de Carouge", "date": {"sam. 27.09.2014": {"year": 2014, "day": 27, "month": 9, "categories": {"10-Hom2": {"distance": 10, "rank": 32, "pace": 247000000000, "time": 2473.4}}, "weekday": "saturday", "livingplace": "Ville la Grand"}}, "location": "Carouge GE"}, "Lausanne Marathon": {"latitude": 46.5196535, "longitude": 6.6322734, "race": "Lausanne Marathon", "date": {"sam. 24.10.2015": {"year": 2015, "day": 24, "month": 10, "categories": {"42-H40": {"distance": 42, "rank": 194, "pace": 337000000000, "time": 14238.7}}, "weekday": "saturday", "livingplace": "Ville la Grand"}}, "location": "Lausanne"}, "Course de l'Escalade, Gen\u00e8ve": {"latitude": 46.2043907, "longitude": 6.1431577, "race": "Course de l'Escalade, Gen\u00e8ve", "date": {"sam. 06.12.2014": {"year": 2014, "day": 6, "month": 12, "categories": {"Elite-M": {"distance": 7, "rank": 371, "pace": 245000000000, "time": 1799.0}}, "weekday": "saturday", "livingplace": "Ville la Grand"}, "sam. 07.12.2013": {"year": 2013, "day": 7, "month": 12, "categories": {"Esc-Hom3": {"distance": 7, "rank": 111, "pace": 247000000000, "time": 1793.6}}, "weekday": "saturday", "livingplace": "Ville la Grand"}, "sam. 01.12.2012": {"year": 2012, "day": 1, "month": 12, "categories": {"Esc-Hom3": {"distance": 7, "rank": 172, "pace": 263000000000, "time": 1909.6}}, "weekday": "saturday", "livingplace": "Ville la Grand"}}, "location": "Gen\u00e8ve"}, "20km de Lausanne": {"latitude": 46.5196535, "longitude": 6.6322734, "race": "20km de Lausanne", "date": {"sam. 25.04.2015": {"year": 2015, "day": 25, "month": 4, "categories": {"20-H40": {"distance": 20, "rank": 88, "pace": 264000000000, "time": 5281.1}}, "weekday": "saturday", "livingplace": "Ville la Grand"}, "sam. 26.04.2014": {"year": 2014, "day": 26, "month": 4, "categories": {"20-H40": {"distance": 20, "rank": 61, "pace": 259000000000, "time": 5190.4}}, "weekday": "saturday", "livingplace": "Ville la Grand"}}, "location": "Lausanne"}, "Morat-Fribourg": {"latitude": 46.92922110000001, "longitude": 7.120184, "race": "Morat-Fribourg", "date": {"sam. 03.10.2015": {"year": 2015, "day": 3, "month": 10, "categories": {"17-M40": {"distance": 17, "rank": 149, "pace": 278000000000, "time": 4790.3}}, "weekday": "saturday", "livingplace": "Ville la Grand"}}, "location": "Murten"}}, "birth": 1971}