{"name": "Othenin-Girard Alain", "sex": "M", "races": {"Tour du Pays de Vaud printanier #2 Yverdon-les-Bains": {"latitude": 46.6698891, "longitude": 6.7975224, "race": "Tour du Pays de Vaud printanier #2 Yverdon-les-Bains", "date": {"mer. 05.06.2013": {"year": 2013, "day": 5, "month": 6, "categories": {"H-Sen1": {"distance": 9, "rank": 83, "pace": 353000000000, "time": 3220.3}}, "weekday": "wednesday", "livingplace": "Grandson"}}, "location": "Moudon"}, "Morat-Fribourg": {"latitude": 46.92922110000001, "longitude": 7.120184, "race": "Morat-Fribourg", "date": {"sam. 05.10.2013": {"year": 2013, "day": 5, "month": 10, "categories": {"17-M20": {"distance": 17, "rank": 2161, "pace": 366000000000, "time": 6388.1}}, "weekday": "saturday", "livingplace": "Grandson"}}, "location": "Murten"}, "La Trotteuse-Tissot, La Chaux-de-Fonds": {"latitude": 47.1034892, "longitude": 6.832783800000001, "race": "La Trotteuse-Tissot, La Chaux-de-Fonds", "date": {"sam. 13.12.2014": {"year": 2014, "day": 13, "month": 12, "categories": {"GC-H30": {"distance": 8, "rank": 140, "pace": 289000000000, "time": 2318.9}}, "weekday": "saturday", "livingplace": "La Chaux de Fonds"}}, "location": "La Chaux-de-Fonds"}, "BCN Tour #1 Corcelles": {"latitude": 46.9668714, "longitude": 6.8589727, "race": "BCN Tour #1 Corcelles", "date": {"mer. 24.04.2013": {"year": 2013, "day": 24, "month": 4, "categories": {"HS1": {"distance": 10, "rank": 214, "pace": 322000000000, "time": 3164.4}}, "weekday": "wednesday", "livingplace": "Grandson"}}, "location": "Colombier NE"}, "BCN Tour #4 Fleurier": {"latitude": 47.1034892, "longitude": 6.832783800000001, "race": "BCN Tour #4 Fleurier", "date": {"mer. 15.05.2013": {"year": 2013, "day": 15, "month": 5, "categories": {"HS1": {"distance": 9, "rank": 192, "pace": 318000000000, "time": 2752.0}}, "weekday": "wednesday", "livingplace": "Grandson"}}, "location": "La Chaux-de-Fonds"}, "BCN Tour #2 La Chaux-de-Fonds": {"latitude": 47.0624261, "longitude": 6.9175754, "race": "BCN Tour #2 La Chaux-de-Fonds", "date": {"mer. 01.05.2013": {"year": 2013, "day": 1, "month": 5, "categories": {"HS1": {"distance": 11, "rank": 216, "pace": 309000000000, "time": 3311.4}}, "weekday": "wednesday", "livingplace": "Grandson"}}, "location": "Ch\u00e9zard-St-Martin"}, "Tour du Pays de Vaud #4, La Sarraz": {"latitude": 46.7088129, "longitude": 6.5707689, "race": "Tour du Pays de Vaud #4, La Sarraz", "date": {"mer. 03.09.2014": {"year": 2014, "day": 3, "month": 9, "categories": {"H-Sen1": {"distance": 9, "rank": 85, "pace": 289000000000, "time": 2457.1}}, "weekday": "wednesday", "livingplace": "La Chaux de Fonds"}}, "location": "Chavornay"}, "BCN Tour #6 Neuch\u00e2tel": {"latitude": 46.9899874, "longitude": 6.9292732, "race": "BCN Tour #6 Neuch\u00e2tel", "date": {"mer. 29.05.2013": {"year": 2013, "day": 29, "month": 5, "categories": {"HS1": {"distance": 11, "rank": 236, "pace": 354000000000, "time": 3897.3}}, "weekday": "wednesday", "livingplace": "Grandson"}}, "location": "Neuch\u00e2tel"}, "Tour du Pays de Vaud #2, Mezi\u00e8res": {"latitude": 46.5955273, "longitude": 6.7702883, "race": "Tour du Pays de Vaud #2, Mezi\u00e8res", "date": {"mer. 20.08.2014": {"year": 2014, "day": 20, "month": 8, "categories": {"H-Sen1": {"distance": 8, "rank": 84, "pace": 320000000000, "time": 2592.5}}, "weekday": "wednesday", "livingplace": "Grandson"}}, "location": "M\u00e9zi\u00e8res VD"}, "BCN Tour #5 Colombier": {"latitude": 46.9262933, "longitude": 6.6324944, "race": "BCN Tour #5 Colombier", "date": {"mer. 22.05.2013": {"year": 2013, "day": 22, "month": 5, "categories": {"HS1": {"distance": 11, "rank": 221, "pace": 298000000000, "time": 3134.3}}, "weekday": "wednesday", "livingplace": "Grandson"}}, "location": "Couvet"}, "Tour du Pays de Vaud #4 - La Sarraz": {"latitude": 46.7088129, "longitude": 6.5707689, "race": "Tour du Pays de Vaud #4 - La Sarraz", "date": {"mer. 04.09.2013": {"year": 2013, "day": 4, "month": 9, "categories": {"H-Sen1": {"distance": 9, "rank": 122, "pace": 328000000000, "time": 2790.6}}, "weekday": "wednesday", "livingplace": "Grandson"}}, "location": "Chavornay"}, "BCN Tour #3 Dombresson": {"latitude": 46.999113, "longitude": 6.733554799999999, "race": "BCN Tour #3 Dombresson", "date": {"mer. 08.05.2013": {"year": 2013, "day": 8, "month": 5, "categories": {"HS1": {"distance": 10, "rank": 212, "pace": 304000000000, "time": 3017.0}}, "weekday": "wednesday", "livingplace": "Grandson"}}, "location": "Les Ponts-de-Martel"}}, "birth": 1981}