{"name": "Ott Gosia", "sex": "F", "races": {"Tour du Chablais #1 Roche": {"latitude": 46.2957462, "longitude": 6.9916269, "race": "Tour du Chablais #1 Roche", "date": {"mer. 03.04.2013": {"year": 2013, "day": 3, "month": 4, "categories": {"F-F20": {"distance": 9, "rank": 88, "pace": 329000000000, "time": 2915.5}}, "weekday": "wednesday", "livingplace": "Leysin"}}, "location": "Ollon VD"}, "Tour du Chablais #6 Monthey": {"latitude": 46.3190253, "longitude": 6.970566, "race": "Tour du Chablais #6 Monthey", "date": {"mer. 08.05.2013": {"year": 2013, "day": 8, "month": 5, "categories": {"F-F20": {"distance": 9, "rank": 69, "pace": 314000000000, "time": 2936.6}}, "weekday": "wednesday", "livingplace": "Leysin"}}, "location": "Aigle"}, "Tour du Chablais #2 Yvorne": {"latitude": 46.3835529, "longitude": 6.854975199999999, "race": "Tour du Chablais #2 Yvorne", "date": {"mer. 10.04.2013": {"year": 2013, "day": 10, "month": 4, "categories": {"F-F20": {"distance": 8, "rank": 96, "pace": 371000000000, "time": 2971.8}}, "weekday": "wednesday", "livingplace": "Leysin"}}, "location": "Bouveret"}, "Tour du Chablais #3 Bouveret": {"latitude": 46.1782231, "longitude": 7.0223787, "race": "Tour du Chablais #3 Bouveret", "date": {"mer. 17.04.2013": {"year": 2013, "day": 17, "month": 4, "categories": {"F-F20": {"distance": 10, "rank": 70, "pace": 324000000000, "time": 3249.1}}, "weekday": "wednesday", "livingplace": "Leysin"}}, "location": "Evionnaz"}, "Tour du Chablais #5 Morgins": {"latitude": 46.3603257, "longitude": 6.931504599999999, "race": "Tour du Chablais #5 Morgins", "date": {"mer. 01.05.2013": {"year": 2013, "day": 1, "month": 5, "categories": {"F-F20": {"distance": 8, "rank": 63, "pace": 340000000000, "time": 2587.6}}, "weekday": "wednesday", "livingplace": "Leysin"}}, "location": "Roche VD"}}, "birth": 1978}