{"name": "\u00d6zdemir Can", "sex": "M", "races": {"BCN Tour Les Ponts de Martel": {"latitude": 46.9262933, "longitude": 6.6324944, "race": "BCN Tour Les Ponts de Martel", "date": {"mer. 18.05.2011": {"year": 2011, "day": 18, "month": 5, "categories": {"HE": {"distance": 13, "rank": 181, "pace": 371000000000, "time": 4758.4}}, "weekday": "wednesday", "livingplace": "Neuchatel"}}, "location": "Couvet"}, "BCN Tour La Chaux-de-Fonds": {"latitude": 47.1034892, "longitude": 6.832783800000001, "race": "BCN Tour La Chaux-de-Fonds", "date": {"mer. 11.05.2011": {"year": 2011, "day": 11, "month": 5, "categories": {"HE": {"distance": 11, "rank": 207, "pace": 461000000000, "time": 4941.3}}, "weekday": "wednesday", "livingplace": "Neuchatel"}}, "location": "La Chaux-de-Fonds"}, "BCN Tour Auvernier": {"latitude": 46.9668714, "longitude": 6.8589727, "race": "BCN Tour Auvernier", "date": {"mer. 20.04.2011": {"year": 2011, "day": 20, "month": 4, "categories": {"HE": {"distance": 11, "rank": 203, "pace": 412000000000, "time": 4457.3}}, "weekday": "wednesday", "livingplace": "Neuchatel"}}, "location": "Colombier NE"}, "BCN Tour La Br\u00e9vine": {"latitude": 46.999113, "longitude": 6.733554799999999, "race": "BCN Tour La Br\u00e9vine", "date": {"mer. 04.05.2011": {"year": 2011, "day": 4, "month": 5, "categories": {"HE": {"distance": 10, "rank": 212, "pace": 385000000000, "time": 3850.7}}, "weekday": "wednesday", "livingplace": "Neuchatel"}}, "location": "Les Ponts-de-Martel"}, "BCN Tour Fontaine Cernier": {"latitude": 47.0624261, "longitude": 6.9175754, "race": "BCN Tour Fontaine Cernier", "date": {"mer. 27.04.2011": {"year": 2011, "day": 27, "month": 4, "categories": {"HE": {"distance": 10, "rank": 235, "pace": 375000000000, "time": 3867.2}}, "weekday": "wednesday", "livingplace": "Neuchatel"}}, "location": "Ch\u00e9zard-St-Martin"}}, "birth": 1989}