{"name": "Paccaud Dimitri", "sex": "M", "races": {"Tour du Chablais #1 Roche": {"latitude": 46.2957462, "longitude": 6.9916269, "race": "Tour du Chablais #1 Roche", "date": {"mer. 07.04.2010": {"year": 2010, "day": 7, "month": 4, "categories": {"M-M20": {"distance": 9, "rank": 23, "pace": 222000000000, "time": 1995.3}}, "weekday": "wednesday", "livingplace": "Aigle"}}, "location": "Ollon VD"}, "Tour du Chablais #2 Rennaz": {"latitude": 46.3835529, "longitude": 6.854975199999999, "race": "Tour du Chablais #2 Rennaz", "date": {"mer. 04.05.2011": {"year": 2011, "day": 4, "month": 5, "categories": {"M-M20": {"distance": 9, "rank": 28, "pace": 230000000000, "time": 2155.0}}, "weekday": "wednesday", "livingplace": "Aigle"}}, "location": "Bouveret"}, "Tour du pays de Vaud #6 - St  Prex": {"latitude": 46.4829113, "longitude": 6.458343500000001, "race": "Tour du pays de Vaud #6 - St  Prex", "date": {"mer. 14.09.2011": {"year": 2011, "day": 14, "month": 9, "categories": {"H-Sen1": {"distance": 9, "rank": 11, "pace": 224000000000, "time": 1927.3}}, "weekday": "wednesday", "livingplace": "Aigle"}}, "location": "St-Prex"}, "Corrida Bulloise, Bulle": {"latitude": 46.6154512, "longitude": 7.057726799999999, "race": "Corrida Bulloise, Bulle", "date": {"sam. 21.11.2009": {"year": 2009, "day": 21, "month": 11, "categories": {"M20": {"distance": 8, "rank": 33, "pace": 226000000000, "time": 1845.2}}, "weekday": "saturday", "livingplace": "Aigle"}, "sam. 15.11.2008": {"year": 2008, "day": 15, "month": 11, "categories": {"M20": {"distance": 8, "rank": 56, "pace": 229000000000, "time": 1835.2}}, "weekday": "saturday", "livingplace": "Aigle"}}, "location": "Bulle"}, "Tour du pays de Vaud #1 - Mezi\u00e8res": {"latitude": 46.7784736, "longitude": 6.641183, "race": "Tour du pays de Vaud #1 - Mezi\u00e8res", "date": {"mer. 10.08.2011": {"year": 2011, "day": 10, "month": 8, "categories": {"H-Sen1": {"distance": 9, "rank": 13, "pace": 229000000000, "time": 1953.1}}, "weekday": "wednesday", "livingplace": "Aigle"}}, "location": "Yverdon-les-Bains"}, "10km, Payerne": {"latitude": 46.8220266, "longitude": 6.9405663, "race": "10km, Payerne", "date": {"sam. 10.03.2012": {"year": 2012, "day": 10, "month": 3, "categories": {"M30": {"distance": 10, "rank": 17, "pace": 218000000000, "time": 2189.7}}, "weekday": "saturday", "livingplace": "Aigle"}}, "location": "Payerne"}, "Dreil\u00e4nder-Lauf, Basel": {"latitude": 47.5595986, "longitude": 7.5885761, "race": "Dreil\u00e4nder-Lauf, Basel", "date": {"dim. 20.05.2012": {"year": 2012, "day": 20, "month": 5, "categories": {"21M30": {"distance": 21, "rank": 3, "pace": 241000000000, "time": 5100.8}}, "weekday": "sunday", "livingplace": "Aigle"}}, "location": "Basel"}, "20km de Lausanne": {"latitude": 46.5196535, "longitude": 6.6322734, "race": "20km de Lausanne", "date": {"sam. 24.04.2010": {"year": 2010, "day": 24, "month": 4, "categories": {"10-H20": {"distance": 10, "rank": 17, "pace": 234000000000, "time": 2343.4}}, "weekday": "saturday", "livingplace": "Aigle"}, "sam. 28.04.2007": {"year": 2007, "day": 28, "month": 4, "categories": {"10H20": {"distance": 10, "rank": 13, "pace": 224000000000, "time": 2245.9}}, "weekday": "saturday", "livingplace": "Aigle"}, "sam. 28.04.2012": {"year": 2012, "day": 28, "month": 4, "categories": {"10-H30": {"distance": 10, "rank": 14, "pace": 224000000000, "time": 2240.6}}, "weekday": "saturday", "livingplace": "Aigle"}}, "location": "Lausanne"}, "Tour du Chablais #1 Lavey": {"latitude": 46.2957462, "longitude": 6.9916269, "race": "Tour du Chablais #1 Lavey", "date": {"mer. 27.04.2011": {"year": 2011, "day": 27, "month": 4, "categories": {"M-M20": {"distance": 9, "rank": 36, "pace": 236000000000, "time": 2128.3}}, "weekday": "wednesday", "livingplace": "Aigle"}}, "location": "Ollon VD"}, "Hallwilerseelauf, Beinwil am See": {"latitude": NaN, "longitude": NaN, "race": "Hallwilerseelauf, Beinwil am See", "date": {"sam. 15.10.2011": {"year": 2011, "day": 15, "month": 10, "categories": {"21-M30": {"distance": 21, "rank": 27, "pace": 231000000000, "time": 4883.8}}, "weekday": "saturday", "livingplace": "Aigle"}}, "location": "Beinwil am See"}, "Tour du Chablais #5 Bex": {"latitude": 46.3603257, "longitude": 6.931504599999999, "race": "Tour du Chablais #5 Bex", "date": {"mer. 09.05.2012": {"year": 2012, "day": 9, "month": 5, "categories": {"M-M20": {"distance": 9, "rank": 14, "pace": 213000000000, "time": 1891.7}}, "weekday": "wednesday", "livingplace": "Aigle"}}, "location": "Roche VD"}, "Tour du Chablais #5 Les Mosses": {"latitude": 46.3603257, "longitude": 6.931504599999999, "race": "Tour du Chablais #5 Les Mosses", "date": {"mer. 25.05.2011": {"year": 2011, "day": 25, "month": 5, "categories": {"M-M20": {"distance": 8, "rank": 30, "pace": 246000000000, "time": 1971.8}}, "weekday": "wednesday", "livingplace": "Aigle"}}, "location": "Roche VD"}, "Maratona Ticino, Tenero": {"latitude": NaN, "longitude": NaN, "race": "Maratona Ticino, Tenero", "date": {"dim. 08.11.2009": {"year": 2009, "day": 8, "month": 11, "categories": {"H-M20": {"distance": 21, "rank": 53, "pace": 246000000000, "time": 5192.3}}, "weekday": "sunday", "livingplace": "Aigle"}}, "location": "Tenero"}, "Tour du Chablais #6 Aigle": {"latitude": 46.3190253, "longitude": 6.970566, "race": "Tour du Chablais #6 Aigle", "date": {"mer. 01.06.2011": {"year": 2011, "day": 1, "month": 6, "categories": {"M-M20": {"distance": 10, "rank": 29, "pace": 224000000000, "time": 2292.8}}, "weekday": "wednesday", "livingplace": "Aigle"}}, "location": "Aigle"}, "A travers Carouge - Run to Run": {"latitude": 46.1829674, "longitude": 6.1378539, "race": "A travers Carouge - Run to Run", "date": {"sam. 24.09.2011": {"year": 2011, "day": 24, "month": 9, "categories": {"10-Hom1": {"distance": 10, "rank": 12, "pace": 221000000000, "time": 2213.5}}, "weekday": "saturday", "livingplace": "Aigle"}}, "location": "Carouge GE"}, "Kerzerslauf": {"latitude": 46.97488999999999, "longitude": 7.1954365, "race": "Kerzerslauf", "date": {"sam. 18.03.2000": {"year": 2000, "day": 18, "month": 3, "categories": {"M19": {"distance": 15, "rank": 9, "pace": 228000000000, "time": 3421.8}}, "weekday": "saturday", "livingplace": "Muraz Collombey"}, "sam. 17.03.2012": {"year": 2012, "day": 17, "month": 3, "categories": {"15-M20": {"distance": 15, "rank": 55, "pace": 228000000000, "time": 3426.1}}, "weekday": "saturday", "livingplace": "Aigle"}, "sam. 18.03.2006": {"year": 2006, "day": 18, "month": 3, "categories": {"M20": {"distance": 15, "rank": 99, "pace": 237000000000, "time": 3560.1}}, "weekday": "saturday", "livingplace": "Fribourg"}, "sam. 16.03.2013": {"year": 2013, "day": 16, "month": 3, "categories": {"15-M20": {"distance": 15, "rank": 76, "pace": 233000000000, "time": 3497.5}}, "weekday": "saturday", "livingplace": "Aigle"}, "sam. 17.03.2007": {"year": 2007, "day": 17, "month": 3, "categories": {"M20": {"distance": 15, "rank": 88, "pace": 229000000000, "time": 3439.4}}, "weekday": "saturday", "livingplace": "Aigle"}}, "location": "Kerzers"}, "Tour du Chablais #3 Collombey-Muraz": {"latitude": 46.1782231, "longitude": 7.0223787, "race": "Tour du Chablais #3 Collombey-Muraz", "date": {"mer. 25.04.2012": {"year": 2012, "day": 25, "month": 4, "categories": {"M-M20": {"distance": 9, "rank": 20, "pace": 217000000000, "time": 1948.9}}, "weekday": "wednesday", "livingplace": "Aigle"}}, "location": "Evionnaz"}, "Tour du Chablais #3 Le Bouveret": {"latitude": 46.1782231, "longitude": 7.0223787, "race": "Tour du Chablais #3 Le Bouveret", "date": {"mer. 11.05.2011": {"year": 2011, "day": 11, "month": 5, "categories": {"M-M20": {"distance": 10, "rank": 32, "pace": 230000000000, "time": 2305.9}}, "weekday": "wednesday", "livingplace": "Aigle"}}, "location": "Evionnaz"}, "Course de l'Escalade, Gen\u00e8ve": {"latitude": 46.2043907, "longitude": 6.1431577, "race": "Course de l'Escalade, Gen\u00e8ve", "date": {"sam. 06.12.2003": {"year": 2003, "day": 6, "month": 12, "categories": {"HElite": {"distance": 7, "rank": 164, "pace": 216000000000, "time": 1568.0}}, "weekday": "saturday", "livingplace": "Muraz"}, "sam. 07.12.2002": {"year": 2002, "day": 7, "month": 12, "categories": {"HElite": {"distance": 7, "rank": 121, "pace": 210000000000, "time": 1529.2}}, "weekday": "saturday", "livingplace": "Muraz"}, "sam. 03.12.2005": {"year": 2005, "day": 3, "month": 12, "categories": {"HElite": {"distance": 7, "rank": 99, "pace": 210000000000, "time": 1525.5}}, "weekday": "saturday", "livingplace": "Aigle"}}, "location": "Gen\u00e8ve"}, "Tour du Chablais #4 Morgins": {"latitude": NaN, "longitude": NaN, "race": "Tour du Chablais #4 Morgins", "date": {"mer. 18.05.2011": {"year": 2011, "day": 18, "month": 5, "categories": {"M-M20": {"distance": 8, "rank": 29, "pace": 241000000000, "time": 2015.4}}, "weekday": "wednesday", "livingplace": "Aigle"}}, "location": "Les Mosses"}, "Tour du Pays de Vaud #2 - Genolier": {"latitude": 46.5955273, "longitude": 6.7702883, "race": "Tour du Pays de Vaud #2 - Genolier", "date": {"mer. 15.08.2012": {"year": 2012, "day": 15, "month": 8, "categories": {"H-Sen1": {"distance": 9, "rank": 100, "pace": 294000000000, "time": 2507.0}}, "weekday": "wednesday", "livingplace": "Aigle"}, "mer. 17.08.2011": {"year": 2011, "day": 17, "month": 8, "categories": {"H-Sen1": {"distance": 9, "rank": 10, "pace": 232000000000, "time": 1978.7}}, "weekday": "wednesday", "livingplace": "Aigle"}}, "location": "M\u00e9zi\u00e8res VD"}, "Tour du Chablais #6 Mouthey": {"latitude": 46.3190253, "longitude": 6.970566, "race": "Tour du Chablais #6 Mouthey", "date": {"mer. 12.05.2010": {"year": 2010, "day": 12, "month": 5, "categories": {"M-M20": {"distance": 9, "rank": 39, "pace": 225000000000, "time": 2075.6}}, "weekday": "wednesday", "livingplace": "Aigle"}}, "location": "Aigle"}, "Morat-Fribourg": {"latitude": 46.92922110000001, "longitude": 7.120184, "race": "Morat-Fribourg", "date": {"dim. 05.10.2003": {"year": 2003, "day": 5, "month": 10, "categories": {"M20": {"distance": 17, "rank": 387, "pace": 255000000000, "time": 4395.3}}, "weekday": "sunday", "livingplace": "Muraz Collombey"}, "dim. 07.10.2001": {"year": 2001, "day": 7, "month": 10, "categories": {"M20": {"distance": 17, "rank": 81, "pace": 229000000000, "time": 3943.2}}, "weekday": "sunday", "livingplace": "Muraz Collombey"}}, "location": "Murten"}, "Laufsporttag Winterthur": {"latitude": 39.8088766, "longitude": -75.6037351, "race": "Laufsporttag Winterthur", "date": {"sam. 03.03.2007": {"year": 2007, "day": 3, "month": 3, "categories": {"A": {"distance": 11, "rank": 6, "pace": 218000000000, "time": 2407.5}}, "weekday": "saturday", "livingplace": "CA Aislon"}}, "location": "Winterthur"}, "Tour du pays de Vaud #5 - Penthaz": {"latitude": 46.5993131, "longitude": 6.539251200000001, "race": "Tour du pays de Vaud #5 - Penthaz", "date": {"mer. 07.09.2011": {"year": 2011, "day": 7, "month": 9, "categories": {"H-Sen1": {"distance": 8, "rank": 10, "pace": 248000000000, "time": 2078.2}}, "weekday": "wednesday", "livingplace": "Aigle"}}, "location": "Penthaz"}, "Tour du Chablais #1 Montreux": {"latitude": 46.2957462, "longitude": 6.9916269, "race": "Tour du Chablais #1 Montreux", "date": {"mer. 11.04.2012": {"year": 2012, "day": 11, "month": 4, "categories": {"M-M20": {"distance": 8, "rank": 17, "pace": 221000000000, "time": 1680.8}}, "weekday": "wednesday", "livingplace": "Aigle"}}, "location": "Ollon VD"}, "Tour du Chablais #2 Bex": {"latitude": 46.3835529, "longitude": 6.854975199999999, "race": "Tour du Chablais #2 Bex", "date": {"mer. 18.04.2012": {"year": 2012, "day": 18, "month": 4, "categories": {"M-M20": {"distance": 8, "rank": 18, "pace": 218000000000, "time": 1750.8}}, "weekday": "wednesday", "livingplace": "Aigle"}}, "location": "Bouveret"}}, "birth": 1981}