{"name": "Pag\u00e8s Timoth\u00e9e", "sex": "M", "races": {"BCN Tour #3 Dombresson": {"latitude": 46.999113, "longitude": 6.733554799999999, "race": "BCN Tour #3 Dombresson", "date": {"mer. 08.05.2013": {"year": 2013, "day": 8, "month": 5, "categories": {"KGP": {"distance": 1, "rank": 31, "pace": 313000000000, "time": 187.9}}, "weekday": "wednesday", "livingplace": "Boudevilliers"}}, "location": "Les Ponts-de-Martel"}, "BCN Tour #2 La Chaux-de-Fonds": {"latitude": 47.0624261, "longitude": 6.9175754, "race": "BCN Tour #2 La Chaux-de-Fonds", "date": {"mer. 01.05.2013": {"year": 2013, "day": 1, "month": 5, "categories": {"KGP": {"distance": 0, "rank": 34, "pace": 305000000000, "time": 122.1}}, "weekday": "wednesday", "livingplace": "Boudevilliers"}}, "location": "Ch\u00e9zard-St-Martin"}, "BCN Tour La Chaux-de-Fonds": {"latitude": 47.1034892, "longitude": 6.832783800000001, "race": "BCN Tour La Chaux-de-Fonds", "date": {"mer. 11.05.2011": {"year": 2011, "day": 11, "month": 5, "categories": {"KG1": {"distance": 1, "rank": 123, "pace": 727000000000, "time": 705.7}}, "weekday": "wednesday", "livingplace": "Boudevilliers"}}, "location": "La Chaux-de-Fonds"}, "BCN Tour Les Ponts-de-Martel": {"latitude": 46.999113, "longitude": 6.733554799999999, "race": "BCN Tour Les Ponts-de-Martel", "date": {"mer. 09.05.2012": {"year": 2012, "day": 9, "month": 5, "categories": {"KG1": {"distance": 2, "rank": 130, "pace": 389000000000, "time": 740.4}}, "weekday": "wednesday", "livingplace": "Boudevilliers"}}, "location": "Les Ponts-de-Martel"}, "BCN Tour Fontaine Cernier": {"latitude": 47.0624261, "longitude": 6.9175754, "race": "BCN Tour Fontaine Cernier", "date": {"mer. 27.04.2011": {"year": 2011, "day": 27, "month": 4, "categories": {"KG1": {"distance": 2, "rank": 143, "pace": 457000000000, "time": 778.4}}, "weekday": "wednesday", "livingplace": "Boudevilliers"}}, "location": "Ch\u00e9zard-St-Martin"}, "BCN Tour Neuch\u00e2tel": {"latitude": 46.9899874, "longitude": 6.9292732, "race": "BCN Tour Neuch\u00e2tel", "date": {"mer. 30.05.2012": {"year": 2012, "day": 30, "month": 5, "categories": {"KG1": {"distance": 2, "rank": 143, "pace": 384000000000, "time": 672.2}}, "weekday": "wednesday", "livingplace": "Boudevilliers"}, "mer. 25.05.2011": {"year": 2011, "day": 25, "month": 5, "categories": {"KG1": {"distance": 2, "rank": 187, "pace": 511000000000, "time": 1022.0}}, "weekday": "wednesday", "livingplace": "Boudevilliers"}}, "location": "Neuch\u00e2tel"}, "BCN Tour #6 Neuch\u00e2tel": {"latitude": 46.9899874, "longitude": 6.9292732, "race": "BCN Tour #6 Neuch\u00e2tel", "date": {"mer. 29.05.2013": {"year": 2013, "day": 29, "month": 5, "categories": {"KGP": {"distance": 0, "rank": 40, "pace": 263000000000, "time": 131.8}}, "weekday": "wednesday", "livingplace": "Boudevilliers"}}, "location": "Neuch\u00e2tel"}, "BCN Tour Auvernier": {"latitude": 46.9668714, "longitude": 6.8589727, "race": "BCN Tour Auvernier", "date": {"mer. 20.04.2011": {"year": 2011, "day": 20, "month": 4, "categories": {"KG1": {"distance": 1, "rank": 96, "pace": 384000000000, "time": 519.0}}, "weekday": "wednesday", "livingplace": "Boudevilliers"}}, "location": "Colombier NE"}, "BCN Tour Cornaux": {"latitude": 46.9668714, "longitude": 6.8589727, "race": "BCN Tour Cornaux", "date": {"mer. 25.04.2012": {"year": 2012, "day": 25, "month": 4, "categories": {"KG1": {"distance": 2, "rank": 118, "pace": 418000000000, "time": 627.0}}, "weekday": "wednesday", "livingplace": "Boudevilliers"}}, "location": "Colombier NE"}, "BCN Tour #4 Fleurier": {"latitude": 47.1034892, "longitude": 6.832783800000001, "race": "BCN Tour #4 Fleurier", "date": {"mer. 15.05.2013": {"year": 2013, "day": 15, "month": 5, "categories": {"KGP": {"distance": 0, "rank": 38, "pace": 237000000000, "time": 118.8}}, "weekday": "wednesday", "livingplace": "Boudevilliers"}}, "location": "La Chaux-de-Fonds"}, "BCN Tour Colombier": {"latitude": 47.1034892, "longitude": 6.832783800000001, "race": "BCN Tour Colombier", "date": {"mer. 16.05.2012": {"year": 2012, "day": 16, "month": 5, "categories": {"KG1": {"distance": 2, "rank": 143, "pace": 423000000000, "time": 635.1}}, "weekday": "wednesday", "livingplace": "Boudevilliers"}}, "location": "La Chaux-de-Fonds"}}, "birth": 2006}