{"name": "Paglino Lucas", "sex": "M", "races": {"BCN Tour Couvet": {"latitude": 47.0624261, "longitude": 6.9175754, "race": "BCN Tour Couvet", "date": {"mer. 02.05.2012": {"year": 2012, "day": 2, "month": 5, "categories": {"KG2": {"distance": 2, "rank": 27, "pace": 272000000000, "time": 489.6}}, "weekday": "wednesday", "livingplace": "Colombier"}}, "location": "Ch\u00e9zard-St-Martin"}, "BCN Tour #1 Corcelles": {"latitude": 46.9668714, "longitude": 6.8589727, "race": "BCN Tour #1 Corcelles", "date": {"mer. 24.04.2013": {"year": 2013, "day": 24, "month": 4, "categories": {"KG2": {"distance": 2, "rank": 21, "pace": 311000000000, "time": 466.8}}, "weekday": "wednesday", "livingplace": "Colombier"}}, "location": "Colombier NE"}, "BCN Tour #4 Fleurier": {"latitude": 47.1034892, "longitude": 6.832783800000001, "race": "BCN Tour #4 Fleurier", "date": {"mer. 15.05.2013": {"year": 2013, "day": 15, "month": 5, "categories": {"KG2": {"distance": 2, "rank": 11, "pace": 163000000000, "time": 245.9}}, "weekday": "wednesday", "livingplace": "Colombier"}}, "location": "La Chaux-de-Fonds"}, "BCN Tour Cornaux": {"latitude": 46.9668714, "longitude": 6.8589727, "race": "BCN Tour Cornaux", "date": {"mer. 25.04.2012": {"year": 2012, "day": 25, "month": 4, "categories": {"KG2": {"distance": 2, "rank": 16, "pace": 260000000000, "time": 390.0}}, "weekday": "wednesday", "livingplace": "Colombier"}}, "location": "Colombier NE"}, "BCN Tour La Chaux-de-Fonds": {"latitude": 46.9262933, "longitude": 6.6324944, "race": "BCN Tour La Chaux-de-Fonds", "date": {"mer. 23.05.2012": {"year": 2012, "day": 23, "month": 5, "categories": {"KG2": {"distance": 2, "rank": 21, "pace": 309000000000, "time": 681.7}}, "weekday": "wednesday", "livingplace": "Colombier"}}, "location": "Couvet"}, "BCN Tour #6 Neuch\u00e2tel": {"latitude": 46.9899874, "longitude": 6.9292732, "race": "BCN Tour #6 Neuch\u00e2tel", "date": {"mer. 29.05.2013": {"year": 2013, "day": 29, "month": 5, "categories": {"KG2": {"distance": 1, "rank": 7, "pace": 216000000000, "time": 281.1}}, "weekday": "wednesday", "livingplace": "Colombier"}}, "location": "Neuch\u00e2tel"}, "BCN Tour Les Ponts-de-Martel": {"latitude": 46.999113, "longitude": 6.733554799999999, "race": "BCN Tour Les Ponts-de-Martel", "date": {"mer. 09.05.2012": {"year": 2012, "day": 9, "month": 5, "categories": {"KG2": {"distance": 2, "rank": 20, "pace": 258000000000, "time": 490.6}}, "weekday": "wednesday", "livingplace": "Colombier"}}, "location": "Les Ponts-de-Martel"}, "BCN Tour Neuch\u00e2tel": {"latitude": 46.9899874, "longitude": 6.9292732, "race": "BCN Tour Neuch\u00e2tel", "date": {"mer. 30.05.2012": {"year": 2012, "day": 30, "month": 5, "categories": {"KG2": {"distance": 2, "rank": 20, "pace": 251000000000, "time": 440.4}}, "weekday": "wednesday", "livingplace": "Colombier"}}, "location": "Neuch\u00e2tel"}, "BCN Tour #5 Colombier": {"latitude": 46.9262933, "longitude": 6.6324944, "race": "BCN Tour #5 Colombier", "date": {"mer. 22.05.2013": {"year": 2013, "day": 22, "month": 5, "categories": {"KG2": {"distance": 1, "rank": 13, "pace": 237000000000, "time": 284.6}}, "weekday": "wednesday", "livingplace": "Colombier"}}, "location": "Couvet"}, "BCN Tour #2 La Chaux-de-Fonds": {"latitude": 47.0624261, "longitude": 6.9175754, "race": "BCN Tour #2 La Chaux-de-Fonds", "date": {"mer. 01.05.2013": {"year": 2013, "day": 1, "month": 5, "categories": {"KG2": {"distance": 1, "rank": 20, "pace": 245000000000, "time": 319.6}}, "weekday": "wednesday", "livingplace": "Colombier"}}, "location": "Ch\u00e9zard-St-Martin"}, "BCN Tour Colombier": {"latitude": 47.1034892, "longitude": 6.832783800000001, "race": "BCN Tour Colombier", "date": {"mer. 16.05.2012": {"year": 2012, "day": 16, "month": 5, "categories": {"KG2": {"distance": 2, "rank": 21, "pace": 267000000000, "time": 401.9}}, "weekday": "wednesday", "livingplace": "Colombier"}}, "location": "La Chaux-de-Fonds"}, "BCN Tour #3 Dombresson": {"latitude": 46.999113, "longitude": 6.733554799999999, "race": "BCN Tour #3 Dombresson", "date": {"mer. 08.05.2013": {"year": 2013, "day": 8, "month": 5, "categories": {"KG2": {"distance": 1, "rank": 9, "pace": 245000000000, "time": 318.7}}, "weekday": "wednesday", "livingplace": "Colombier"}}, "location": "Les Ponts-de-Martel"}}, "birth": 2002}