{"name": "Palau Pascal", "sex": "M", "races": {"Tour du Chablais #1 Roche": {"latitude": 46.2957462, "longitude": 6.9916269, "race": "Tour du Chablais #1 Roche", "date": {"mer. 07.04.2010": {"year": 2010, "day": 7, "month": 4, "categories": {"M-M40": {"distance": 9, "rank": 125, "pace": 296000000000, "time": 2656.7}}, "weekday": "wednesday", "livingplace": "Vionnaz"}, "mer. 03.04.2013": {"year": 2013, "day": 3, "month": 4, "categories": {"M-M50": {"distance": 9, "rank": 83, "pace": 325000000000, "time": 2879.5}}, "weekday": "wednesday", "livingplace": "Vionnaz"}}, "location": "Ollon VD"}, "Tour du Chablais #2 Rennaz": {"latitude": 46.3835529, "longitude": 6.854975199999999, "race": "Tour du Chablais #2 Rennaz", "date": {"mer. 04.05.2011": {"year": 2011, "day": 4, "month": 5, "categories": {"M-M50": {"distance": 9, "rank": 73, "pace": 303000000000, "time": 2841.5}}, "weekday": "wednesday", "livingplace": "Vionnaz"}}, "location": "Bouveret"}, "Course de l'Escalade, Gen\u00e8ve": {"latitude": 46.2043907, "longitude": 6.1431577, "race": "Course de l'Escalade, Gen\u00e8ve", "date": {"sam. 01.12.2007": {"year": 2007, "day": 1, "month": 12, "categories": {"Hommes3": {"distance": 7, "rank": 490, "pace": 293000000000, "time": 2127.8}}, "weekday": "saturday", "livingplace": "Vionnaz"}}, "location": "Gen\u00e8ve"}, "Tour du Chablais #4 Morgins": {"latitude": NaN, "longitude": NaN, "race": "Tour du Chablais #4 Morgins", "date": {"mer. 18.05.2011": {"year": 2011, "day": 18, "month": 5, "categories": {"M-M50": {"distance": 8, "rank": 63, "pace": 336000000000, "time": 2811.9}}, "weekday": "wednesday", "livingplace": "Vionnaz"}}, "location": "Les Mosses"}, "20km de Lausanne": {"latitude": 46.5196535, "longitude": 6.6322734, "race": "20km de Lausanne", "date": {"sam. 27.04.2013": {"year": 2013, "day": 27, "month": 4, "categories": {"20-H50": {"distance": 20, "rank": 213, "pace": 339000000000, "time": 6787.1}}, "weekday": "saturday", "livingplace": "Se bouger pour sa sante 5"}, "sam. 25.04.2015": {"year": 2015, "day": 25, "month": 4, "categories": {"10-H50": {"distance": 10, "rank": 204, "pace": 331000000000, "time": 3310.4}}, "weekday": "saturday", "livingplace": "Se bouger pour sa sante 2"}, "sam. 28.04.2007": {"year": 2007, "day": 28, "month": 4, "categories": {"20H45": {"distance": 20, "rank": 187, "pace": 319000000000, "time": 6385.4}}, "weekday": "saturday", "livingplace": "Vionnaz"}, "sam. 23.04.2005": {"year": 2005, "day": 23, "month": 4, "categories": {"13": {"distance": 20, "rank": 423, "pace": 315000000000, "time": 6311.9}}, "weekday": "saturday", "livingplace": "Vionnaz"}, "sam. 22.04.2006": {"year": 2006, "day": 22, "month": 4, "categories": {"20/H45": {"distance": 20, "rank": 178, "pace": 332000000000, "time": 6645.5}}, "weekday": "saturday", "livingplace": "Vionnaz"}}, "location": "Lausanne"}, "Tour du Chablais #2 Yvorne": {"latitude": 46.3835529, "longitude": 6.854975199999999, "race": "Tour du Chablais #2 Yvorne", "date": {"mer. 10.04.2013": {"year": 2013, "day": 10, "month": 4, "categories": {"M-M50": {"distance": 8, "rank": 59, "pace": 352000000000, "time": 2818.8}}, "weekday": "wednesday", "livingplace": "Vionnaz"}}, "location": "Bouveret"}, "Tour du Chablais #2 St-Gingolph": {"latitude": 46.3835529, "longitude": 6.854975199999999, "race": "Tour du Chablais #2 St-Gingolph", "date": {"mer. 14.04.2010": {"year": 2010, "day": 14, "month": 4, "categories": {"M-M40": {"distance": 8, "rank": 127, "pace": 324000000000, "time": 2711.9}}, "weekday": "wednesday", "livingplace": "Vionnaz"}}, "location": "Bouveret"}, "Tour du Chablais #6 Mouthey": {"latitude": 46.3190253, "longitude": 6.970566, "race": "Tour du Chablais #6 Mouthey", "date": {"mer. 12.05.2010": {"year": 2010, "day": 12, "month": 5, "categories": {"M-M40": {"distance": 9, "rank": 136, "pace": 298000000000, "time": 2747.5}}, "weekday": "wednesday", "livingplace": "Vionnaz"}}, "location": "Aigle"}, "Tour du Chablais #5 Les Mosses": {"latitude": 46.3603257, "longitude": 6.931504599999999, "race": "Tour du Chablais #5 Les Mosses", "date": {"mer. 25.05.2011": {"year": 2011, "day": 25, "month": 5, "categories": {"M-M50": {"distance": 8, "rank": 53, "pace": 334000000000, "time": 2677.1}}, "weekday": "wednesday", "livingplace": "Vionnaz"}}, "location": "Roche VD"}, "Tour du Chablais #3 Collombey-Muraz": {"latitude": 46.1782231, "longitude": 7.0223787, "race": "Tour du Chablais #3 Collombey-Muraz", "date": {"mer. 25.04.2012": {"year": 2012, "day": 25, "month": 4, "categories": {"M-M50": {"distance": 9, "rank": 73, "pace": 323000000000, "time": 2901.0}}, "weekday": "wednesday", "livingplace": "Vionnaz"}}, "location": "Evionnaz"}, "Morat-Fribourg": {"latitude": 46.92922110000001, "longitude": 7.120184, "race": "Morat-Fribourg", "date": {"sam. 06.10.2007": {"year": 2007, "day": 6, "month": 10, "categories": {"C/M45": {"distance": 17, "rank": 402, "pace": 315000000000, "time": 5414.1}}, "weekday": "saturday", "livingplace": "Vionnaz"}}, "location": "Murten"}, "Tour du Chablais #3 Bouveret": {"latitude": 46.1782231, "longitude": 7.0223787, "race": "Tour du Chablais #3 Bouveret", "date": {"mer. 17.04.2013": {"year": 2013, "day": 17, "month": 4, "categories": {"M-M50": {"distance": 10, "rank": 66, "pace": 331000000000, "time": 3316.2}}, "weekday": "wednesday", "livingplace": "Vionnaz"}}, "location": "Evionnaz"}}, "birth": 1961}