{"name": "Pallara Juan Carlos", "sex": "M", "races": {"Tour du Chablais #6 Mouthey": {"latitude": 46.3190253, "longitude": 6.970566, "race": "Tour du Chablais #6 Mouthey", "date": {"mer. 12.05.2010": {"year": 2010, "day": 12, "month": 5, "categories": {"M-M40": {"distance": 9, "rank": 132, "pace": 297000000000, "time": 2739.9}}, "weekday": "wednesday", "livingplace": "Bramois"}}, "location": "Aigle"}, "Tour du Chablais #6 Montreux": {"latitude": 46.3190253, "longitude": 6.970566, "race": "Tour du Chablais #6 Montreux", "date": {"mer. 16.05.2012": {"year": 2012, "day": 16, "month": 5, "categories": {"M-M40": {"distance": 9, "rank": 113, "pace": 286000000000, "time": 2647.5}}, "weekday": "wednesday", "livingplace": "Bramois"}}, "location": "Aigle"}, "Morat-Fribourg": {"latitude": 46.92922110000001, "longitude": 7.120184, "race": "Morat-Fribourg", "date": {"sam. 05.10.2013": {"year": 2013, "day": 5, "month": 10, "categories": {"17-M45": {"distance": 17, "rank": 644, "pace": 345000000000, "time": 6021.7}}, "weekday": "saturday", "livingplace": "Bramois"}, "sam. 01.10.2011": {"year": 2011, "day": 1, "month": 10, "categories": {"17-M45": {"distance": 17, "rank": 457, "pace": 328000000000, "time": 5642.1}}, "weekday": "saturday", "livingplace": "Bramois"}}, "location": "Murten"}, "Tour du Chablais #3 Collombey-Muraz": {"latitude": 46.1782231, "longitude": 7.0223787, "race": "Tour du Chablais #3 Collombey-Muraz", "date": {"mer. 25.04.2012": {"year": 2012, "day": 25, "month": 4, "categories": {"M-M40": {"distance": 9, "rank": 79, "pace": 278000000000, "time": 2501.4}}, "weekday": "wednesday", "livingplace": "Bramois"}}, "location": "Evionnaz"}, "Tour du Chablais #3 Le Bouveret": {"latitude": 46.1782231, "longitude": 7.0223787, "race": "Tour du Chablais #3 Le Bouveret", "date": {"mer. 11.05.2011": {"year": 2011, "day": 11, "month": 5, "categories": {"M-M40": {"distance": 10, "rank": 163, "pace": 339000000000, "time": 3399.9}}, "weekday": "wednesday", "livingplace": "Bramois"}}, "location": "Evionnaz"}, "Lausanne Marathon": {"latitude": 46.5196535, "longitude": 6.6322734, "race": "Lausanne Marathon", "date": {"dim. 30.10.2011": {"year": 2011, "day": 30, "month": 10, "categories": {"21-H3": {"distance": 21, "rank": 439, "pace": 302000000000, "time": 6378.3}}, "weekday": "sunday", "livingplace": "Bramois"}, "dim. 28.10.2012": {"year": 2012, "day": 28, "month": 10, "categories": {"21-H3": {"distance": 21, "rank": 613, "pace": 333000000000, "time": 7028.4}}, "weekday": "sunday", "livingplace": "Bramois"}}, "location": "Lausanne"}, "Tour du Chablais #6 Aigle": {"latitude": 46.3190253, "longitude": 6.970566, "race": "Tour du Chablais #6 Aigle", "date": {"mer. 01.06.2011": {"year": 2011, "day": 1, "month": 6, "categories": {"M-M40": {"distance": 10, "rank": 121, "pace": 301000000000, "time": 3079.8}}, "weekday": "wednesday", "livingplace": "Bramois"}}, "location": "Aigle"}, "Tour du Chablais #4 St  Maurice": {"latitude": NaN, "longitude": NaN, "race": "Tour du Chablais #4 St  Maurice", "date": {"mer. 24.04.2013": {"year": 2013, "day": 24, "month": 4, "categories": {"M-M40": {"distance": 10, "rank": 140, "pace": 338000000000, "time": 3386.7}}, "weekday": "wednesday", "livingplace": "Bramois"}}, "location": "Les Mosses"}, "Tour du Chablais #1 Montreux": {"latitude": 46.2957462, "longitude": 6.9916269, "race": "Tour du Chablais #1 Montreux", "date": {"mer. 11.04.2012": {"year": 2012, "day": 11, "month": 4, "categories": {"M-M40": {"distance": 8, "rank": 104, "pace": 298000000000, "time": 2269.4}}, "weekday": "wednesday", "livingplace": "Bramois"}}, "location": "Ollon VD"}, "Course p\u00e9destre Thyon-Dixence, Thyon": {"latitude": NaN, "longitude": NaN, "race": "Course p\u00e9destre Thyon-Dixence, Thyon", "date": {"dim. 07.08.2011": {"year": 2011, "day": 7, "month": 8, "categories": {"V1": {"distance": 16, "rank": 60, "pace": 488000000000, "time": 7986.0}}, "weekday": "sunday", "livingplace": "Bramois"}}, "location": "Thyon-Les Collons"}, "Tour du Chablais #2 St-Gingolph": {"latitude": 46.3835529, "longitude": 6.854975199999999, "race": "Tour du Chablais #2 St-Gingolph", "date": {"mer. 14.04.2010": {"year": 2010, "day": 14, "month": 4, "categories": {"M-M40": {"distance": 8, "rank": 175, "pace": 371000000000, "time": 3101.0}}, "weekday": "wednesday", "livingplace": "Bramois"}}, "location": "Bouveret"}}, "birth": 1964}