{"name": "Pan Nina", "sex": "F", "races": {"Lucerne Marathon, Luzern": {"latitude": 47.05016819999999, "longitude": 8.3093072, "race": "Lucerne Marathon, Luzern", "date": {"dim. 31.10.2010": {"year": 2010, "day": 31, "month": 10, "categories": {"H-F30": {"distance": 21, "rank": 491, "pace": 411000000000, "time": 8687.6}}, "weekday": "sunday", "livingplace": "Oensingen"}, "dim. 30.10.2011": {"year": 2011, "day": 30, "month": 10, "categories": {"M-F40": {"distance": 42, "rank": 110, "pace": 429000000000, "time": 18112.1}}, "weekday": "sunday", "livingplace": "Oensingen"}}, "location": "Luzern"}, "Winterthur Marathon": {"latitude": 39.8088766, "longitude": -75.6037351, "race": "Winterthur Marathon", "date": {"dim. 16.05.2010": {"year": 2010, "day": 16, "month": 5, "categories": {"MF30": {"distance": 42, "rank": 14, "pace": 438000000000, "time": 18515.7}}, "weekday": "sunday", "livingplace": "Oensingen"}}, "location": "Winterthur"}, "Int Greifenseelauf, Uster": {"latitude": 47.3482747, "longitude": 8.717873899999999, "race": "Int Greifenseelauf, Uster", "date": {"sam. 19.09.2009": {"year": 2009, "day": 19, "month": 9, "categories": {"K-W30": {"distance": 10, "rank": 63, "pace": 331000000000, "time": 3312.0}}, "weekday": "saturday", "livingplace": "Oensingen"}}, "location": "Uster"}, "Z\u00fcrich Marathon, Teamrun und Cityrun": {"latitude": 47.3768866, "longitude": 8.541694, "race": "Z\u00fcrich Marathon, Teamrun und Cityrun", "date": {"dim. 11.04.2010": {"year": 2010, "day": 11, "month": 4, "categories": {"W30": {"distance": 42, "rank": 116, "pace": 438000000000, "time": 18508.9}}, "weekday": "sunday", "livingplace": "Oensingen"}}, "location": "Z\u00fcrich"}, "Schweizer Frauenlauf Bern": {"latitude": 46.9479739, "longitude": 7.4474468, "race": "Schweizer Frauenlauf Bern", "date": {"dim. 14.06.2009": {"year": 2009, "day": 14, "month": 6, "categories": {"10-W35": {"distance": 10, "rank": 331, "pace": 363000000000, "time": 3634.0}}, "weekday": "sunday", "livingplace": "Oensingen"}}, "location": "Bern"}}, "birth": 1971}