{"name": "Paratte Philippe", "sex": "M", "races": {"BCN Tour M\u00f4tier": {"latitude": 46.9262933, "longitude": 6.6324944, "race": "BCN Tour M\u00f4tier", "date": {"mer. 19.05.2010": {"year": 2010, "day": 19, "month": 5, "categories": {"HS2": {"distance": 10, "rank": 77, "pace": 270000000000, "time": 2674.0}}, "weekday": "wednesday", "livingplace": "Le Landeron"}}, "location": "Couvet"}, "La Trotteuse-Tissot, La Chaux-de-Fonds": {"latitude": 47.1034892, "longitude": 6.832783800000001, "race": "La Trotteuse-Tissot, La Chaux-de-Fonds", "date": {"sam. 18.12.2010": {"year": 2010, "day": 18, "month": 12, "categories": {"GC-H40": {"distance": 8, "rank": 43, "pace": 288000000000, "time": 2304.5}}, "weekday": "saturday", "livingplace": "Bcn"}, "sam. 12.12.2015": {"year": 2015, "day": 12, "month": 12, "categories": {"GC-H50": {"distance": 8, "rank": 64, "pace": 288000000000, "time": 2307.0}}, "weekday": "saturday", "livingplace": "Bcn"}}, "location": "La Chaux-de-Fonds"}, "BCN Tour Neuch\u00e2tel": {"latitude": 46.9899874, "longitude": 6.9292732, "race": "BCN Tour Neuch\u00e2tel", "date": {"mer. 26.05.2010": {"year": 2010, "day": 26, "month": 5, "categories": {"HS2": {"distance": 10, "rank": 120, "pace": 331000000000, "time": 3214.4}}, "weekday": "wednesday", "livingplace": "Le Landeron"}}, "location": "Neuch\u00e2tel"}, "Morat-Fribourg": {"latitude": 46.92922110000001, "longitude": 7.120184, "race": "Morat-Fribourg", "date": {"sam. 03.10.2009": {"year": 2009, "day": 3, "month": 10, "categories": {"C-M45": {"distance": 17, "rank": 236, "pace": 294000000000, "time": 5055.0}}, "weekday": "saturday", "livingplace": "Le Landeron"}, "sam. 04.10.2008": {"year": 2008, "day": 4, "month": 10, "categories": {"C-M45": {"distance": 17, "rank": 201, "pace": 280000000000, "time": 4814.0}}, "weekday": "saturday", "livingplace": "Le Landeron"}, "sam. 06.10.2007": {"year": 2007, "day": 6, "month": 10, "categories": {"C/M45": {"distance": 17, "rank": 290, "pace": 297000000000, "time": 5109.0}}, "weekday": "saturday", "livingplace": "Le Landeron"}, "sam. 02.10.2010": {"year": 2010, "day": 2, "month": 10, "categories": {"17-M45": {"distance": 17, "rank": 247, "pace": 299000000000, "time": 5148.4}}, "weekday": "saturday", "livingplace": "Le Landeron"}}, "location": "Murten"}, "BCN Tour Le Locle": {"latitude": 46.999113, "longitude": 6.733554799999999, "race": "BCN Tour Le Locle", "date": {"mer. 05.05.2010": {"year": 2010, "day": 5, "month": 5, "categories": {"HS2": {"distance": 11, "rank": 69, "pace": 278000000000, "time": 3031.8}}, "weekday": "wednesday", "livingplace": "Le Landeron"}}, "location": "Les Ponts-de-Martel"}, "BCN Tour Ponts-de-Martel": {"latitude": 47.0624261, "longitude": 6.9175754, "race": "BCN Tour Ponts-de-Martel", "date": {"mer. 28.04.2010": {"year": 2010, "day": 28, "month": 4, "categories": {"HS2": {"distance": 11, "rank": 86, "pace": 288000000000, "time": 3226.6}}, "weekday": "wednesday", "livingplace": "Le Landeron"}}, "location": "Ch\u00e9zard-St-Martin"}, "BCN Tour La Chaux-de-fonds": {"latitude": 47.1034892, "longitude": 6.832783800000001, "race": "BCN Tour La Chaux-de-fonds", "date": {"mer. 12.05.2010": {"year": 2010, "day": 12, "month": 5, "categories": {"HS2": {"distance": 11, "rank": 86, "pace": 348000000000, "time": 3724.5}}, "weekday": "wednesday", "livingplace": "Le Landeron"}}, "location": "La Chaux-de-Fonds"}, "BCN Tour Colombier": {"latitude": 46.9668714, "longitude": 6.8589727, "race": "BCN Tour Colombier", "date": {"mer. 23.04.2008": {"year": 2008, "day": 23, "month": 4, "categories": {"HS2": {"distance": 10, "rank": 136, "pace": 323000000000, "time": 3299.3}}, "weekday": "wednesday", "livingplace": "Le Landeron"}, "mer. 21.04.2010": {"year": 2010, "day": 21, "month": 4, "categories": {"HS2": {"distance": 10, "rank": 86, "pace": 305000000000, "time": 3057.1}}, "weekday": "wednesday", "livingplace": "Le Landeron"}}, "location": "Colombier NE"}}, "birth": 1961}