{"name": "Pasquier Maxime", "sex": "M", "races": {"Tour du Chablais #1 Roche": {"latitude": 46.2957462, "longitude": 6.9916269, "race": "Tour du Chablais #1 Roche", "date": {"mer. 03.04.2013": {"year": 2013, "day": 3, "month": 4, "categories": {"M-M20": {"distance": 9, "rank": 14, "pace": 219000000000, "time": 1945.7}}, "weekday": "wednesday", "livingplace": "Chateau d'Oex"}}, "location": "Ollon VD"}, "Corrida Bulloise, Bulle": {"latitude": 46.6154512, "longitude": 7.057726799999999, "race": "Corrida Bulloise, Bulle", "date": {"sam. 16.11.2013": {"year": 2013, "day": 16, "month": 11, "categories": {"M20": {"distance": 8, "rank": 33, "pace": 223000000000, "time": 1823.3}}, "weekday": "saturday", "livingplace": "Chateau d'Oex"}}, "location": "Bulle"}, "Tour du Pays de Vaud printanier #1 Chavornay": {"latitude": 46.3832683, "longitude": 6.2347852, "race": "Tour du Pays de Vaud printanier #1 Chavornay", "date": {"mer. 30.05.2012": {"year": 2012, "day": 30, "month": 5, "categories": {"H-Hom": {"distance": 9, "rank": 1, "pace": 228000000000, "time": 2049.0}}, "weekday": "wednesday", "livingplace": "Le Paquier Montbarry"}}, "location": "Nyon"}, "Sierre-Zinal, Sierre": {"latitude": 46.29413110000001, "longitude": 7.533536199999999, "race": "Sierre-Zinal, Sierre", "date": {"dim. 12.08.2012": {"year": 2012, "day": 12, "month": 8, "categories": {"Elites": {"distance": 31, "rank": 204, "pace": 477000000000, "time": 14789.8}}, "weekday": "sunday", "livingplace": "Chateau d'Oex"}, "dim. 11.08.2013": {"year": 2013, "day": 11, "month": 8, "categories": {"Elites": {"distance": 31, "rank": 156, "pace": 450000000000, "time": 13965.9}}, "weekday": "sunday", "livingplace": "Chateau d'Oex"}}, "location": "Sierre"}, "20km de Lausanne": {"latitude": 46.5196535, "longitude": 6.6322734, "race": "20km de Lausanne", "date": {"sam. 28.04.2012": {"year": 2012, "day": 28, "month": 4, "categories": {"10-H20": {"distance": 10, "rank": 37, "pace": 237000000000, "time": 2378.3}}, "weekday": "saturday", "livingplace": "Chateau D'Oex"}}, "location": "Lausanne"}, "Tour du Pays de Vaud #2 - Mezi\u00e8res": {"latitude": 46.5955273, "longitude": 6.7702883, "race": "Tour du Pays de Vaud #2 - Mezi\u00e8res", "date": {"mer. 21.08.2013": {"year": 2013, "day": 21, "month": 8, "categories": {"H-Hom": {"distance": 8, "rank": 9, "pace": 244000000000, "time": 1980.0}}, "weekday": "wednesday", "livingplace": "Chateau d'Oex"}}, "location": "M\u00e9zi\u00e8res VD"}, "Tour du Chablais #2 Yvorne": {"latitude": 46.3835529, "longitude": 6.854975199999999, "race": "Tour du Chablais #2 Yvorne", "date": {"mer. 10.04.2013": {"year": 2013, "day": 10, "month": 4, "categories": {"M-M20": {"distance": 8, "rank": 18, "pace": 238000000000, "time": 1910.9}}, "weekday": "wednesday", "livingplace": "Chateau d'Oex"}}, "location": "Bouveret"}, "Tour du Chablais #5 Bex": {"latitude": 46.3603257, "longitude": 6.931504599999999, "race": "Tour du Chablais #5 Bex", "date": {"mer. 09.05.2012": {"year": 2012, "day": 9, "month": 5, "categories": {"M-M20": {"distance": 9, "rank": 17, "pace": 216000000000, "time": 1915.9}}, "weekday": "wednesday", "livingplace": "Chateau D'Oex"}}, "location": "Roche VD"}, "Tour du Chablais #4 Champ\u00e9ry": {"latitude": NaN, "longitude": NaN, "race": "Tour du Chablais #4 Champ\u00e9ry", "date": {"mer. 02.05.2012": {"year": 2012, "day": 2, "month": 5, "categories": {"M-M20": {"distance": 8, "rank": 19, "pace": 220000000000, "time": 1827.3}}, "weekday": "wednesday", "livingplace": "Chateau D'Oex"}}, "location": "Les Mosses"}, "Tour du Chablais #1 Montreux": {"latitude": 46.2957462, "longitude": 6.9916269, "race": "Tour du Chablais #1 Montreux", "date": {"mer. 11.04.2012": {"year": 2012, "day": 11, "month": 4, "categories": {"M-M20": {"distance": 8, "rank": 37, "pace": 238000000000, "time": 1814.7}}, "weekday": "wednesday", "livingplace": "Chateau D'Oex"}}, "location": "Ollon VD"}, "Tour du Chablais #6 Montreux": {"latitude": 46.3190253, "longitude": 6.970566, "race": "Tour du Chablais #6 Montreux", "date": {"mer. 16.05.2012": {"year": 2012, "day": 16, "month": 5, "categories": {"M-M20": {"distance": 9, "rank": 14, "pace": 215000000000, "time": 1992.6}}, "weekday": "wednesday", "livingplace": "Chateau D'Oex"}}, "location": "Aigle"}, "Tour du Chablais #3 Collombey-Muraz": {"latitude": 46.1782231, "longitude": 7.0223787, "race": "Tour du Chablais #3 Collombey-Muraz", "date": {"mer. 25.04.2012": {"year": 2012, "day": 25, "month": 4, "categories": {"M-M20": {"distance": 9, "rank": 28, "pace": 223000000000, "time": 2009.6}}, "weekday": "wednesday", "livingplace": "Chateau D'Oex"}}, "location": "Evionnaz"}, "Montreux - Les Rochers de Naye": {"latitude": 46.4312213, "longitude": 6.9106799, "race": "Montreux - Les Rochers de Naye", "date": {"dim. 07.07.2013": {"year": 2013, "day": 7, "month": 7, "categories": {"C-HElite": {"distance": 10, "rank": 6, "pace": 377000000000, "time": 3584.7}}, "weekday": "sunday", "livingplace": "Chateau d'Oex"}, "dim. 06.07.2014": {"year": 2014, "day": 6, "month": 7, "categories": {"C-HElite": {"distance": 10, "rank": 8, "pace": 384000000000, "time": 3657.2}}, "weekday": "sunday", "livingplace": "Chateau d'Oex"}, "dim. 08.07.2012": {"year": 2012, "day": 8, "month": 7, "categories": {"C-HElite": {"distance": 10, "rank": 3, "pace": 366000000000, "time": 3483.6}}, "weekday": "sunday", "livingplace": "Chateau d'Oex"}}, "location": "Montreux"}, "Tour du Pays de Vaud #4 - La Sarraz": {"latitude": 46.7088129, "longitude": 6.5707689, "race": "Tour du Pays de Vaud #4 - La Sarraz", "date": {"mer. 29.08.2012": {"year": 2012, "day": 29, "month": 8, "categories": {"H-Hom": {"distance": 9, "rank": 8, "pace": 222000000000, "time": 1887.6}}, "weekday": "wednesday", "livingplace": "Chateau d'Oex"}}, "location": "Chavornay"}, "Tour du Chablais #2 Bex": {"latitude": 46.3835529, "longitude": 6.854975199999999, "race": "Tour du Chablais #2 Bex", "date": {"mer. 18.04.2012": {"year": 2012, "day": 18, "month": 4, "categories": {"M-M20": {"distance": 8, "rank": 36, "pace": 233000000000, "time": 1867.7}}, "weekday": "wednesday", "livingplace": "Chateau D'Oex"}}, "location": "Bouveret"}, "Tour du Pays de Vaud printanier #2 Yens": {"latitude": 46.6698891, "longitude": 6.7975224, "race": "Tour du Pays de Vaud printanier #2 Yens", "date": {"mer. 06.06.2012": {"year": 2012, "day": 6, "month": 6, "categories": {"H-Hom": {"distance": 9, "rank": 2, "pace": 221000000000, "time": 2016.2}}, "weekday": "wednesday", "livingplace": "Chateau d'Oex"}}, "location": "Moudon"}}, "birth": 1988}