{"name": "Pasquier Vincent", "sex": "M", "races": {"Lausanne Marathon": {"latitude": 46.5196535, "longitude": 6.6322734, "race": "Lausanne Marathon", "date": {"dim. 26.10.2014": {"year": 2014, "day": 26, "month": 10, "categories": {"21-H30": {"distance": 21, "rank": 476, "pace": 307000000000, "time": 6481.0}}, "weekday": "sunday", "livingplace": "Lausanne"}, "dim. 28.10.2012": {"year": 2012, "day": 28, "month": 10, "categories": {"42-H2": {"distance": 42, "rank": 137, "pace": 323000000000, "time": 13656.4}}, "weekday": "sunday", "livingplace": "Lausanne"}}, "location": "Lausanne"}, "M\u00e4nnlichen Halbmarathon, Grindelwald": {"latitude": 46.624164, "longitude": 8.0413962, "race": "M\u00e4nnlichen Halbmarathon, Grindelwald", "date": {"dim. 03.06.2012": {"year": 2012, "day": 3, "month": 6, "categories": {"M30": {"distance": 21, "rank": 24, "pace": 470000000000, "time": 9917.0}}, "weekday": "sunday", "livingplace": "Lausanne"}}, "location": "Grindelwald"}, "Morat-Fribourg": {"latitude": 46.92922110000001, "longitude": 7.120184, "race": "Morat-Fribourg", "date": {"sam. 03.10.2009": {"year": 2009, "day": 3, "month": 10, "categories": {"C-M20": {"distance": 17, "rank": 1361, "pace": 322000000000, "time": 5540.8}}, "weekday": "saturday", "livingplace": "Thierrens"}, "sam. 02.10.2010": {"year": 2010, "day": 2, "month": 10, "categories": {"17-M20": {"distance": 17, "rank": 683, "pace": 290000000000, "time": 4992.3}}, "weekday": "saturday", "livingplace": "Lausanne"}}, "location": "Murten"}, "10km, Payerne": {"latitude": 46.8220266, "longitude": 6.9405663, "race": "10km, Payerne", "date": {"sam. 10.03.2012": {"year": 2012, "day": 10, "month": 3, "categories": {"M30": {"distance": 10, "rank": 54, "pace": 257000000000, "time": 2579.9}}, "weekday": "saturday", "livingplace": "Lausanne"}}, "location": "Payerne"}, "Sierre-Zinal, Sierre": {"latitude": 46.29413110000001, "longitude": 7.533536199999999, "race": "Sierre-Zinal, Sierre", "date": {"dim. 12.08.2012": {"year": 2012, "day": 12, "month": 8, "categories": {"Elites": {"distance": 31, "rank": 344, "pace": 552000000000, "time": 17120.6}}, "weekday": "sunday", "livingplace": "Lausanne"}}, "location": "Sierre"}, "20km de Lausanne": {"latitude": 46.5196535, "longitude": 6.6322734, "race": "20km de Lausanne", "date": {"sam. 24.04.2010": {"year": 2010, "day": 24, "month": 4, "categories": {"20-H30": {"distance": 20, "rank": 236, "pace": 280000000000, "time": 5613.9}}, "weekday": "saturday", "livingplace": "BCV Concours"}, "sam. 25.04.2009": {"year": 2009, "day": 25, "month": 4, "categories": {"10-H20": {"distance": 10, "rank": 340, "pace": 307000000000, "time": 3077.0}}, "weekday": "saturday", "livingplace": "Thierrens"}, "sam. 28.04.2012": {"year": 2012, "day": 28, "month": 4, "categories": {"20-H30": {"distance": 20, "rank": 160, "pace": 275000000000, "time": 5500.4}}, "weekday": "saturday", "livingplace": "Lausanne"}}, "location": "Lausanne"}, "Kerzerslauf": {"latitude": 46.97488999999999, "longitude": 7.1954365, "race": "Kerzerslauf", "date": {"sam. 20.03.2010": {"year": 2010, "day": 20, "month": 3, "categories": {"15-M20": {"distance": 15, "rank": 217, "pace": 266000000000, "time": 3999.1}}, "weekday": "saturday", "livingplace": "Lausanne"}}, "location": "Kerzers"}, "10km de Payerne": {"latitude": 46.8220266, "longitude": 6.9405663, "race": "10km de Payerne", "date": {"sam. 28.03.2009": {"year": 2009, "day": 28, "month": 3, "categories": {"M Elite": {"distance": 10, "rank": 73, "pace": 287000000000, "time": 2875.8}}, "weekday": "saturday", "livingplace": "Thierrens"}}, "location": "Payerne"}}, "birth": 1980}