{"name": "Pauli Laurent", "sex": "M", "races": {"Morat-Fribourg": {"latitude": 46.92922110000001, "longitude": 7.120184, "race": "Morat-Fribourg", "date": {"sam. 04.10.2014": {"year": 2014, "day": 4, "month": 10, "categories": {"17-M20": {"distance": 17, "rank": 2190, "pace": 428000000000, "time": 7362.0}}, "weekday": "saturday", "livingplace": "Bouloz"}}, "location": "Murten"}, "Course de l'Escalade, Gen\u00e8ve": {"latitude": 46.2043907, "longitude": 6.1431577, "race": "Course de l'Escalade, Gen\u00e8ve", "date": {"sam. 07.12.2002": {"year": 2002, "day": 7, "month": 12, "categories": {"DucH1": {"distance": 19, "rank": 181, "pace": 292000000000, "time": 5419.3}}, "weekday": "saturday", "livingplace": "Payerne"}}, "location": "Gen\u00e8ve"}, "Kerzerslauf": {"latitude": 46.97488999999999, "longitude": 7.1954365, "race": "Kerzerslauf", "date": {"sam. 18.03.2000": {"year": 2000, "day": 18, "month": 3, "categories": {"M19": {"distance": 15, "rank": 32, "pace": 285000000000, "time": 4281.7}}, "weekday": "saturday", "livingplace": "Rue"}, "sam. 21.03.2009": {"year": 2009, "day": 21, "month": 3, "categories": {"15-M20": {"distance": 15, "rank": 539, "pace": 346000000000, "time": 5198.9}}, "weekday": "saturday", "livingplace": "Rue"}, "sam. 17.03.2007": {"year": 2007, "day": 17, "month": 3, "categories": {"M20": {"distance": 15, "rank": 435, "pace": 307000000000, "time": 4619.7}}, "weekday": "saturday", "livingplace": "Villaz St Pierre"}, "sam. 17.03.2001": {"year": 2001, "day": 17, "month": 3, "categories": {"M19": {"distance": 15, "rank": 27, "pace": 310000000000, "time": 4660.6}}, "weekday": "saturday", "livingplace": "Payerne"}}, "location": "Kerzers"}, "D\u00e9fi Val-de-Travers, Couvet": {"latitude": 46.9262933, "longitude": 6.6324944, "race": "D\u00e9fi Val-de-Travers, Couvet", "date": {"sam. 20.06.2009": {"year": 2009, "day": 20, "month": 6, "categories": {"DH": {"distance": 75, "rank": 5, "pace": 533000000000, "time": 40024.1}}, "weekday": "saturday", "livingplace": "Rue"}}, "location": "Couvet"}, "Z\u00fcrich Marathon, Teamrun und Cityrun": {"latitude": 47.3768866, "longitude": 8.541694, "race": "Z\u00fcrich Marathon, Teamrun und Cityrun", "date": {"dim. 01.04.2007": {"year": 2007, "day": 1, "month": 4, "categories": {"M20": {"distance": 42, "rank": 311, "pace": 366000000000, "time": 15483.6}}, "weekday": "sunday", "livingplace": "Villaz St Pierre"}}, "location": "Z\u00fcrich"}}, "birth": 1983}