{"name": "Peguiron Florence", "sex": "F", "races": {"Thuner Stadtlauf, Thun": {"latitude": 46.7579868, "longitude": 7.6279881, "race": "Thuner Stadtlauf, Thun", "date": {"dim. 26.08.2007": {"year": 2007, "day": 26, "month": 8, "categories": {"10/W20": {"distance": 10, "rank": 5, "pace": 244000000000, "time": 2449.3}}, "weekday": "sunday", "livingplace": "Lausanne"}}, "location": "Thun"}, "Luzerner Stadtlauf": {"latitude": 47.05016819999999, "longitude": 8.3093072, "race": "Luzerner Stadtlauf", "date": {"sam. 26.04.2008": {"year": 2008, "day": 26, "month": 4, "categories": {"K/23": {"distance": 4, "rank": 1, "pace": 216000000000, "time": 839.4}}, "weekday": "saturday", "livingplace": "Lausanne"}}, "location": "Luzern"}, "Basler Stadtlauf": {"latitude": 47.5595986, "longitude": 7.5885761, "race": "Basler Stadtlauf", "date": {"sam. 30.11.2013": {"year": 2013, "day": 30, "month": 11, "categories": {"F20": {"distance": 6, "rank": 1, "pace": 213000000000, "time": 1174.2}}, "weekday": "saturday", "livingplace": "Lausanne"}}, "location": "Basel"}, "Corrida Bulloise, Bulle": {"latitude": 46.6154512, "longitude": 7.057726799999999, "race": "Corrida Bulloise, Bulle", "date": {"sam. 17.11.2007": {"year": 2007, "day": 17, "month": 11, "categories": {"DJ": {"distance": 3, "rank": 1, "pace": 218000000000, "time": 656.0}}, "weekday": "saturday", "livingplace": "Lausanne"}, "sam. 15.11.2008": {"year": 2008, "day": 15, "month": 11, "categories": {"DJ": {"distance": 3, "rank": 1, "pace": 214000000000, "time": 642.3}}, "weekday": "saturday", "livingplace": "Lausanne"}}, "location": "Bulle"}, "Langenthaler Stadtlauf": {"latitude": 47.2120786, "longitude": 7.790562299999999, "race": "Langenthaler Stadtlauf", "date": {"sam. 17.11.2012": {"year": 2012, "day": 17, "month": 11, "categories": {"W20": {"distance": 6, "rank": 1, "pace": 216000000000, "time": 1351.6}}, "weekday": "saturday", "livingplace": "Lausanne"}}, "location": "Langenthal"}, "Kerzerslauf": {"latitude": 46.97488999999999, "longitude": 7.1954365, "race": "Kerzerslauf", "date": {"sam. 18.03.2006": {"year": 2006, "day": 18, "month": 3, "categories": {"F-KU": {"distance": 5, "rank": 24, "pace": 247000000000, "time": 1238.2}}, "weekday": "saturday", "livingplace": "Lausanne"}, "sam. 15.03.2008": {"year": 2008, "day": 15, "month": 3, "categories": {"5/F05": {"distance": 5, "rank": 5, "pace": 241000000000, "time": 1209.0}}, "weekday": "saturday", "livingplace": "Lausanne"}}, "location": "Kerzers"}}, "birth": 1989}