{"name": "Peguet Maxime", "sex": "M", "races": {"Lausanne Marathon": {"latitude": 46.5196535, "longitude": 6.6322734, "race": "Lausanne Marathon", "date": {"dim. 26.10.2014": {"year": 2014, "day": 26, "month": 10, "categories": {"M-Gar1": {"distance": 1, "rank": 22, "pace": 321000000000, "time": 192.6}}, "weekday": "sunday", "livingplace": "Athenaz Avusy"}}, "location": "Lausanne"}, "Course de l'Escalade, Gen\u00e8ve": {"latitude": 46.2043907, "longitude": 6.1431577, "race": "Course de l'Escalade, Gen\u00e8ve", "date": {"sam. 05.12.2015": {"year": 2015, "day": 5, "month": 12, "categories": {"PousM-B7": {"distance": 2, "rank": 185, "pace": 350000000000, "time": 607.7}}, "weekday": "saturday", "livingplace": "Athenaz Avusy"}, "sam. 06.12.2014": {"year": 2014, "day": 6, "month": 12, "categories": {"PousM-B6": {"distance": 2, "rank": 111, "pace": 348000000000, "time": 594.2}}, "weekday": "saturday", "livingplace": "Athenaz Avusy"}}, "location": "Gen\u00e8ve"}, "Run to Run de Carouge": {"latitude": 46.1829674, "longitude": 6.1378539, "race": "Run to Run de Carouge", "date": {"sam. 27.09.2014": {"year": 2014, "day": 27, "month": 9, "categories": {"PoussB-M": {"distance": 1, "rank": 32, "pace": 330000000000, "time": 330.4}}, "weekday": "saturday", "livingplace": "Athenaz Avusy"}}, "location": "Carouge GE"}, "Corrida Bulloise, Bulle": {"latitude": 46.6154512, "longitude": 7.057726799999999, "race": "Corrida Bulloise, Bulle", "date": {"sam. 16.11.2013": {"year": 2013, "day": 16, "month": 11, "categories": {"G-U6_AA": {"distance": 1, "rank": 1, "pace": 303000000000, "time": 227.6}}, "weekday": "saturday", "livingplace": "Athenaz Avusy"}}, "location": "Bulle"}, "Noviodurun, Nyon": {"latitude": 46.3832683, "longitude": 6.2347852, "race": "Noviodurun, Nyon", "date": {"sam. 01.11.2014": {"year": 2014, "day": 1, "month": 11, "categories": {"PoussB-M": {"distance": 2, "rank": 63, "pace": 330000000000, "time": 515.2}}, "weekday": "saturday", "livingplace": "Athenaz Avusy"}}, "location": "Nyon"}}, "birth": 2008}