{"name": "Peiry C\u00e9line", "sex": "F", "races": {"20km de Lausanne": {"latitude": 46.5196535, "longitude": 6.6322734, "race": "20km de Lausanne", "date": {"sam. 24.04.2010": {"year": 2010, "day": 24, "month": 4, "categories": {"10-F20": {"distance": 10, "rank": 235, "pace": 351000000000, "time": 3514.4}}, "weekday": "saturday", "livingplace": "Mathod"}}, "location": "Lausanne"}, "Tour du Pays de Vaud #2 - Mezi\u00e8res": {"latitude": 46.5955273, "longitude": 6.7702883, "race": "Tour du Pays de Vaud #2 - Mezi\u00e8res", "date": {"mer. 21.08.2013": {"year": 2013, "day": 21, "month": 8, "categories": {"D-Dam": {"distance": 8, "rank": 34, "pace": 386000000000, "time": 3132.6}}, "weekday": "wednesday", "livingplace": "Yverdon les Bains"}}, "location": "M\u00e9zi\u00e8res VD"}, "Morat-Fribourg": {"latitude": 46.92922110000001, "longitude": 7.120184, "race": "Morat-Fribourg", "date": {"sam. 05.10.2013": {"year": 2013, "day": 5, "month": 10, "categories": {"17-W20": {"distance": 17, "rank": 496, "pace": 372000000000, "time": 6501.9}}, "weekday": "saturday", "livingplace": "Yverdon les Bains"}}, "location": "Murten"}, "Tour du Pays de Vaud #4 - La Sarraz": {"latitude": 46.7088129, "longitude": 6.5707689, "race": "Tour du Pays de Vaud #4 - La Sarraz", "date": {"mer. 04.09.2013": {"year": 2013, "day": 4, "month": 9, "categories": {"D-Dam": {"distance": 9, "rank": 31, "pace": 349000000000, "time": 2972.8}}, "weekday": "wednesday", "livingplace": "Yverdon les Bains"}}, "location": "Chavornay"}, "Tour du Pays de Vaud #3 - Chavornay": {"latitude": 46.7784736, "longitude": 6.641183, "race": "Tour du Pays de Vaud #3 - Chavornay", "date": {"mer. 28.08.2013": {"year": 2013, "day": 28, "month": 8, "categories": {"D-Dam": {"distance": 9, "rank": 34, "pace": 344000000000, "time": 3065.8}}, "weekday": "wednesday", "livingplace": "Yverdon les Bains"}}, "location": "Yverdon-les-Bains"}}, "birth": 1986}