{"name": "Peiry Benjamin", "sex": "M", "races": {"Groupe E Tour Fribourg #4, Siviriez": {"latitude": 46.6585092, "longitude": 6.877722, "race": "Groupe E Tour Fribourg #4, Siviriez", "date": {"mer. 10.09.2014": {"year": 2014, "day": 10, "month": 9, "categories": {"H-Elite": {"distance": 11, "rank": 30, "pace": 313000000000, "time": 3384.9}}, "weekday": "wednesday", "livingplace": "Romont"}}, "location": "Siviriez"}, "Morat-Fribourg": {"latitude": 46.92922110000001, "longitude": 7.120184, "race": "Morat-Fribourg", "date": {"sam. 02.10.2010": {"year": 2010, "day": 2, "month": 10, "categories": {"17-M20": {"distance": 17, "rank": 1458, "pace": 337000000000, "time": 5793.7}}, "weekday": "saturday", "livingplace": "Romont"}, "sam. 03.10.2015": {"year": 2015, "day": 3, "month": 10, "categories": {"17-M20": {"distance": 17, "rank": 926, "pace": 298000000000, "time": 5128.5}}, "weekday": "saturday", "livingplace": "Romont"}, "sam. 04.10.2014": {"year": 2014, "day": 4, "month": 10, "categories": {"17-M20": {"distance": 17, "rank": 978, "pace": 301000000000, "time": 5169.9}}, "weekday": "saturday", "livingplace": "Romont"}}, "location": "Murten"}, "Corrida Bulloise, Bulle": {"latitude": 46.6154512, "longitude": 7.057726799999999, "race": "Corrida Bulloise, Bulle", "date": {"sam. 15.11.2014": {"year": 2014, "day": 15, "month": 11, "categories": {"8-M20": {"distance": 8, "rank": 120, "pace": 278000000000, "time": 2269.5}}, "weekday": "saturday", "livingplace": "Romont"}}, "location": "Bulle"}, "Groupe E Tour Fribourg #2, Charmey": {"latitude": 46.6175845, "longitude": 7.1654493, "race": "Groupe E Tour Fribourg #2, Charmey", "date": {"mer. 27.08.2014": {"year": 2014, "day": 27, "month": 8, "categories": {"H-Elite": {"distance": 10, "rank": 40, "pace": 307000000000, "time": 2967.2}}, "weekday": "wednesday", "livingplace": "Romont"}}, "location": "Charmey (Gruy\u00e8re)"}, "Lausanne Marathon": {"latitude": 46.5196535, "longitude": 6.6322734, "race": "Lausanne Marathon", "date": {"dim. 26.10.2014": {"year": 2014, "day": 26, "month": 10, "categories": {"21-H20": {"distance": 21, "rank": 272, "pace": 296000000000, "time": 6252.1}}, "weekday": "sunday", "livingplace": "Romont"}}, "location": "Lausanne"}, "Groupe E Tour Fribourg #1, Cousset": {"latitude": 46.81832, "longitude": 6.977279999999999, "race": "Groupe E Tour Fribourg #1, Cousset", "date": {"mer. 20.08.2014": {"year": 2014, "day": 20, "month": 8, "categories": {"H-Elite": {"distance": 9, "rank": 36, "pace": 286000000000, "time": 2689.4}}, "weekday": "wednesday", "livingplace": "Romont"}}, "location": "Cousset"}}, "birth": 1987}