{"name": "Pellein Corentin", "sex": "M", "races": {"Tour de Presinge": {"latitude": 46.21860299999999, "longitude": 6.2535283, "race": "Tour de Presinge", "date": {"dim. 16.03.2014": {"year": 2014, "day": 16, "month": 3, "categories": {"2-EcoBM": {"distance": 2, "rank": 8, "pace": 235000000000, "time": 470.8}}, "weekday": "sunday", "livingplace": "Athenaz Avusy"}}, "location": "Presinge"}, "Morat-Fribourg": {"latitude": 46.92922110000001, "longitude": 7.120184, "race": "Morat-Fribourg", "date": {"sam. 04.10.2014": {"year": 2014, "day": 4, "month": 10, "categories": {"EcolMB": {"distance": 2, "rank": 14, "pace": 209000000000, "time": 440.0}}, "weekday": "saturday", "livingplace": "Athenaz Avusy"}}, "location": "Murten"}, "20km de Lausanne": {"latitude": 46.5196535, "longitude": 6.6322734, "race": "20km de Lausanne", "date": {"sam. 26.04.2014": {"year": 2014, "day": 26, "month": 4, "categories": {"2-EcoD-M": {"distance": 2, "rank": 25, "pace": 260000000000, "time": 520.4}}, "weekday": "saturday", "livingplace": "Athenaz Avusy"}}, "location": "Lausanne"}, "Course de l'Escalade, Gen\u00e8ve": {"latitude": 46.2043907, "longitude": 6.1431577, "race": "Course de l'Escalade, Gen\u00e8ve", "date": {"sam. 07.12.2013": {"year": 2013, "day": 7, "month": 12, "categories": {"PousM-A9": {"distance": 2, "rank": 71, "pace": 257000000000, "time": 486.2}}, "weekday": "saturday", "livingplace": "Athenaz Avusy"}, "sam. 05.12.2015": {"year": 2015, "day": 5, "month": 12, "categories": {"EcoM-B11": {"distance": 2, "rank": 16, "pace": 234000000000, "time": 548.5}}, "weekday": "saturday", "livingplace": "Athenaz Avusy"}, "sam. 06.12.2014": {"year": 2014, "day": 6, "month": 12, "categories": {"EcoM-B10": {"distance": 2, "rank": 17, "pace": 246000000000, "time": 576.3}}, "weekday": "saturday", "livingplace": "Athenaz Avusy"}}, "location": "Gen\u00e8ve"}, "Noviodurun, Nyon": {"latitude": 46.3832683, "longitude": 6.2347852, "race": "Noviodurun, Nyon", "date": {"sam. 01.11.2014": {"year": 2014, "day": 1, "month": 11, "categories": {"EcolB-M": {"distance": 3, "rank": 12, "pace": 259000000000, "time": 727.9}}, "weekday": "saturday", "livingplace": "Athenaz Avusy"}}, "location": "Nyon"}}, "birth": 2004}