{"name": "Pellaton Fabrice", "sex": "M", "races": {"BCN Tour #1 Corcelles": {"latitude": 46.9668714, "longitude": 6.8589727, "race": "BCN Tour #1 Corcelles", "date": {"mer. 24.04.2013": {"year": 2013, "day": 24, "month": 4, "categories": {"HS2": {"distance": 10, "rank": 19, "pace": 234000000000, "time": 2295.6}}, "weekday": "wednesday", "livingplace": "La Brevine"}}, "location": "Colombier NE"}, "Morat-Fribourg": {"latitude": 46.92922110000001, "longitude": 7.120184, "race": "Morat-Fribourg", "date": {"sam. 03.10.2015": {"year": 2015, "day": 3, "month": 10, "categories": {"17-M45": {"distance": 17, "rank": 10, "pace": 237000000000, "time": 4082.7}}, "weekday": "saturday", "livingplace": "La Brevine"}, "sam. 04.10.2014": {"year": 2014, "day": 4, "month": 10, "categories": {"17-M40": {"distance": 17, "rank": 22, "pace": 238000000000, "time": 4090.9}}, "weekday": "saturday", "livingplace": "La Brevine"}}, "location": "Murten"}, "Corrida Bulloise, Bulle": {"latitude": 46.6154512, "longitude": 7.057726799999999, "race": "Corrida Bulloise, Bulle", "date": {"sam. 20.11.2010": {"year": 2010, "day": 20, "month": 11, "categories": {"M40": {"distance": 8, "rank": 21, "pace": 223000000000, "time": 1819.1}}, "weekday": "saturday", "livingplace": "La Brevine"}}, "location": "Bulle"}, "BCN Tour Le Landeron": {"latitude": 46.9668714, "longitude": 6.8589727, "race": "BCN Tour Le Landeron", "date": {"mer. 22.04.2009": {"year": 2009, "day": 22, "month": 4, "categories": {"HS1": {"distance": 11, "rank": 20, "pace": 238000000000, "time": 2647.8}}, "weekday": "wednesday", "livingplace": "Club"}}, "location": "Colombier NE"}, "BCN Tour Ponts-de-Martel": {"latitude": 47.0624261, "longitude": 6.9175754, "race": "BCN Tour Ponts-de-Martel", "date": {"mer. 28.04.2010": {"year": 2010, "day": 28, "month": 4, "categories": {"HS2": {"distance": 11, "rank": 5, "pace": 234000000000, "time": 2623.8}}, "weekday": "wednesday", "livingplace": "La Brevine"}}, "location": "Ch\u00e9zard-St-Martin"}, "BCN Tour Auvernier": {"latitude": 46.9668714, "longitude": 6.8589727, "race": "BCN Tour Auvernier", "date": {"mer. 20.04.2011": {"year": 2011, "day": 20, "month": 4, "categories": {"HS2": {"distance": 11, "rank": 10, "pace": 234000000000, "time": 2537.0}}, "weekday": "wednesday", "livingplace": "La Brevine"}}, "location": "Colombier NE"}, "BCN Tour #4 Fleurier": {"latitude": 47.1034892, "longitude": 6.832783800000001, "race": "BCN Tour #4 Fleurier", "date": {"mer. 15.05.2013": {"year": 2013, "day": 15, "month": 5, "categories": {"HS2": {"distance": 9, "rank": 15, "pace": 232000000000, "time": 2009.9}}, "weekday": "wednesday", "livingplace": "La Brevine"}}, "location": "La Chaux-de-Fonds"}, "BCN Tour #2 La Chaux-de-Fonds": {"latitude": 47.0624261, "longitude": 6.9175754, "race": "BCN Tour #2 La Chaux-de-Fonds", "date": {"mer. 01.05.2013": {"year": 2013, "day": 1, "month": 5, "categories": {"HS2": {"distance": 11, "rank": 23, "pace": 233000000000, "time": 2496.4}}, "weekday": "wednesday", "livingplace": "La Brevine"}}, "location": "Ch\u00e9zard-St-Martin"}, "BCN Tour La Chaux-de-Fonds": {"latitude": 47.1034892, "longitude": 6.832783800000001, "race": "BCN Tour La Chaux-de-Fonds", "date": {"mer. 23.05.2012": {"year": 2012, "day": 23, "month": 5, "categories": {"HS2": {"distance": 11, "rank": 10, "pace": 236000000000, "time": 2551.9}}, "weekday": "wednesday", "livingplace": "La Brevine"}, "mer. 11.05.2011": {"year": 2011, "day": 11, "month": 5, "categories": {"HS2": {"distance": 11, "rank": 12, "pace": 267000000000, "time": 2860.1}}, "weekday": "wednesday", "livingplace": "La Brevine"}}, "location": "La Chaux-de-Fonds"}, "BCN Tour Les Ponts-de-Martel": {"latitude": 46.999113, "longitude": 6.733554799999999, "race": "BCN Tour Les Ponts-de-Martel", "date": {"mer. 09.05.2012": {"year": 2012, "day": 9, "month": 5, "categories": {"HS2": {"distance": 10, "rank": 14, "pace": 238000000000, "time": 2460.8}}, "weekday": "wednesday", "livingplace": "La Brevine"}}, "location": "Les Ponts-de-Martel"}, "BCN Tour Neuch\u00e2tel": {"latitude": 46.9899874, "longitude": 6.9292732, "race": "BCN Tour Neuch\u00e2tel", "date": {"mer. 26.05.2010": {"year": 2010, "day": 26, "month": 5, "categories": {"HS2": {"distance": 10, "rank": 6, "pace": 240000000000, "time": 2333.7}}, "weekday": "wednesday", "livingplace": "La Brevine"}, "mer. 30.05.2012": {"year": 2012, "day": 30, "month": 5, "categories": {"HS2": {"distance": 11, "rank": 11, "pace": 241000000000, "time": 2701.1}}, "weekday": "wednesday", "livingplace": "La Brevine"}, "mer. 25.05.2011": {"year": 2011, "day": 25, "month": 5, "categories": {"HS2": {"distance": 11, "rank": 10, "pace": 237000000000, "time": 2705.2}}, "weekday": "wednesday", "livingplace": "La Brevine"}}, "location": "Neuch\u00e2tel"}, "BCN Tour #5 Colombier": {"latitude": 46.9262933, "longitude": 6.6324944, "race": "BCN Tour #5 Colombier", "date": {"mer. 22.05.2013": {"year": 2013, "day": 22, "month": 5, "categories": {"HS2": {"distance": 11, "rank": 17, "pace": 219000000000, "time": 2303.6}}, "weekday": "wednesday", "livingplace": "La Brevine"}}, "location": "Couvet"}, "BCN Tour Cornaux": {"latitude": 46.9668714, "longitude": 6.8589727, "race": "BCN Tour Cornaux", "date": {"mer. 25.04.2012": {"year": 2012, "day": 25, "month": 4, "categories": {"HS2": {"distance": 11, "rank": 19, "pace": 261000000000, "time": 2875.0}}, "weekday": "wednesday", "livingplace": "La Brevine"}}, "location": "Colombier NE"}, "BCN Tour #3 Dombresson": {"latitude": 46.999113, "longitude": 6.733554799999999, "race": "BCN Tour #3 Dombresson", "date": {"mer. 08.05.2013": {"year": 2013, "day": 8, "month": 5, "categories": {"HS2": {"distance": 10, "rank": 16, "pace": 228000000000, "time": 2264.3}}, "weekday": "wednesday", "livingplace": "La Brevine"}}, "location": "Les Ponts-de-Martel"}, "BCN Tour M\u00f4tier": {"latitude": 46.9262933, "longitude": 6.6324944, "race": "BCN Tour M\u00f4tier", "date": {"mer. 19.05.2010": {"year": 2010, "day": 19, "month": 5, "categories": {"HS2": {"distance": 10, "rank": 5, "pace": 223000000000, "time": 2208.4}}, "weekday": "wednesday", "livingplace": "La Brevine"}}, "location": "Couvet"}, "BCN Tour Fontaine Cernier": {"latitude": 47.0624261, "longitude": 6.9175754, "race": "BCN Tour Fontaine Cernier", "date": {"mer. 27.04.2011": {"year": 2011, "day": 27, "month": 4, "categories": {"HS2": {"distance": 10, "rank": 11, "pace": 225000000000, "time": 2323.9}}, "weekday": "wednesday", "livingplace": "La Brevine"}}, "location": "Ch\u00e9zard-St-Martin"}, "BCN Tour Le Locle": {"latitude": 46.999113, "longitude": 6.733554799999999, "race": "BCN Tour Le Locle", "date": {"mer. 05.05.2010": {"year": 2010, "day": 5, "month": 5, "categories": {"HS2": {"distance": 11, "rank": 7, "pace": 231000000000, "time": 2524.4}}, "weekday": "wednesday", "livingplace": "La Brevine"}}, "location": "Les Ponts-de-Martel"}, "BCN Tour Couvet": {"latitude": 47.0624261, "longitude": 6.9175754, "race": "BCN Tour Couvet", "date": {"mer. 02.05.2012": {"year": 2012, "day": 2, "month": 5, "categories": {"HS2": {"distance": 11, "rank": 16, "pace": 243000000000, "time": 2717.7}}, "weekday": "wednesday", "livingplace": "La Brevine"}}, "location": "Ch\u00e9zard-St-Martin"}, "BCN Tour #6 Neuch\u00e2tel": {"latitude": 46.9899874, "longitude": 6.9292732, "race": "BCN Tour #6 Neuch\u00e2tel", "date": {"mer. 29.05.2013": {"year": 2013, "day": 29, "month": 5, "categories": {"HS2": {"distance": 11, "rank": 14, "pace": 238000000000, "time": 2628.8}}, "weekday": "wednesday", "livingplace": "La Brevine"}}, "location": "Neuch\u00e2tel"}, "BCN Tour La Br\u00e9vine": {"latitude": 46.999113, "longitude": 6.733554799999999, "race": "BCN Tour La Br\u00e9vine", "date": {"mer. 04.05.2011": {"year": 2011, "day": 4, "month": 5, "categories": {"HS2": {"distance": 10, "rank": 11, "pace": 235000000000, "time": 2357.8}}, "weekday": "wednesday", "livingplace": "La Brevine"}}, "location": "Les Ponts-de-Martel"}, "BCN Tour Les Ponts de Martel": {"latitude": 46.9262933, "longitude": 6.6324944, "race": "BCN Tour Les Ponts de Martel", "date": {"mer. 18.05.2011": {"year": 2011, "day": 18, "month": 5, "categories": {"HS2": {"distance": 13, "rank": 12, "pace": 240000000000, "time": 3084.6}}, "weekday": "wednesday", "livingplace": "La Brevine"}}, "location": "Couvet"}, "BCN Tour Boudry": {"latitude": 46.9668714, "longitude": 6.8589727, "race": "BCN Tour Boudry", "date": {"mer. 26.04.2006": {"year": 2006, "day": 26, "month": 4, "categories": {"HS1": {"distance": 10, "rank": 14, "pace": 235000000000, "time": 2403.6}}, "weekday": "wednesday", "livingplace": "La Brevine"}}, "location": "Colombier NE"}, "BCN Tour La Chaux-de-fonds": {"latitude": 47.1034892, "longitude": 6.832783800000001, "race": "BCN Tour La Chaux-de-fonds", "date": {"mer. 12.05.2010": {"year": 2010, "day": 12, "month": 5, "categories": {"HS2": {"distance": 11, "rank": 8, "pace": 283000000000, "time": 3034.7}}, "weekday": "wednesday", "livingplace": "La Brevine"}}, "location": "La Chaux-de-Fonds"}, "BCN Tour Colombier": {"latitude": 46.9668714, "longitude": 6.8589727, "race": "BCN Tour Colombier", "date": {"mer. 16.05.2012": {"year": 2012, "day": 16, "month": 5, "categories": {"HS2": {"distance": 11, "rank": 13, "pace": 235000000000, "time": 2542.4}}, "weekday": "wednesday", "livingplace": "La Brevine"}, "mer. 23.04.2008": {"year": 2008, "day": 23, "month": 4, "categories": {"HS1": {"distance": 10, "rank": 13, "pace": 238000000000, "time": 2429.7}}, "weekday": "wednesday", "livingplace": "SC la Brevine"}, "mer. 21.04.2010": {"year": 2010, "day": 21, "month": 4, "categories": {"HS2": {"distance": 10, "rank": 3, "pace": 246000000000, "time": 2461.8}}, "weekday": "wednesday", "livingplace": "La Brevine"}}, "location": "Colombier NE"}}, "birth": 1970}