{"name": "Pellaud Sylvain", "sex": "M", "races": {"Tour du Chablais #1 Roche": {"latitude": 46.2957462, "longitude": 6.9916269, "race": "Tour du Chablais #1 Roche", "date": {"mer. 07.04.2010": {"year": 2010, "day": 7, "month": 4, "categories": {"M-M60": {"distance": 9, "rank": 1, "pace": 223000000000, "time": 1997.5}}, "weekday": "wednesday", "livingplace": "Levron"}, "mer. 03.04.2013": {"year": 2013, "day": 3, "month": 4, "categories": {"M-M60": {"distance": 9, "rank": 1, "pace": 225000000000, "time": 1999.5}}, "weekday": "wednesday", "livingplace": "Levron"}}, "location": "Ollon VD"}, "Tour du Chablais #2 Rennaz": {"latitude": 46.3835529, "longitude": 6.854975199999999, "race": "Tour du Chablais #2 Rennaz", "date": {"mer. 04.05.2011": {"year": 2011, "day": 4, "month": 5, "categories": {"M-M60": {"distance": 9, "rank": 1, "pace": 230000000000, "time": 2153.3}}, "weekday": "wednesday", "livingplace": "Levron"}}, "location": "Bouveret"}, "Morat-Fribourg": {"latitude": 46.92922110000001, "longitude": 7.120184, "race": "Morat-Fribourg", "date": {"sam. 02.10.2010": {"year": 2010, "day": 2, "month": 10, "categories": {"17-M60": {"distance": 17, "rank": 1, "pace": 248000000000, "time": 4264.2}}, "weekday": "saturday", "livingplace": "Levron"}, "dim. 06.10.2002": {"year": 2002, "day": 6, "month": 10, "categories": {"M50": {"distance": 17, "rank": 2, "pace": 233000000000, "time": 4013.6}}, "weekday": "sunday", "livingplace": "Levron"}, "sam. 03.10.2015": {"year": 2015, "day": 3, "month": 10, "categories": {"17-M65": {"distance": 17, "rank": 2, "pace": 256000000000, "time": 4400.4}}, "weekday": "saturday", "livingplace": "Levron"}}, "location": "Murten"}, "Tour du Chablais #4 Morgins": {"latitude": NaN, "longitude": NaN, "race": "Tour du Chablais #4 Morgins", "date": {"mer. 18.05.2011": {"year": 2011, "day": 18, "month": 5, "categories": {"M-M60": {"distance": 8, "rank": 1, "pace": 245000000000, "time": 2049.7}}, "weekday": "wednesday", "livingplace": "Levron"}}, "location": "Les Mosses"}, "Tour du Chablais #6 Monthey": {"latitude": 46.3190253, "longitude": 6.970566, "race": "Tour du Chablais #6 Monthey", "date": {"mer. 08.05.2013": {"year": 2013, "day": 8, "month": 5, "categories": {"M-M60": {"distance": 9, "rank": 1, "pace": 227000000000, "time": 2124.2}}, "weekday": "wednesday", "livingplace": "Levron"}}, "location": "Aigle"}, "20km de Lausanne": {"latitude": 46.5196535, "longitude": 6.6322734, "race": "20km de Lausanne", "date": {"sam. 25.04.2009": {"year": 2009, "day": 25, "month": 4, "categories": {"20-H55": {"distance": 20, "rank": 2, "pace": 236000000000, "time": 4738.9}}, "weekday": "saturday", "livingplace": "Levron"}, "sam. 25.04.2015": {"year": 2015, "day": 25, "month": 4, "categories": {"20-H65": {"distance": 20, "rank": 1, "pace": 241000000000, "time": 4836.5}}, "weekday": "saturday", "livingplace": "Levron"}, "sam. 22.04.2006": {"year": 2006, "day": 22, "month": 4, "categories": {"20/H55": {"distance": 20, "rank": 1, "pace": 249000000000, "time": 4983.4}}, "weekday": "saturday", "livingplace": "Levron"}}, "location": "Lausanne"}, "Tour du Chablais #1 Lavey": {"latitude": 46.2957462, "longitude": 6.9916269, "race": "Tour du Chablais #1 Lavey", "date": {"mer. 27.04.2011": {"year": 2011, "day": 27, "month": 4, "categories": {"M-M60": {"distance": 9, "rank": 1, "pace": 231000000000, "time": 2079.6}}, "weekday": "wednesday", "livingplace": "Levron"}}, "location": "Ollon VD"}, "Tour du Chablais #2 Yvorne": {"latitude": 46.3835529, "longitude": 6.854975199999999, "race": "Tour du Chablais #2 Yvorne", "date": {"mer. 10.04.2013": {"year": 2013, "day": 10, "month": 4, "categories": {"M-M60": {"distance": 8, "rank": 1, "pace": 244000000000, "time": 1953.8}}, "weekday": "wednesday", "livingplace": "Levron"}}, "location": "Bouveret"}, "Tour du Chablais #5 Leysin": {"latitude": 46.3603257, "longitude": 6.931504599999999, "race": "Tour du Chablais #5 Leysin", "date": {"mer. 05.05.2010": {"year": 2010, "day": 5, "month": 5, "categories": {"M-M60": {"distance": 8, "rank": 1, "pace": 243000000000, "time": 2054.7}}, "weekday": "wednesday", "livingplace": "Levron"}}, "location": "Roche VD"}, "Tour du Chablais #5 Bex": {"latitude": 46.3603257, "longitude": 6.931504599999999, "race": "Tour du Chablais #5 Bex", "date": {"mer. 09.05.2012": {"year": 2012, "day": 9, "month": 5, "categories": {"M-M60": {"distance": 9, "rank": 1, "pace": 225000000000, "time": 1999.9}}, "weekday": "wednesday", "livingplace": "Levron"}}, "location": "Roche VD"}, "Tour du Chablais #4 Champ\u00e9ry": {"latitude": NaN, "longitude": NaN, "race": "Tour du Chablais #4 Champ\u00e9ry", "date": {"mer. 02.05.2012": {"year": 2012, "day": 2, "month": 5, "categories": {"M-M60": {"distance": 8, "rank": 1, "pace": 228000000000, "time": 1899.5}}, "weekday": "wednesday", "livingplace": "Levron"}}, "location": "Les Mosses"}, "Tour du Chablais #5 Morgins": {"latitude": 46.3603257, "longitude": 6.931504599999999, "race": "Tour du Chablais #5 Morgins", "date": {"mer. 01.05.2013": {"year": 2013, "day": 1, "month": 5, "categories": {"M-M60": {"distance": 8, "rank": 1, "pace": 242000000000, "time": 1844.0}}, "weekday": "wednesday", "livingplace": "Levron"}}, "location": "Roche VD"}, "Tour du Chablais #5 Les Mosses": {"latitude": 46.3603257, "longitude": 6.931504599999999, "race": "Tour du Chablais #5 Les Mosses", "date": {"mer. 25.05.2011": {"year": 2011, "day": 25, "month": 5, "categories": {"M-M60": {"distance": 8, "rank": 1, "pace": 243000000000, "time": 1950.6}}, "weekday": "wednesday", "livingplace": "Levron"}}, "location": "Roche VD"}, "Tour du Chablais #6 Aigle": {"latitude": 46.3190253, "longitude": 6.970566, "race": "Tour du Chablais #6 Aigle", "date": {"mer. 01.06.2011": {"year": 2011, "day": 1, "month": 6, "categories": {"M-M60": {"distance": 10, "rank": 1, "pace": 224000000000, "time": 2288.8}}, "weekday": "wednesday", "livingplace": "Levron"}}, "location": "Aigle"}, "Tour du Chablais #3 Bex": {"latitude": 46.1782231, "longitude": 7.0223787, "race": "Tour du Chablais #3 Bex", "date": {"mer. 21.04.2010": {"year": 2010, "day": 21, "month": 4, "categories": {"M-M60": {"distance": 10, "rank": 1, "pace": 228000000000, "time": 2282.6}}, "weekday": "wednesday", "livingplace": "Levron"}}, "location": "Evionnaz"}, "Tour du Chablais #3 Collombey-Muraz": {"latitude": 46.1782231, "longitude": 7.0223787, "race": "Tour du Chablais #3 Collombey-Muraz", "date": {"mer. 25.04.2012": {"year": 2012, "day": 25, "month": 4, "categories": {"M-M60": {"distance": 9, "rank": 1, "pace": 230000000000, "time": 2071.3}}, "weekday": "wednesday", "livingplace": "Levron"}}, "location": "Evionnaz"}, "Tour du Chablais #1 Martigny": {"latitude": 46.2957462, "longitude": 6.9916269, "race": "Tour du Chablais #1 Martigny", "date": {"mer. 23.04.2014": {"year": 2014, "day": 23, "month": 4, "categories": {"M-M60": {"distance": 9, "rank": 1, "pace": 228000000000, "time": 1945.7}}, "weekday": "wednesday", "livingplace": "Levron"}}, "location": "Ollon VD"}, "Tour du Chablais #4 St  Maurice": {"latitude": NaN, "longitude": NaN, "race": "Tour du Chablais #4 St  Maurice", "date": {"mer. 24.04.2013": {"year": 2013, "day": 24, "month": 4, "categories": {"M-M60": {"distance": 10, "rank": 1, "pace": 233000000000, "time": 2337.2}}, "weekday": "wednesday", "livingplace": "Levron"}}, "location": "Les Mosses"}, "Course Titz\u00e9 de no\u00ebl Sion": {"latitude": 46.2331221, "longitude": 7.360625999999999, "race": "Course Titz\u00e9 de no\u00ebl Sion", "date": {"sam. 15.12.2001": {"year": 2001, "day": 15, "month": 12, "categories": {"53": {"distance": 7, "rank": 2, "pace": 215000000000, "time": 1586.3}}, "weekday": "saturday", "livingplace": "Levron"}}, "location": "Sion"}, "Tour du Chablais #6 Mouthey": {"latitude": 46.3190253, "longitude": 6.970566, "race": "Tour du Chablais #6 Mouthey", "date": {"mer. 12.05.2010": {"year": 2010, "day": 12, "month": 5, "categories": {"M-M60": {"distance": 9, "rank": 1, "pace": 221000000000, "time": 2038.8}}, "weekday": "wednesday", "livingplace": "Levron"}}, "location": "Aigle"}, "Zermatt Marathon, Zermatt": {"latitude": NaN, "longitude": NaN, "race": "Zermatt Marathon, Zermatt", "date": {"sam. 04.07.2015": {"year": 2015, "day": 4, "month": 7, "categories": {"M-M65": {"distance": 42, "rank": 1, "pace": 401000000000, "time": 16959.4}}, "weekday": "saturday", "livingplace": "Levron"}}, "location": "Zermatt"}, "Tour du Chablais #1 Montreux": {"latitude": 46.2957462, "longitude": 6.9916269, "race": "Tour du Chablais #1 Montreux", "date": {"mer. 11.04.2012": {"year": 2012, "day": 11, "month": 4, "categories": {"M-M60": {"distance": 8, "rank": 2, "pace": 236000000000, "time": 1795.3}}, "weekday": "wednesday", "livingplace": "Levron"}}, "location": "Ollon VD"}, "Tour du Chablais #3 Bouveret": {"latitude": 46.1782231, "longitude": 7.0223787, "race": "Tour du Chablais #3 Bouveret", "date": {"mer. 17.04.2013": {"year": 2013, "day": 17, "month": 4, "categories": {"M-M60": {"distance": 10, "rank": 1, "pace": 233000000000, "time": 2337.2}}, "weekday": "wednesday", "livingplace": "Levron"}}, "location": "Evionnaz"}, "Tour du Chablais #3 Le Bouveret": {"latitude": 46.1782231, "longitude": 7.0223787, "race": "Tour du Chablais #3 Le Bouveret", "date": {"mer. 11.05.2011": {"year": 2011, "day": 11, "month": 5, "categories": {"M-M60": {"distance": 10, "rank": 1, "pace": 231000000000, "time": 2315.9}}, "weekday": "wednesday", "livingplace": "Levron"}}, "location": "Evionnaz"}, "Tour du Chablais #2 St-Gingolph": {"latitude": 46.3835529, "longitude": 6.854975199999999, "race": "Tour du Chablais #2 St-Gingolph", "date": {"mer. 14.04.2010": {"year": 2010, "day": 14, "month": 4, "categories": {"M-M60": {"distance": 8, "rank": 1, "pace": 238000000000, "time": 1994.4}}, "weekday": "wednesday", "livingplace": "Levron"}}, "location": "Bouveret"}, "Tour du Chablais #4 Yvorne": {"latitude": NaN, "longitude": NaN, "race": "Tour du Chablais #4 Yvorne", "date": {"mer. 28.04.2010": {"year": 2010, "day": 28, "month": 4, "categories": {"M-M60": {"distance": 8, "rank": 1, "pace": 240000000000, "time": 1992.7}}, "weekday": "wednesday", "livingplace": "Levron"}}, "location": "Les Mosses"}, "Tour du Chablais #2 Bex": {"latitude": 46.3835529, "longitude": 6.854975199999999, "race": "Tour du Chablais #2 Bex", "date": {"mer. 18.04.2012": {"year": 2012, "day": 18, "month": 4, "categories": {"M-M60": {"distance": 8, "rank": 1, "pace": 232000000000, "time": 1856.3}}, "weekday": "wednesday", "livingplace": "Levron"}}, "location": "Bouveret"}, "Tour du Chablais #6 Montreux": {"latitude": 46.3190253, "longitude": 6.970566, "race": "Tour du Chablais #6 Montreux", "date": {"mer. 16.05.2012": {"year": 2012, "day": 16, "month": 5, "categories": {"M-M60": {"distance": 9, "rank": 1, "pace": 227000000000, "time": 2101.4}}, "weekday": "wednesday", "livingplace": "Levron"}}, "location": "Aigle"}}, "birth": 1950}