{"name": "Pellaton Quentin", "sex": "M", "races": {"BCN Tour Couvet": {"latitude": 47.0624261, "longitude": 6.9175754, "race": "BCN Tour Couvet", "date": {"mer. 02.05.2012": {"year": 2012, "day": 2, "month": 5, "categories": {"KG2": {"distance": 2, "rank": 13, "pace": 259000000000, "time": 467.8}}, "weekday": "wednesday", "livingplace": "La Brevine"}}, "location": "Ch\u00e9zard-St-Martin"}, "BCN Tour M\u00f4tier": {"latitude": 46.9262933, "longitude": 6.6324944, "race": "BCN Tour M\u00f4tier", "date": {"mer. 19.05.2010": {"year": 2010, "day": 19, "month": 5, "categories": {"KG1": {"distance": 2, "rank": 17, "pace": 264000000000, "time": 475.9}}, "weekday": "wednesday", "livingplace": "La Brevine"}}, "location": "Couvet"}, "BCN Tour Les Ponts-de-Martel": {"latitude": 46.999113, "longitude": 6.733554799999999, "race": "BCN Tour Les Ponts-de-Martel", "date": {"mer. 09.05.2012": {"year": 2012, "day": 9, "month": 5, "categories": {"KG2": {"distance": 2, "rank": 11, "pace": 247000000000, "time": 469.6}}, "weekday": "wednesday", "livingplace": "La Brevine"}}, "location": "Les Ponts-de-Martel"}, "BCN Tour Fontaine Cernier": {"latitude": 47.0624261, "longitude": 6.9175754, "race": "BCN Tour Fontaine Cernier", "date": {"mer. 27.04.2011": {"year": 2011, "day": 27, "month": 4, "categories": {"KG2": {"distance": 2, "rank": 11, "pace": 292000000000, "time": 496.9}}, "weekday": "wednesday", "livingplace": "La Brevine"}}, "location": "Ch\u00e9zard-St-Martin"}, "BCN Tour Le Locle": {"latitude": 46.999113, "longitude": 6.733554799999999, "race": "BCN Tour Le Locle", "date": {"mer. 05.05.2010": {"year": 2010, "day": 5, "month": 5, "categories": {"KG1": {"distance": 2, "rank": 17, "pace": 289000000000, "time": 520.2}}, "weekday": "wednesday", "livingplace": "La Brevine"}}, "location": "Les Ponts-de-Martel"}, "BCN Tour Ponts-de-Martel": {"latitude": 47.0624261, "longitude": 6.9175754, "race": "BCN Tour Ponts-de-Martel", "date": {"mer. 28.04.2010": {"year": 2010, "day": 28, "month": 4, "categories": {"KG1": {"distance": 2, "rank": 35, "pace": 244000000000, "time": 538.5}}, "weekday": "wednesday", "livingplace": "La Brevine"}}, "location": "Ch\u00e9zard-St-Martin"}, "BCN Tour Auvernier": {"latitude": 46.9668714, "longitude": 6.8589727, "race": "BCN Tour Auvernier", "date": {"mer. 20.04.2011": {"year": 2011, "day": 20, "month": 4, "categories": {"KG2": {"distance": 1, "rank": 20, "pace": 235000000000, "time": 318.5}}, "weekday": "wednesday", "livingplace": "La Brevine"}}, "location": "Colombier NE"}, "BCN Tour #4 Fleurier": {"latitude": 47.1034892, "longitude": 6.832783800000001, "race": "BCN Tour #4 Fleurier", "date": {"mer. 15.05.2013": {"year": 2013, "day": 15, "month": 5, "categories": {"KG3": {"distance": 3, "rank": 22, "pace": 253000000000, "time": 634.2}}, "weekday": "wednesday", "livingplace": "La Brevine"}}, "location": "La Chaux-de-Fonds"}, "BCN Tour Cornaux": {"latitude": 46.9668714, "longitude": 6.8589727, "race": "BCN Tour Cornaux", "date": {"mer. 25.04.2012": {"year": 2012, "day": 25, "month": 4, "categories": {"KG2": {"distance": 2, "rank": 14, "pace": 257000000000, "time": 386.6}}, "weekday": "wednesday", "livingplace": "La Brevine"}}, "location": "Colombier NE"}, "BCN Tour La Chaux-de-Fonds": {"latitude": 47.1034892, "longitude": 6.832783800000001, "race": "BCN Tour La Chaux-de-Fonds", "date": {"mer. 23.05.2012": {"year": 2012, "day": 23, "month": 5, "categories": {"KG2": {"distance": 2, "rank": 24, "pace": 315000000000, "time": 694.8}}, "weekday": "wednesday", "livingplace": "La Brevine"}, "mer. 11.05.2011": {"year": 2011, "day": 11, "month": 5, "categories": {"KG2": {"distance": 1, "rank": 15, "pace": 424000000000, "time": 411.3}}, "weekday": "wednesday", "livingplace": "La Brevine"}}, "location": "La Chaux-de-Fonds"}, "BCN Tour La Br\u00e9vine": {"latitude": 46.999113, "longitude": 6.733554799999999, "race": "BCN Tour La Br\u00e9vine", "date": {"mer. 04.05.2011": {"year": 2011, "day": 4, "month": 5, "categories": {"KG2": {"distance": 2, "rank": 9, "pace": 252000000000, "time": 480.2}}, "weekday": "wednesday", "livingplace": "La Brevine"}}, "location": "Les Ponts-de-Martel"}, "BCN Tour Neuch\u00e2tel": {"latitude": 46.9899874, "longitude": 6.9292732, "race": "BCN Tour Neuch\u00e2tel", "date": {"mer. 26.05.2010": {"year": 2010, "day": 26, "month": 5, "categories": {"KG1": {"distance": 2, "rank": 18, "pace": 234000000000, "time": 351.6}}, "weekday": "wednesday", "livingplace": "La Brevine"}, "mer. 30.05.2012": {"year": 2012, "day": 30, "month": 5, "categories": {"KG2": {"distance": 2, "rank": 32, "pace": 261000000000, "time": 457.7}}, "weekday": "wednesday", "livingplace": "La Brevine"}, "mer. 25.05.2011": {"year": 2011, "day": 25, "month": 5, "categories": {"KG2": {"distance": 2, "rank": 12, "pace": 244000000000, "time": 489.7}}, "weekday": "wednesday", "livingplace": "La Brevine"}}, "location": "Neuch\u00e2tel"}, "BCN Tour Les Ponts de Martel": {"latitude": 46.9262933, "longitude": 6.6324944, "race": "BCN Tour Les Ponts de Martel", "date": {"mer. 18.05.2011": {"year": 2011, "day": 18, "month": 5, "categories": {"KG2": {"distance": 2, "rank": 7, "pace": 229000000000, "time": 452.2}}, "weekday": "wednesday", "livingplace": "La Brevine"}}, "location": "Couvet"}, "BCN Tour #2 La Chaux-de-Fonds": {"latitude": 47.0624261, "longitude": 6.9175754, "race": "BCN Tour #2 La Chaux-de-Fonds", "date": {"mer. 01.05.2013": {"year": 2013, "day": 1, "month": 5, "categories": {"KG3": {"distance": 2, "rank": 17, "pace": 236000000000, "time": 566.7}}, "weekday": "wednesday", "livingplace": "La Brevine"}}, "location": "Ch\u00e9zard-St-Martin"}, "BCN Tour La Chaux-de-fonds": {"latitude": 47.1034892, "longitude": 6.832783800000001, "race": "BCN Tour La Chaux-de-fonds", "date": {"mer. 12.05.2010": {"year": 2010, "day": 12, "month": 5, "categories": {"KG1": {"distance": 1, "rank": 33, "pace": 813000000000, "time": 789.5}}, "weekday": "wednesday", "livingplace": "La Brevine"}}, "location": "La Chaux-de-Fonds"}, "BCN Tour Colombier": {"latitude": 46.9668714, "longitude": 6.8589727, "race": "BCN Tour Colombier", "date": {"mer. 16.05.2012": {"year": 2012, "day": 16, "month": 5, "categories": {"KG2": {"distance": 2, "rank": 20, "pace": 267000000000, "time": 401.6}}, "weekday": "wednesday", "livingplace": "La Brevine"}, "mer. 21.04.2010": {"year": 2010, "day": 21, "month": 4, "categories": {"KG1": {"distance": 2, "rank": 28, "pace": 326000000000, "time": 653.3}}, "weekday": "wednesday", "livingplace": "La Brevine"}}, "location": "Colombier NE"}}, "birth": 2001}