{"name": "Pellanda Nolan", "sex": "M", "races": {"BCN Tour Couvet": {"latitude": 47.0624261, "longitude": 6.9175754, "race": "BCN Tour Couvet", "date": {"mer. 02.05.2012": {"year": 2012, "day": 2, "month": 5, "categories": {"KG1": {"distance": 2, "rank": 125, "pace": 462000000000, "time": 832.7}}, "weekday": "wednesday", "livingplace": "Couvet"}}, "location": "Ch\u00e9zard-St-Martin"}, "BCN Tour La Br\u00e9vine": {"latitude": 46.999113, "longitude": 6.733554799999999, "race": "BCN Tour La Br\u00e9vine", "date": {"mer. 04.05.2011": {"year": 2011, "day": 4, "month": 5, "categories": {"KG1": {"distance": 2, "rank": 119, "pace": 509000000000, "time": 968.5}}, "weekday": "wednesday", "livingplace": "Boudry"}}, "location": "Les Ponts-de-Martel"}, "BCN Tour Fontaine Cernier": {"latitude": 47.0624261, "longitude": 6.9175754, "race": "BCN Tour Fontaine Cernier", "date": {"mer. 27.04.2011": {"year": 2011, "day": 27, "month": 4, "categories": {"KG1": {"distance": 2, "rank": 150, "pace": 477000000000, "time": 812.2}}, "weekday": "wednesday", "livingplace": "Boudry"}}, "location": "Ch\u00e9zard-St-Martin"}, "BCN Tour #1 Corcelles": {"latitude": 46.9668714, "longitude": 6.8589727, "race": "BCN Tour #1 Corcelles", "date": {"mer. 24.04.2013": {"year": 2013, "day": 24, "month": 4, "categories": {"KGP": {"distance": 0, "rank": 63, "pace": 393000000000, "time": 196.9}}, "weekday": "wednesday", "livingplace": "Couvet"}}, "location": "Colombier NE"}, "BCN Tour #4 Fleurier": {"latitude": 47.1034892, "longitude": 6.832783800000001, "race": "BCN Tour #4 Fleurier", "date": {"mer. 15.05.2013": {"year": 2013, "day": 15, "month": 5, "categories": {"KGP": {"distance": 0, "rank": 50, "pace": 245000000000, "time": 122.5}}, "weekday": "wednesday", "livingplace": "Couvet"}}, "location": "La Chaux-de-Fonds"}, "BCN Tour #2 La Chaux-de-Fonds": {"latitude": 47.0624261, "longitude": 6.9175754, "race": "BCN Tour #2 La Chaux-de-Fonds", "date": {"mer. 01.05.2013": {"year": 2013, "day": 1, "month": 5, "categories": {"KGP": {"distance": 0, "rank": 42, "pace": 314000000000, "time": 125.8}}, "weekday": "wednesday", "livingplace": "Couvet"}}, "location": "Ch\u00e9zard-St-Martin"}, "BCN Tour La Chaux-de-Fonds": {"latitude": 47.1034892, "longitude": 6.832783800000001, "race": "BCN Tour La Chaux-de-Fonds", "date": {"mer. 23.05.2012": {"year": 2012, "day": 23, "month": 5, "categories": {"KG1": {"distance": 2, "rank": 134, "pace": 568000000000, "time": 1251.3}}, "weekday": "wednesday", "livingplace": "Couvet"}, "mer. 11.05.2011": {"year": 2011, "day": 11, "month": 5, "categories": {"KG1": {"distance": 1, "rank": 130, "pace": 797000000000, "time": 773.7}}, "weekday": "wednesday", "livingplace": "Boudry"}}, "location": "La Chaux-de-Fonds"}, "BCN Tour #6 Neuch\u00e2tel": {"latitude": 46.9899874, "longitude": 6.9292732, "race": "BCN Tour #6 Neuch\u00e2tel", "date": {"mer. 29.05.2013": {"year": 2013, "day": 29, "month": 5, "categories": {"KGP": {"distance": 0, "rank": 45, "pace": 265000000000, "time": 132.9}}, "weekday": "wednesday", "livingplace": "Couvet"}}, "location": "Neuch\u00e2tel"}, "BCN Tour Les Ponts-de-Martel": {"latitude": 46.999113, "longitude": 6.733554799999999, "race": "BCN Tour Les Ponts-de-Martel", "date": {"mer. 09.05.2012": {"year": 2012, "day": 9, "month": 5, "categories": {"KG1": {"distance": 2, "rank": 151, "pace": 481000000000, "time": 914.0}}, "weekday": "wednesday", "livingplace": "Couvet"}}, "location": "Les Ponts-de-Martel"}, "BCN Tour Neuch\u00e2tel": {"latitude": 46.9899874, "longitude": 6.9292732, "race": "BCN Tour Neuch\u00e2tel", "date": {"mer. 30.05.2012": {"year": 2012, "day": 30, "month": 5, "categories": {"KG1": {"distance": 2, "rank": 171, "pace": 456000000000, "time": 798.5}}, "weekday": "wednesday", "livingplace": "Couvet"}, "mer. 25.05.2011": {"year": 2011, "day": 25, "month": 5, "categories": {"KG1": {"distance": 2, "rank": 190, "pace": 522000000000, "time": 1045.2}}, "weekday": "wednesday", "livingplace": "Boudry"}}, "location": "Neuch\u00e2tel"}, "BCN Tour Les Ponts de Martel": {"latitude": 46.9262933, "longitude": 6.6324944, "race": "BCN Tour Les Ponts de Martel", "date": {"mer. 18.05.2011": {"year": 2011, "day": 18, "month": 5, "categories": {"KG1": {"distance": 2, "rank": 135, "pace": 501000000000, "time": 988.2}}, "weekday": "wednesday", "livingplace": "Boudry"}}, "location": "Couvet"}, "BCN Tour #5 Colombier": {"latitude": 46.9262933, "longitude": 6.6324944, "race": "BCN Tour #5 Colombier", "date": {"mer. 22.05.2013": {"year": 2013, "day": 22, "month": 5, "categories": {"KGP": {"distance": 0, "rank": 34, "pace": 330000000000, "time": 165.0}}, "weekday": "wednesday", "livingplace": "Couvet"}}, "location": "Couvet"}, "BCN Tour Colombier": {"latitude": 47.1034892, "longitude": 6.832783800000001, "race": "BCN Tour Colombier", "date": {"mer. 16.05.2012": {"year": 2012, "day": 16, "month": 5, "categories": {"KG1": {"distance": 2, "rank": 193, "pace": 560000000000, "time": 840.4}}, "weekday": "wednesday", "livingplace": "Couvet"}}, "location": "La Chaux-de-Fonds"}, "BCN Tour #3 Dombresson": {"latitude": 46.999113, "longitude": 6.733554799999999, "race": "BCN Tour #3 Dombresson", "date": {"mer. 08.05.2013": {"year": 2013, "day": 8, "month": 5, "categories": {"KGP": {"distance": 1, "rank": 62, "pace": 350000000000, "time": 210.1}}, "weekday": "wednesday", "livingplace": "Couvet"}}, "location": "Les Ponts-de-Martel"}}, "birth": 2006}