{"name": "Pelletier Bernard", "sex": "M", "races": {"BCN Tour La Chaux-de-Fonds": {"latitude": 46.9262933, "longitude": 6.6324944, "race": "BCN Tour La Chaux-de-Fonds", "date": {"mer. 23.05.2012": {"year": 2012, "day": 23, "month": 5, "categories": {"HS2": {"distance": 11, "rank": 179, "pace": 319000000000, "time": 3445.4}}, "weekday": "wednesday", "livingplace": "Les Planchettes"}}, "location": "Couvet"}, "Lausanne Marathon": {"latitude": 46.5196535, "longitude": 6.6322734, "race": "Lausanne Marathon", "date": {"dim. 27.10.2013": {"year": 2013, "day": 27, "month": 10, "categories": {"21-H3": {"distance": 21, "rank": 274, "pace": 295000000000, "time": 6245.0}}, "weekday": "sunday", "livingplace": "Les Planchettes"}}, "location": "Lausanne"}, "Morat-Fribourg": {"latitude": 46.92922110000001, "longitude": 7.120184, "race": "Morat-Fribourg", "date": {"sam. 02.10.2010": {"year": 2010, "day": 2, "month": 10, "categories": {"17-M45": {"distance": 17, "rank": 305, "pace": 309000000000, "time": 5312.2}}, "weekday": "saturday", "livingplace": "Les Planchettes"}}, "location": "Murten"}, "Kerzerslauf": {"latitude": 46.97488999999999, "longitude": 7.1954365, "race": "Kerzerslauf", "date": {"sam. 21.03.2015": {"year": 2015, "day": 21, "month": 3, "categories": {"15-M50": {"distance": 15, "rank": 152, "pace": 279000000000, "time": 4185.5}}, "weekday": "saturday", "livingplace": "Les Planchettes"}}, "location": "Kerzers"}, "BCN Tour #3 Dombresson": {"latitude": 46.999113, "longitude": 6.733554799999999, "race": "BCN Tour #3 Dombresson", "date": {"mer. 08.05.2013": {"year": 2013, "day": 8, "month": 5, "categories": {"HS2": {"distance": 10, "rank": 319, "pace": 349000000000, "time": 3456.6}}, "weekday": "wednesday", "livingplace": "Les Planchettes"}}, "location": "Les Ponts-de-Martel"}, "BCN Tour #2 La Chaux-de-Fonds": {"latitude": 47.0624261, "longitude": 6.9175754, "race": "BCN Tour #2 La Chaux-de-Fonds", "date": {"mer. 01.05.2013": {"year": 2013, "day": 1, "month": 5, "categories": {"HS2": {"distance": 11, "rank": 187, "pace": 300000000000, "time": 3214.3}}, "weekday": "wednesday", "livingplace": "Les Planchettes"}}, "location": "Ch\u00e9zard-St-Martin"}}, "birth": 1965}