{"name": "Pelloux Marc", "sex": "M", "races": {"Morat-Fribourg": {"latitude": 46.92922110000001, "longitude": 7.120184, "race": "Morat-Fribourg", "date": {"sam. 04.10.2014": {"year": 2014, "day": 4, "month": 10, "categories": {"17-M20": {"distance": 17, "rank": 510, "pace": 277000000000, "time": 4764.8}}, "weekday": "saturday", "livingplace": "Lausanne"}}, "location": "Murten"}, "Les Traine-Savates, Cheseaux-sur-Lausanne": {"latitude": 46.585452, "longitude": 6.6047712, "race": "Les Traine-Savates, Cheseaux-sur-Lausanne", "date": {"sam. 18.04.2015": {"year": 2015, "day": 18, "month": 4, "categories": {"10-M20": {"distance": 10, "rank": 52, "pace": 246000000000, "time": 2541.0}}, "weekday": "saturday", "livingplace": "Lausanne"}}, "location": "Cheseaux-sur-Lausanne"}, "Lausanne Marathon": {"latitude": 46.5196535, "longitude": 6.6322734, "race": "Lausanne Marathon", "date": {"dim. 26.10.2014": {"year": 2014, "day": 26, "month": 10, "categories": {"21-H20": {"distance": 21, "rank": 130, "pace": 272000000000, "time": 5747.9}}, "weekday": "sunday", "livingplace": "Lausanne"}}, "location": "Lausanne"}, "Sierre-Zinal, Sierre": {"latitude": 46.29413110000001, "longitude": 7.533536199999999, "race": "Sierre-Zinal, Sierre", "date": {"dim. 10.08.2014": {"year": 2014, "day": 10, "month": 8, "categories": {"ElitesHo": {"distance": 31, "rank": 397, "pace": 520000000000, "time": 16134.7}}, "weekday": "sunday", "livingplace": "Lausanne"}}, "location": "Sierre"}, "20km de Lausanne": {"latitude": 46.5196535, "longitude": 6.6322734, "race": "20km de Lausanne", "date": {"sam. 30.04.2011": {"year": 2011, "day": 30, "month": 4, "categories": {"10-H20": {"distance": 10, "rank": 77, "pace": 262000000000, "time": 2626.1}}, "weekday": "saturday", "livingplace": "Cugy"}, "sam. 25.04.2015": {"year": 2015, "day": 25, "month": 4, "categories": {"20-H20": {"distance": 20, "rank": 191, "pace": 266000000000, "time": 5329.7}}, "weekday": "saturday", "livingplace": "Lausanne"}, "sam. 26.04.2014": {"year": 2014, "day": 26, "month": 4, "categories": {"10-H20": {"distance": 10, "rank": 85, "pace": 260000000000, "time": 2600.3}}, "weekday": "saturday", "livingplace": "Lausanne"}}, "location": "Lausanne"}, "Course de l'Avent, Fribourg": {"latitude": 46.8064773, "longitude": 7.161971899999999, "race": "Course de l'Avent, Fribourg", "date": {"dim. 24.11.2013": {"year": 2013, "day": 24, "month": 11, "categories": {"E-H20": {"distance": 7, "rank": 12, "pace": 258000000000, "time": 1913.9}}, "weekday": "sunday", "livingplace": "Lausanne"}}, "location": "Fribourg"}}, "birth": 1986}