{"name": "Peltier David", "sex": "M", "races": {"Tour du pays de Vaud #5 - Penthaz": {"latitude": 46.5993131, "longitude": 6.539251200000001, "race": "Tour du pays de Vaud #5 - Penthaz", "date": {"mer. 07.09.2011": {"year": 2011, "day": 7, "month": 9, "categories": {"H-Sen1": {"distance": 8, "rank": 72, "pace": 312000000000, "time": 2611.4}}, "weekday": "wednesday", "livingplace": "Crissier"}}, "location": "Penthaz"}, "Tour du pays de Vaud #6 - St  Prex": {"latitude": 46.4829113, "longitude": 6.458343500000001, "race": "Tour du pays de Vaud #6 - St  Prex", "date": {"mer. 14.09.2011": {"year": 2011, "day": 14, "month": 9, "categories": {"H-Sen1": {"distance": 9, "rank": 63, "pace": 263000000000, "time": 2264.1}}, "weekday": "wednesday", "livingplace": "Crissier"}}, "location": "St-Prex"}, "Lausanne Marathon": {"latitude": 46.5196535, "longitude": 6.6322734, "race": "Lausanne Marathon", "date": {"dim. 31.10.2010": {"year": 2010, "day": 31, "month": 10, "categories": {"42-H2": {"distance": 42, "rank": 248, "pace": 343000000000, "time": 14516.2}}, "weekday": "sunday", "livingplace": "Crissier"}}, "location": "Lausanne"}, "Morat-Fribourg": {"latitude": 46.92922110000001, "longitude": 7.120184, "race": "Morat-Fribourg", "date": {"sam. 02.10.2010": {"year": 2010, "day": 2, "month": 10, "categories": {"17-M20": {"distance": 17, "rank": 977, "pace": 305000000000, "time": 5253.7}}, "weekday": "saturday", "livingplace": "Crissier"}, "sam. 01.10.2011": {"year": 2011, "day": 1, "month": 10, "categories": {"17-M20": {"distance": 17, "rank": 1119, "pace": 310000000000, "time": 5329.7}}, "weekday": "saturday", "livingplace": "Crissier"}}, "location": "Murten"}, "20km de Lausanne": {"latitude": 46.5196535, "longitude": 6.6322734, "race": "20km de Lausanne", "date": {"sam. 24.04.2010": {"year": 2010, "day": 24, "month": 4, "categories": {"20-H30": {"distance": 20, "rank": 603, "pace": 330000000000, "time": 6619.7}}, "weekday": "saturday", "livingplace": "Crissier"}}, "location": "Lausanne"}, "Les Traine-Savates, Cheseaux-sur-Lausanne": {"latitude": 46.585452, "longitude": 6.6047712, "race": "Les Traine-Savates, Cheseaux-sur-Lausanne", "date": {"sam. 10.04.2010": {"year": 2010, "day": 10, "month": 4, "categories": {"Hom Sen": {"distance": 10, "rank": 147, "pace": 286000000000, "time": 2980.6}}, "weekday": "saturday", "livingplace": "Crissier"}, "sam. 09.04.2011": {"year": 2011, "day": 9, "month": 4, "categories": {"10-M20": {"distance": 10, "rank": 161, "pace": 284000000000, "time": 2959.4}}, "weekday": "saturday", "livingplace": "Crissier"}}, "location": "Cheseaux-sur-Lausanne"}}, "birth": 1972}