{"name": "Penna Sandro", "sex": "M", "races": {"Tour du Pays de Vaud printanier #2 Yverdon-les-Bains": {"latitude": 46.6698891, "longitude": 6.7975224, "race": "Tour du Pays de Vaud printanier #2 Yverdon-les-Bains", "date": {"mer. 05.06.2013": {"year": 2013, "day": 5, "month": 6, "categories": {"H-Sen2": {"distance": 9, "rank": 77, "pace": 357000000000, "time": 3251.8}}, "weekday": "wednesday", "livingplace": "Lausanne"}}, "location": "Moudon"}, "Tour du Pays de Vaud printanier #3 - Yens": {"latitude": 46.7829756, "longitude": 6.5728678, "race": "Tour du Pays de Vaud printanier #3 - Yens", "date": {"mer. 12.06.2013": {"year": 2013, "day": 12, "month": 6, "categories": {"H-Sen2": {"distance": 9, "rank": 74, "pace": 327000000000, "time": 2982.0}}, "weekday": "wednesday", "livingplace": "Lausanne"}}, "location": "Champvent"}, "Tour du Pays de Vaud #2 - Mezi\u00e8res": {"latitude": 46.5955273, "longitude": 6.7702883, "race": "Tour du Pays de Vaud #2 - Mezi\u00e8res", "date": {"mer. 21.08.2013": {"year": 2013, "day": 21, "month": 8, "categories": {"H-Sen2": {"distance": 8, "rank": 115, "pace": 333000000000, "time": 2697.3}}, "weekday": "wednesday", "livingplace": "Lausanne"}}, "location": "M\u00e9zi\u00e8res VD"}, "Corrida Bulloise, Bulle": {"latitude": 46.6154512, "longitude": 7.057726799999999, "race": "Corrida Bulloise, Bulle", "date": {"sam. 17.11.2012": {"year": 2012, "day": 17, "month": 11, "categories": {"PopHomm": {"distance": 6, "rank": 269, "pace": 283000000000, "time": 1744.7}}, "weekday": "saturday", "livingplace": "Lausanne"}}, "location": "Bulle"}, "Tour du Pays de Vaud #3 - Chavornay": {"latitude": 46.7784736, "longitude": 6.641183, "race": "Tour du Pays de Vaud #3 - Chavornay", "date": {"mer. 28.08.2013": {"year": 2013, "day": 28, "month": 8, "categories": {"H-Sen2": {"distance": 9, "rank": 103, "pace": 294000000000, "time": 2622.0}}, "weekday": "wednesday", "livingplace": "Lausanne"}}, "location": "Yverdon-les-Bains"}, "Lausanne Marathon": {"latitude": 46.5196535, "longitude": 6.6322734, "race": "Lausanne Marathon", "date": {"sam. 24.10.2015": {"year": 2015, "day": 24, "month": 10, "categories": {"10-H40": {"distance": 10, "rank": 189, "pace": 283000000000, "time": 2831.9}}, "weekday": "saturday", "livingplace": "Lausanne"}, "dim. 28.10.2012": {"year": 2012, "day": 28, "month": 10, "categories": {"10-H2": {"distance": 10, "rank": 149, "pace": 275000000000, "time": 2756.7}}, "weekday": "sunday", "livingplace": "Lausanne"}}, "location": "Lausanne"}, "Morat-Fribourg": {"latitude": 46.92922110000001, "longitude": 7.120184, "race": "Morat-Fribourg", "date": {"sam. 05.10.2013": {"year": 2013, "day": 5, "month": 10, "categories": {"17-M40": {"distance": 17, "rank": 671, "pace": 337000000000, "time": 5887.1}}, "weekday": "saturday", "livingplace": "Lausanne"}}, "location": "Murten"}, "20km de Lausanne": {"latitude": 46.5196535, "longitude": 6.6322734, "race": "20km de Lausanne", "date": {"sam. 27.04.2013": {"year": 2013, "day": 27, "month": 4, "categories": {"10-H40": {"distance": 10, "rank": 102, "pace": 277000000000, "time": 2779.4}}, "weekday": "saturday", "livingplace": "Lausanne"}, "sam. 25.04.2015": {"year": 2015, "day": 25, "month": 4, "categories": {"20-H40": {"distance": 20, "rank": 410, "pace": 333000000000, "time": 6670.8}}, "weekday": "saturday", "livingplace": "Lausanne"}}, "location": "Lausanne"}, "Tour du Pays de Vaud #4 - La Sarraz": {"latitude": 46.7088129, "longitude": 6.5707689, "race": "Tour du Pays de Vaud #4 - La Sarraz", "date": {"mer. 29.08.2012": {"year": 2012, "day": 29, "month": 8, "categories": {"H-Sen1": {"distance": 9, "rank": 134, "pace": 304000000000, "time": 2591.2}}, "weekday": "wednesday", "livingplace": "Lausanne"}, "mer. 04.09.2013": {"year": 2013, "day": 4, "month": 9, "categories": {"H-Sen2": {"distance": 9, "rank": 114, "pace": 302000000000, "time": 2568.5}}, "weekday": "wednesday", "livingplace": "Lausanne"}}, "location": "Chavornay"}}, "birth": 1973}