{"name": "Perretier Boris", "sex": "M", "races": {"BCN Tour M\u00f4tier": {"latitude": 46.9262933, "longitude": 6.6324944, "race": "BCN Tour M\u00f4tier", "date": {"mer. 19.05.2010": {"year": 2010, "day": 19, "month": 5, "categories": {"HE": {"distance": 10, "rank": 51, "pace": 265000000000, "time": 2627.2}}, "weekday": "wednesday", "livingplace": "Pontarlier"}}, "location": "Couvet"}, "BCN Tour La Br\u00e9vine": {"latitude": 46.999113, "longitude": 6.733554799999999, "race": "BCN Tour La Br\u00e9vine", "date": {"mer. 04.05.2011": {"year": 2011, "day": 4, "month": 5, "categories": {"HS1": {"distance": 10, "rank": 25, "pace": 255000000000, "time": 2551.8}}, "weekday": "wednesday", "livingplace": "Pontarlier"}}, "location": "Les Ponts-de-Martel"}, "BCN Tour Neuch\u00e2tel": {"latitude": 46.9899874, "longitude": 6.9292732, "race": "BCN Tour Neuch\u00e2tel", "date": {"mer. 26.05.2010": {"year": 2010, "day": 26, "month": 5, "categories": {"HE": {"distance": 10, "rank": 41, "pace": 276000000000, "time": 2686.4}}, "weekday": "wednesday", "livingplace": "Pontarlier"}}, "location": "Neuch\u00e2tel"}, "BCN Tour Les Ponts de Martel": {"latitude": 46.9262933, "longitude": 6.6324944, "race": "BCN Tour Les Ponts de Martel", "date": {"mer. 18.05.2011": {"year": 2011, "day": 18, "month": 5, "categories": {"HS1": {"distance": 13, "rank": 28, "pace": 257000000000, "time": 3294.9}}, "weekday": "wednesday", "livingplace": "Pontarlier"}}, "location": "Couvet"}, "BCN Tour Auvernier": {"latitude": 46.9668714, "longitude": 6.8589727, "race": "BCN Tour Auvernier", "date": {"mer. 20.04.2011": {"year": 2011, "day": 20, "month": 4, "categories": {"HS1": {"distance": 11, "rank": 17, "pace": 248000000000, "time": 2682.7}}, "weekday": "wednesday", "livingplace": "Pontarlier"}}, "location": "Colombier NE"}, "Aletsch-Halbmarathon, Bettmeralp": {"latitude": NaN, "longitude": NaN, "race": "Aletsch-Halbmarathon, Bettmeralp", "date": {"dim. 29.06.2014": {"year": 2014, "day": 29, "month": 6, "categories": {"M20": {"distance": 13, "rank": 24, "pace": 292000000000, "time": 3886.9}}, "weekday": "sunday", "livingplace": "Pontarlier"}}, "location": "Bettmeralp"}, "BCN Tour La Chaux-de-fonds": {"latitude": 47.1034892, "longitude": 6.832783800000001, "race": "BCN Tour La Chaux-de-fonds", "date": {"mer. 12.05.2010": {"year": 2010, "day": 12, "month": 5, "categories": {"HE": {"distance": 11, "rank": 25, "pace": 316000000000, "time": 3386.8}}, "weekday": "wednesday", "livingplace": "Pontarlier"}}, "location": "La Chaux-de-Fonds"}}, "birth": 1981}