{"name": "Perrin Isabelle", "sex": "F", "races": {"Tour du Pays de Vaud etape 5 - La Sarraz": {"latitude": 46.5993131, "longitude": 6.539251200000001, "race": "Tour du Pays de Vaud etape 5 - La Sarraz", "date": {"mer. 10.09.2008": {"year": 2008, "day": 10, "month": 9, "categories": {"DamSen2": {"distance": 9, "rank": 42, "pace": 359000000000, "time": 3095.7}}, "weekday": "wednesday", "livingplace": "St Prex"}}, "location": "Penthaz"}, "Tour du Pays de Vaud #2 - Genolier": {"latitude": 46.5955273, "longitude": 6.7702883, "race": "Tour du Pays de Vaud #2 - Genolier", "date": {"mer. 17.08.2011": {"year": 2011, "day": 17, "month": 8, "categories": {"D-Sen2": {"distance": 9, "rank": 70, "pace": 403000000000, "time": 3430.2}}, "weekday": "wednesday", "livingplace": "St Prex"}}, "location": "M\u00e9zi\u00e8res VD"}, "Morat-Fribourg": {"latitude": 46.92922110000001, "longitude": 7.120184, "race": "Morat-Fribourg", "date": {"sam. 02.10.2010": {"year": 2010, "day": 2, "month": 10, "categories": {"17-W40": {"distance": 17, "rank": 241, "pace": 409000000000, "time": 7035.1}}, "weekday": "saturday", "livingplace": "St Prex"}, "sam. 06.10.2007": {"year": 2007, "day": 6, "month": 10, "categories": {"C/W40": {"distance": 17, "rank": 212, "pace": 384000000000, "time": 6598.1}}, "weekday": "saturday", "livingplace": "St Prex"}}, "location": "Murten"}, "Semi-Marathon de la C\u00f4te, Allaman-Nyon": {"latitude": 46.3832683, "longitude": 6.2347852, "race": "Semi-Marathon de la C\u00f4te, Allaman-Nyon", "date": {"dim. 14.09.2014": {"year": 2014, "day": 14, "month": 9, "categories": {"21-F45": {"distance": 21, "rank": 65, "pace": 416000000000, "time": 8794.0}}, "weekday": "sunday", "livingplace": "St Prex"}}, "location": "Nyon"}, "Tour du Pays de Vaud etape 2 - Genolier": {"latitude": 46.5955273, "longitude": 6.7702883, "race": "Tour du Pays de Vaud etape 2 - Genolier", "date": {"mer. 20.08.2008": {"year": 2008, "day": 20, "month": 8, "categories": {"DamSen2": {"distance": 8, "rank": 50, "pace": 368000000000, "time": 3058.3}}, "weekday": "wednesday", "livingplace": "St Prex"}}, "location": "M\u00e9zi\u00e8res VD"}, "Tour du Pays de Vaud printanier #1 Moudon": {"latitude": 46.3832683, "longitude": 6.2347852, "race": "Tour du Pays de Vaud printanier #1 Moudon", "date": {"mer. 29.05.2013": {"year": 2013, "day": 29, "month": 5, "categories": {"D-Sen2": {"distance": 8, "rank": 27, "pace": 399000000000, "time": 3419.7}}, "weekday": "wednesday", "livingplace": "St Prex"}}, "location": "Nyon"}, "Tour du pays de Vaud #5 - Penthaz": {"latitude": 46.5993131, "longitude": 6.539251200000001, "race": "Tour du pays de Vaud #5 - Penthaz", "date": {"mer. 07.09.2011": {"year": 2011, "day": 7, "month": 9, "categories": {"D-Sen2": {"distance": 8, "rank": 57, "pace": 425000000000, "time": 3553.1}}, "weekday": "wednesday", "livingplace": "St Prex"}}, "location": "Penthaz"}, "Tour du Pays de Vaud etape 1 - Le Mont sur Lausanne": {"latitude": 46.7784736, "longitude": 6.641183, "race": "Tour du Pays de Vaud etape 1 - Le Mont sur Lausanne", "date": {"mer. 13.08.2008": {"year": 2008, "day": 13, "month": 8, "categories": {"DamSen2": {"distance": 8, "rank": 48, "pace": 372000000000, "time": 3125.9}}, "weekday": "wednesday", "livingplace": "St Prex"}}, "location": "Yverdon-les-Bains"}, "20km de Lausanne": {"latitude": 46.5196535, "longitude": 6.6322734, "race": "20km de Lausanne", "date": {"sam. 30.04.2011": {"year": 2011, "day": 30, "month": 4, "categories": {"10-F45": {"distance": 10, "rank": 165, "pace": 369000000000, "time": 3697.9}}, "weekday": "saturday", "livingplace": "St Prex"}, "sam. 27.04.2013": {"year": 2013, "day": 27, "month": 4, "categories": {"10-F45": {"distance": 10, "rank": 243, "pace": 393000000000, "time": 3936.1}}, "weekday": "saturday", "livingplace": "St Prex"}, "sam. 26.04.2014": {"year": 2014, "day": 26, "month": 4, "categories": {"10-F45": {"distance": 10, "rank": 250, "pace": 394000000000, "time": 3948.5}}, "weekday": "saturday", "livingplace": "St Prex"}, "sam. 22.04.2006": {"year": 2006, "day": 22, "month": 4, "categories": {"10/F40": {"distance": 10, "rank": 177, "pace": 406000000000, "time": 4068.0}}, "weekday": "saturday", "livingplace": "St Prex"}}, "location": "Lausanne"}, "Tour du Pays de Vaud printanier #2 Yverdon-les-Bains": {"latitude": 46.6698891, "longitude": 6.7975224, "race": "Tour du Pays de Vaud printanier #2 Yverdon-les-Bains", "date": {"mer. 11.06.2014": {"year": 2014, "day": 11, "month": 6, "categories": {"D-Sen2": {"distance": 9, "rank": 23, "pace": 427000000000, "time": 3887.7}}, "weekday": "wednesday", "livingplace": "St Prex"}}, "location": "Moudon"}, "Kerzerslauf": {"latitude": 46.97488999999999, "longitude": 7.1954365, "race": "Kerzerslauf", "date": {"sam. 19.03.2011": {"year": 2011, "day": 19, "month": 3, "categories": {"15-F45": {"distance": 15, "rank": 230, "pace": 375000000000, "time": 5638.8}}, "weekday": "saturday", "livingplace": "St Prex"}}, "location": "Kerzers"}}, "birth": 1966}