{"name": "Perriard Johann", "sex": "M", "races": {"Groupe E Tour Fribourg #3, Kerzers": {"latitude": 46.97488999999999, "longitude": 7.1954365, "race": "Groupe E Tour Fribourg #3, Kerzers", "date": {"mer. 03.09.2014": {"year": 2014, "day": 3, "month": 9, "categories": {"H-Sen1": {"distance": 10, "rank": 34, "pace": 275000000000, "time": 2796.8}}, "weekday": "wednesday", "livingplace": "Vuarmarens"}}, "location": "Kerzers"}, "20km de Lausanne": {"latitude": 46.5196535, "longitude": 6.6322734, "race": "20km de Lausanne", "date": {"sam. 26.04.2014": {"year": 2014, "day": 26, "month": 4, "categories": {"10-H30": {"distance": 10, "rank": 205, "pace": 275000000000, "time": 2754.4}}, "weekday": "saturday", "livingplace": "Vuarmarens"}}, "location": "Lausanne"}, "Morat-Fribourg": {"latitude": 46.92922110000001, "longitude": 7.120184, "race": "Morat-Fribourg", "date": {"sam. 01.10.2011": {"year": 2011, "day": 1, "month": 10, "categories": {"17-M20": {"distance": 17, "rank": 1249, "pace": 319000000000, "time": 5478.0}}, "weekday": "saturday", "livingplace": "Granges Paccot"}}, "location": "Murten"}, "Groupe E Tour Fribourg #1, Cousset": {"latitude": 46.81832, "longitude": 6.977279999999999, "race": "Groupe E Tour Fribourg #1, Cousset", "date": {"mer. 20.08.2014": {"year": 2014, "day": 20, "month": 8, "categories": {"H-Sen1": {"distance": 9, "rank": 37, "pace": 271000000000, "time": 2552.7}}, "weekday": "wednesday", "livingplace": "Vuarmarens"}}, "location": "Cousset"}, "Groupe E Tour Fribourg #2, Charmey": {"latitude": 46.6175845, "longitude": 7.1654493, "race": "Groupe E Tour Fribourg #2, Charmey", "date": {"mer. 27.08.2014": {"year": 2014, "day": 27, "month": 8, "categories": {"H-Sen1": {"distance": 10, "rank": 45, "pace": 309000000000, "time": 2988.5}}, "weekday": "wednesday", "livingplace": "Vuarmarens"}}, "location": "Charmey (Gruy\u00e8re)"}}, "birth": 1981}