{"name": "Petermann Patrice", "sex": "M", "races": {"SwissCityMarathon - Lucerne, Luzern": {"latitude": 47.05016819999999, "longitude": 8.3093072, "race": "SwissCityMarathon - Lucerne, Luzern", "date": {"dim. 26.10.2014": {"year": 2014, "day": 26, "month": 10, "categories": {"M-M30": {"distance": 42, "rank": 98, "pace": 293000000000, "time": 12378.1}}, "weekday": "sunday", "livingplace": "La Chaux de Fonds"}}, "location": "Luzern"}, "BCN Tour #1 Corcelles": {"latitude": 46.9668714, "longitude": 6.8589727, "race": "BCN Tour #1 Corcelles", "date": {"mer. 24.04.2013": {"year": 2013, "day": 24, "month": 4, "categories": {"HS1": {"distance": 10, "rank": 33, "pace": 251000000000, "time": 2462.2}}, "weekday": "wednesday", "livingplace": "La Chaux de Fonds"}}, "location": "Colombier NE"}, "Morat-Fribourg": {"latitude": 46.92922110000001, "longitude": 7.120184, "race": "Morat-Fribourg", "date": {"sam. 05.10.2013": {"year": 2013, "day": 5, "month": 10, "categories": {"17-M20": {"distance": 17, "rank": 400, "pace": 264000000000, "time": 4619.9}}, "weekday": "saturday", "livingplace": "La Chaux de Fonds"}, "sam. 06.10.2012": {"year": 2012, "day": 6, "month": 10, "categories": {"17-M20": {"distance": 17, "rank": 284, "pace": 262000000000, "time": 4572.5}}, "weekday": "saturday", "livingplace": "La Chaux de Fonds"}}, "location": "Murten"}, "BCN Tour Les Ponts-de-Martel": {"latitude": 46.999113, "longitude": 6.733554799999999, "race": "BCN Tour Les Ponts-de-Martel", "date": {"mer. 09.05.2012": {"year": 2012, "day": 9, "month": 5, "categories": {"HS1": {"distance": 10, "rank": 49, "pace": 260000000000, "time": 2682.2}}, "weekday": "wednesday", "livingplace": "La Chaux de Fonds"}}, "location": "Les Ponts-de-Martel"}, "BCN Tour Le Landeron": {"latitude": 46.9668714, "longitude": 6.8589727, "race": "BCN Tour Le Landeron", "date": {"mer. 22.04.2009": {"year": 2009, "day": 22, "month": 4, "categories": {"HE": {"distance": 11, "rank": 128, "pace": 347000000000, "time": 3851.8}}, "weekday": "wednesday", "livingplace": "La Chaux de Fonds"}}, "location": "Colombier NE"}, "BCN Tour Ponts-de-Martel": {"latitude": 47.0624261, "longitude": 6.9175754, "race": "BCN Tour Ponts-de-Martel", "date": {"mer. 28.04.2010": {"year": 2010, "day": 28, "month": 4, "categories": {"HE": {"distance": 11, "rank": 19, "pace": 263000000000, "time": 2945.8}}, "weekday": "wednesday", "livingplace": "La Chaux de Fonds"}}, "location": "Ch\u00e9zard-St-Martin"}, "BCN Tour Auvernier": {"latitude": 46.9668714, "longitude": 6.8589727, "race": "BCN Tour Auvernier", "date": {"mer. 20.04.2011": {"year": 2011, "day": 20, "month": 4, "categories": {"HS1": {"distance": 11, "rank": 44, "pace": 271000000000, "time": 2928.5}}, "weekday": "wednesday", "livingplace": "La Chaux de Fonds"}}, "location": "Colombier NE"}, "BCN Tour #4 Fleurier": {"latitude": 47.1034892, "longitude": 6.832783800000001, "race": "BCN Tour #4 Fleurier", "date": {"mer. 15.05.2013": {"year": 2013, "day": 15, "month": 5, "categories": {"HS1": {"distance": 9, "rank": 30, "pace": 252000000000, "time": 2180.3}}, "weekday": "wednesday", "livingplace": "La Chaux de Fonds"}}, "location": "La Chaux-de-Fonds"}, "BCN Tour #2 La Chaux-de-Fonds": {"latitude": 47.0624261, "longitude": 6.9175754, "race": "BCN Tour #2 La Chaux-de-Fonds", "date": {"mer. 01.05.2013": {"year": 2013, "day": 1, "month": 5, "categories": {"HS1": {"distance": 11, "rank": 41, "pace": 250000000000, "time": 2675.2}}, "weekday": "wednesday", "livingplace": "La Chaux de Fonds"}}, "location": "Ch\u00e9zard-St-Martin"}, "BCN Tour La Chaux-de-Fonds": {"latitude": 47.1034892, "longitude": 6.832783800000001, "race": "BCN Tour La Chaux-de-Fonds", "date": {"mer. 23.05.2012": {"year": 2012, "day": 23, "month": 5, "categories": {"HS1": {"distance": 11, "rank": 54, "pace": 261000000000, "time": 2827.2}}, "weekday": "wednesday", "livingplace": "La Chaux de Fonds"}, "mer. 11.05.2011": {"year": 2011, "day": 11, "month": 5, "categories": {"HS1": {"distance": 11, "rank": 52, "pace": 303000000000, "time": 3248.6}}, "weekday": "wednesday", "livingplace": "La Chaux de Fonds"}}, "location": "La Chaux-de-Fonds"}, "D\u00e9fi Val-de-Travers, Couvet": {"latitude": 46.9262933, "longitude": 6.6324944, "race": "D\u00e9fi Val-de-Travers, Couvet", "date": {"sam. 21.06.2008": {"year": 2008, "day": 21, "month": 6, "categories": {"MH": {"distance": 41, "rank": 4, "pace": 382000000000, "time": 15775.8}}, "weekday": "saturday", "livingplace": "La Chaux de Fonds"}, "sam. 19.06.2010": {"year": 2010, "day": 19, "month": 6, "categories": {"21-Hom": {"distance": 20, "rank": 6, "pace": 288000000000, "time": 5683.9}}, "weekday": "saturday", "livingplace": "La Chaux de Fonds"}}, "location": "Couvet"}, "BCN Tour Neuch\u00e2tel": {"latitude": 46.9899874, "longitude": 6.9292732, "race": "BCN Tour Neuch\u00e2tel", "date": {"mer. 26.05.2010": {"year": 2010, "day": 26, "month": 5, "categories": {"HE": {"distance": 10, "rank": 31, "pace": 272000000000, "time": 2641.3}}, "weekday": "wednesday", "livingplace": "La Chaux de Fonds"}, "mer. 30.05.2012": {"year": 2012, "day": 30, "month": 5, "categories": {"HS1": {"distance": 11, "rank": 59, "pace": 278000000000, "time": 3114.5}}, "weekday": "wednesday", "livingplace": "La Chaux de Fonds"}, "mer. 25.05.2011": {"year": 2011, "day": 25, "month": 5, "categories": {"HS1": {"distance": 11, "rank": 61, "pace": 268000000000, "time": 3062.5}}, "weekday": "wednesday", "livingplace": "La Chaux de Fonds"}}, "location": "Neuch\u00e2tel"}, "Course de l'Escalade, Gen\u00e8ve": {"latitude": 46.2043907, "longitude": 6.1431577, "race": "Course de l'Escalade, Gen\u00e8ve", "date": {"sam. 03.12.2011": {"year": 2011, "day": 3, "month": 12, "categories": {"H-H2": {"distance": 7, "rank": 114, "pace": 245000000000, "time": 1776.8}}, "weekday": "saturday", "livingplace": "La Chaux de Fonds"}, "sam. 06.12.2014": {"year": 2014, "day": 6, "month": 12, "categories": {"Esc-Hom2": {"distance": 7, "rank": 544, "pace": 275000000000, "time": 2017.1}}, "weekday": "saturday", "livingplace": "La Chaux de Fonds"}, "sam. 04.12.2010": {"year": 2010, "day": 4, "month": 12, "categories": {"H-H1": {"distance": 7, "rank": 54, "pace": 219000000000, "time": 1588.2}}, "weekday": "saturday", "livingplace": "La Chaux de Fonds"}, "sam. 01.12.2012": {"year": 2012, "day": 1, "month": 12, "categories": {"Duc-Hom2": {"distance": 18, "rank": 80, "pace": 255000000000, "time": 4479.9}}, "weekday": "saturday", "livingplace": "La Chaux de Fonds"}}, "location": "Gen\u00e8ve"}, "BCN Tour Cornaux": {"latitude": 46.9668714, "longitude": 6.8589727, "race": "BCN Tour Cornaux", "date": {"mer. 25.04.2012": {"year": 2012, "day": 25, "month": 4, "categories": {"HS1": {"distance": 11, "rank": 40, "pace": 278000000000, "time": 3065.2}}, "weekday": "wednesday", "livingplace": "La Chaux de Fonds"}}, "location": "Colombier NE"}, "BCN Tour #3 Dombresson": {"latitude": 46.999113, "longitude": 6.733554799999999, "race": "BCN Tour #3 Dombresson", "date": {"mer. 08.05.2013": {"year": 2013, "day": 8, "month": 5, "categories": {"HS1": {"distance": 10, "rank": 29, "pace": 244000000000, "time": 2419.9}}, "weekday": "wednesday", "livingplace": "La Chaux de Fonds"}}, "location": "Les Ponts-de-Martel"}, "BCN Tour M\u00f4tier": {"latitude": 46.9262933, "longitude": 6.6324944, "race": "BCN Tour M\u00f4tier", "date": {"mer. 19.05.2010": {"year": 2010, "day": 19, "month": 5, "categories": {"HE": {"distance": 10, "rank": 22, "pace": 243000000000, "time": 2414.0}}, "weekday": "wednesday", "livingplace": "La Chaux de Fonds"}}, "location": "Couvet"}, "BCN Tour Fontaine Cernier": {"latitude": 47.0624261, "longitude": 6.9175754, "race": "BCN Tour Fontaine Cernier", "date": {"mer. 27.04.2011": {"year": 2011, "day": 27, "month": 4, "categories": {"HS1": {"distance": 10, "rank": 46, "pace": 253000000000, "time": 2608.7}}, "weekday": "wednesday", "livingplace": "La Chaux de Fonds"}}, "location": "Ch\u00e9zard-St-Martin"}, "La Trotteuse-Tissot, La Chaux-de-Fonds": {"latitude": 47.1034892, "longitude": 6.832783800000001, "race": "La Trotteuse-Tissot, La Chaux-de-Fonds", "date": {"sam. 18.12.2010": {"year": 2010, "day": 18, "month": 12, "categories": {"GC-H20": {"distance": 8, "rank": 18, "pace": 260000000000, "time": 2085.1}}, "weekday": "saturday", "livingplace": "La Chaux de Fonds"}, "sam. 13.12.2014": {"year": 2014, "day": 13, "month": 12, "categories": {"GC-H30": {"distance": 8, "rank": 76, "pace": 265000000000, "time": 2127.1}}, "weekday": "saturday", "livingplace": "La Chaux de Fonds"}, "sam. 08.12.2012": {"year": 2012, "day": 8, "month": 12, "categories": {"GC-H30": {"distance": 8, "rank": 55, "pace": 294000000000, "time": 2357.7}}, "weekday": "saturday", "livingplace": "La Chaux de Fonds"}, "sam. 14.12.2013": {"year": 2013, "day": 14, "month": 12, "categories": {"GC-H30": {"distance": 8, "rank": 32, "pace": 247000000000, "time": 1976.1}}, "weekday": "saturday", "livingplace": "La Chaux de Fonds"}}, "location": "La Chaux-de-Fonds"}, "BCN Tour Le Locle": {"latitude": 46.999113, "longitude": 6.733554799999999, "race": "BCN Tour Le Locle", "date": {"mer. 05.05.2010": {"year": 2010, "day": 5, "month": 5, "categories": {"HE": {"distance": 11, "rank": 22, "pace": 254000000000, "time": 2773.2}}, "weekday": "wednesday", "livingplace": "La Chaux de Fonds"}}, "location": "Les Ponts-de-Martel"}, "BCN Tour Couvet": {"latitude": 47.0624261, "longitude": 6.9175754, "race": "BCN Tour Couvet", "date": {"mer. 02.05.2012": {"year": 2012, "day": 2, "month": 5, "categories": {"HS1": {"distance": 11, "rank": 37, "pace": 259000000000, "time": 2895.1}}, "weekday": "wednesday", "livingplace": "La Chaux de Fonds"}}, "location": "Ch\u00e9zard-St-Martin"}, "BCN Tour #5 Colombier": {"latitude": 46.9262933, "longitude": 6.6324944, "race": "BCN Tour #5 Colombier", "date": {"mer. 22.05.2013": {"year": 2013, "day": 22, "month": 5, "categories": {"HS1": {"distance": 11, "rank": 36, "pace": 231000000000, "time": 2435.1}}, "weekday": "wednesday", "livingplace": "La Chaux de Fonds"}}, "location": "Couvet"}, "BCN Tour #6 Neuch\u00e2tel": {"latitude": 46.9899874, "longitude": 6.9292732, "race": "BCN Tour #6 Neuch\u00e2tel", "date": {"mer. 29.05.2013": {"year": 2013, "day": 29, "month": 5, "categories": {"HS1": {"distance": 11, "rank": 47, "pace": 264000000000, "time": 2910.5}}, "weekday": "wednesday", "livingplace": "La Chaux de Fonds"}}, "location": "Neuch\u00e2tel"}, "BCN Tour La Br\u00e9vine": {"latitude": 46.999113, "longitude": 6.733554799999999, "race": "BCN Tour La Br\u00e9vine", "date": {"mer. 04.05.2011": {"year": 2011, "day": 4, "month": 5, "categories": {"HS1": {"distance": 10, "rank": 34, "pace": 262000000000, "time": 2628.3}}, "weekday": "wednesday", "livingplace": "La Chaux de Fonds"}}, "location": "Les Ponts-de-Martel"}, "BCN Tour Les Ponts de Martel": {"latitude": 46.9262933, "longitude": 6.6324944, "race": "BCN Tour Les Ponts de Martel", "date": {"mer. 18.05.2011": {"year": 2011, "day": 18, "month": 5, "categories": {"HS1": {"distance": 13, "rank": 52, "pace": 272000000000, "time": 3482.6}}, "weekday": "wednesday", "livingplace": "La Chaux de Fonds"}}, "location": "Couvet"}, "BCN Tour La Chaux-de-fonds": {"latitude": 47.1034892, "longitude": 6.832783800000001, "race": "BCN Tour La Chaux-de-fonds", "date": {"mer. 12.05.2010": {"year": 2010, "day": 12, "month": 5, "categories": {"HE": {"distance": 11, "rank": 26, "pace": 317000000000, "time": 3393.6}}, "weekday": "wednesday", "livingplace": "La Chaux de Fonds"}}, "location": "La Chaux-de-Fonds"}, "BCN Tour Colombier": {"latitude": 46.9668714, "longitude": 6.8589727, "race": "BCN Tour Colombier", "date": {"mer. 16.05.2012": {"year": 2012, "day": 16, "month": 5, "categories": {"HS1": {"distance": 11, "rank": 37, "pace": 250000000000, "time": 2707.1}}, "weekday": "wednesday", "livingplace": "La Chaux de Fonds"}, "mer. 23.04.2008": {"year": 2008, "day": 23, "month": 4, "categories": {"HE": {"distance": 10, "rank": 26, "pace": 272000000000, "time": 2776.6}}, "weekday": "wednesday", "livingplace": "La Chaux de Fonds"}, "mer. 21.04.2010": {"year": 2010, "day": 21, "month": 4, "categories": {"HE": {"distance": 10, "rank": 25, "pace": 278000000000, "time": 2784.4}}, "weekday": "wednesday", "livingplace": "La Chaux de Fonds"}}, "location": "Colombier NE"}}, "birth": 1981}