{"name": "Petermann C\u00e9dric", "sex": "M", "races": {"Lausanne Marathon": {"latitude": 46.5196535, "longitude": 6.6322734, "race": "Lausanne Marathon", "date": {"dim. 26.10.2014": {"year": 2014, "day": 26, "month": 10, "categories": {"10-H40": {"distance": 10, "rank": 369, "pace": 314000000000, "time": 3149.2}}, "weekday": "sunday", "livingplace": "Agiez"}}, "location": "Lausanne"}, "Tour du Pays de Vaud #4, La Sarraz": {"latitude": 46.7088129, "longitude": 6.5707689, "race": "Tour du Pays de Vaud #4, La Sarraz", "date": {"mer. 03.09.2014": {"year": 2014, "day": 3, "month": 9, "categories": {"H-Sen2": {"distance": 9, "rank": 115, "pace": 327000000000, "time": 2780.4}}, "weekday": "wednesday", "livingplace": "Agiez"}}, "location": "Chavornay"}, "Tour du Pays de Vaud printanier #1 Chavornay": {"latitude": 46.3832683, "longitude": 6.2347852, "race": "Tour du Pays de Vaud printanier #1 Chavornay", "date": {"mer. 30.05.2012": {"year": 2012, "day": 30, "month": 5, "categories": {"H-Sen1": {"distance": 9, "rank": 66, "pace": 373000000000, "time": 3339.4}}, "weekday": "wednesday", "livingplace": "Agiez"}}, "location": "Nyon"}, "Les Traine-Savates, Cheseaux-sur-Lausanne": {"latitude": 46.585452, "longitude": 6.6047712, "race": "Les Traine-Savates, Cheseaux-sur-Lausanne", "date": {"sam. 18.04.2015": {"year": 2015, "day": 18, "month": 4, "categories": {"10-M40": {"distance": 10, "rank": 199, "pace": 334000000000, "time": 3446.5}}, "weekday": "saturday", "livingplace": "Agiez"}, "sam. 13.04.2013": {"year": 2013, "day": 13, "month": 4, "categories": {"10-M40": {"distance": 10, "rank": 236, "pace": 394000000000, "time": 4059.9}}, "weekday": "saturday", "livingplace": "Agiez"}}, "location": "Cheseaux-sur-Lausanne"}, "Tour du Pays de Vaud #3 - Mezi\u00e8res": {"latitude": 46.7784736, "longitude": 6.641183, "race": "Tour du Pays de Vaud #3 - Mezi\u00e8res", "date": {"mer. 22.08.2012": {"year": 2012, "day": 22, "month": 8, "categories": {"H-Sen1": {"distance": 8, "rank": 182, "pace": 411000000000, "time": 3456.6}}, "weekday": "wednesday", "livingplace": "Agiez"}}, "location": "Yverdon-les-Bains"}, "20km de Lausanne": {"latitude": 46.5196535, "longitude": 6.6322734, "race": "20km de Lausanne", "date": {"sam. 27.04.2013": {"year": 2013, "day": 27, "month": 4, "categories": {"10-H40": {"distance": 10, "rank": 452, "pace": 346000000000, "time": 3461.6}}, "weekday": "saturday", "livingplace": "Aras Junova"}, "sam. 28.04.2012": {"year": 2012, "day": 28, "month": 4, "categories": {"10-H30": {"distance": 10, "rank": 991, "pace": 403000000000, "time": 4036.3}}, "weekday": "saturday", "livingplace": "Jura"}, "sam. 25.04.2015": {"year": 2015, "day": 25, "month": 4, "categories": {"10-H40": {"distance": 10, "rank": 374, "pace": 343000000000, "time": 3430.3}}, "weekday": "saturday", "livingplace": "Aras Junova"}}, "location": "Lausanne"}, "Tour du Pays de Vaud #4 - La Sarraz": {"latitude": 46.7088129, "longitude": 6.5707689, "race": "Tour du Pays de Vaud #4 - La Sarraz", "date": {"mer. 29.08.2012": {"year": 2012, "day": 29, "month": 8, "categories": {"H-Sen1": {"distance": 9, "rank": 174, "pace": 357000000000, "time": 3035.5}}, "weekday": "wednesday", "livingplace": "Agiez"}}, "location": "Chavornay"}, "Tour du pays de Vaud #1 - Penthaz": {"latitude": 46.5993131, "longitude": 6.539251200000001, "race": "Tour du pays de Vaud #1 - Penthaz", "date": {"mer. 08.08.2012": {"year": 2012, "day": 8, "month": 8, "categories": {"H-Sen1": {"distance": 9, "rank": 180, "pace": 373000000000, "time": 3182.6}}, "weekday": "wednesday", "livingplace": "Agiez"}}, "location": "Penthaz"}, "Tour du Pays de Vaud #3, Chavornay": {"latitude": 46.7784736, "longitude": 6.641183, "race": "Tour du Pays de Vaud #3, Chavornay", "date": {"mer. 27.08.2014": {"year": 2014, "day": 27, "month": 8, "categories": {"H-Sen2": {"distance": 9, "rank": 131, "pace": 350000000000, "time": 3010.0}}, "weekday": "wednesday", "livingplace": "Agiez"}}, "location": "Yverdon-les-Bains"}}, "birth": 1973}