{"name": "Petrelli Yan", "sex": "M", "races": {"Lucerne Marathon, Luzern": {"latitude": 47.05016819999999, "longitude": 8.3093072, "race": "Lucerne Marathon, Luzern", "date": {"dim. 25.10.2009": {"year": 2009, "day": 25, "month": 10, "categories": {"H-M30": {"distance": 21, "rank": 391, "pace": 295000000000, "time": 6228.0}}, "weekday": "sunday", "livingplace": "Delemont"}, "dim. 31.10.2010": {"year": 2010, "day": 31, "month": 10, "categories": {"H-M30": {"distance": 21, "rank": 390, "pace": 288000000000, "time": 6078.8}}, "weekday": "sunday", "livingplace": "Delemont"}}, "location": "Luzern"}, "IWB Basel Marathon": {"latitude": 47.5595986, "longitude": 7.5885761, "race": "IWB Basel Marathon", "date": {"dim. 11.09.2011": {"year": 2011, "day": 11, "month": 9, "categories": {"K-7-MANN": {"distance": 7, "rank": 17, "pace": 266000000000, "time": 1895.0}}, "weekday": "sunday", "livingplace": "Delemont"}}, "location": "Basel"}, "ASICS Bremgarter Reusslauf": {"latitude": 47.34917739999999, "longitude": 8.3397905, "race": "ASICS Bremgarter Reusslauf", "date": {"sam. 25.02.2012": {"year": 2012, "day": 25, "month": 2, "categories": {"M30": {"distance": 11, "rank": 163, "pace": 255000000000, "time": 2808.0}}, "weekday": "saturday", "livingplace": "Delemont"}, "sam. 27.02.2010": {"year": 2010, "day": 27, "month": 2, "categories": {"M30": {"distance": 11, "rank": 191, "pace": 262000000000, "time": 2883.4}}, "weekday": "saturday", "livingplace": "Delemont"}, "sam. 26.02.2011": {"year": 2011, "day": 26, "month": 2, "categories": {"M30": {"distance": 11, "rank": 167, "pace": 257000000000, "time": 2827.7}}, "weekday": "saturday", "livingplace": "Delemont"}}, "location": "Bremgarten AG"}, "Birslauf Basel": {"latitude": 47.5595986, "longitude": 7.5885761, "race": "Birslauf Basel", "date": {"sam. 27.03.2010": {"year": 2010, "day": 27, "month": 3, "categories": {"M": {"distance": 10, "rank": 188, "pace": 275000000000, "time": 2758.8}}, "weekday": "saturday", "livingplace": "Delemont"}}, "location": "Basel"}, "SwissCityMarathon - Lucerne, Luzern": {"latitude": 47.05016819999999, "longitude": 8.3093072, "race": "SwissCityMarathon - Lucerne, Luzern", "date": {"dim. 26.10.2014": {"year": 2014, "day": 26, "month": 10, "categories": {"F-Mann": {"distance": 9, "rank": 207, "pace": 317000000000, "time": 2736.5}}, "weekday": "sunday", "livingplace": "Delemont"}}, "location": "Luzern"}, "Gempenlauf, Dornach": {"latitude": 47.4790491, "longitude": 7.6170412, "race": "Gempenlauf, Dornach", "date": {"mer. 02.06.2010": {"year": 2010, "day": 2, "month": 6, "categories": {"M35": {"distance": 8, "rank": 45, "pace": 341000000000, "time": 2665.7}}, "weekday": "wednesday", "livingplace": "Delemont"}}, "location": "Dornach"}, "Kerzerslauf": {"latitude": 46.97488999999999, "longitude": 7.1954365, "race": "Kerzerslauf", "date": {"sam. 20.03.2010": {"year": 2010, "day": 20, "month": 3, "categories": {"15-M35": {"distance": 15, "rank": 219, "pace": 281000000000, "time": 4219.4}}, "weekday": "saturday", "livingplace": "Delemont"}, "sam. 19.03.2011": {"year": 2011, "day": 19, "month": 3, "categories": {"15-M35": {"distance": 15, "rank": 157, "pace": 274000000000, "time": 4120.2}}, "weekday": "saturday", "livingplace": "Delemont"}, "sam. 17.03.2012": {"year": 2012, "day": 17, "month": 3, "categories": {"15-M35": {"distance": 15, "rank": 175, "pace": 280000000000, "time": 4205.8}}, "weekday": "saturday", "livingplace": "Delemont"}}, "location": "Kerzers"}}, "birth": 1974}