{"name": "Petter Samuel", "sex": "M", "races": {"Tour du Pays de Vaud #2 - Genolier": {"latitude": 46.5955273, "longitude": 6.7702883, "race": "Tour du Pays de Vaud #2 - Genolier", "date": {"mer. 15.08.2012": {"year": 2012, "day": 15, "month": 8, "categories": {"H-Hom": {"distance": 9, "rank": 84, "pace": 314000000000, "time": 2670.8}}, "weekday": "wednesday", "livingplace": "Vulliens"}}, "location": "M\u00e9zi\u00e8res VD"}, "Tour du Pays de Vaud #4, La Sarraz": {"latitude": 46.7088129, "longitude": 6.5707689, "race": "Tour du Pays de Vaud #4, La Sarraz", "date": {"mer. 03.09.2014": {"year": 2014, "day": 3, "month": 9, "categories": {"H-Hom": {"distance": 9, "rank": 54, "pace": 320000000000, "time": 2721.2}}, "weekday": "wednesday", "livingplace": "Vulliens"}}, "location": "Chavornay"}, "Tour du Pays de Vaud #2, Mezi\u00e8res": {"latitude": 46.5955273, "longitude": 6.7702883, "race": "Tour du Pays de Vaud #2, Mezi\u00e8res", "date": {"mer. 20.08.2014": {"year": 2014, "day": 20, "month": 8, "categories": {"H-Hom": {"distance": 8, "rank": 58, "pace": 442000000000, "time": 3586.9}}, "weekday": "wednesday", "livingplace": "Vulliens"}}, "location": "M\u00e9zi\u00e8res VD"}, "Lausanne Marathon": {"latitude": 46.5196535, "longitude": 6.6322734, "race": "Lausanne Marathon", "date": {"dim. 30.10.2011": {"year": 2011, "day": 30, "month": 10, "categories": {"10-H1": {"distance": 10, "rank": 360, "pace": 343000000000, "time": 3434.4}}, "weekday": "sunday", "livingplace": "Carrouge"}, "dim. 26.10.2014": {"year": 2014, "day": 26, "month": 10, "categories": {"10-H20": {"distance": 10, "rank": 470, "pace": 329000000000, "time": 3290.4}}, "weekday": "sunday", "livingplace": "Vulliens"}, "dim. 28.10.2012": {"year": 2012, "day": 28, "month": 10, "categories": {"10-H1": {"distance": 10, "rank": 236, "pace": 306000000000, "time": 3065.3}}, "weekday": "sunday", "livingplace": "Vulliens"}}, "location": "Lausanne"}, "Tour du pays de Vaud #1 - Penthaz": {"latitude": 46.5993131, "longitude": 6.539251200000001, "race": "Tour du pays de Vaud #1 - Penthaz", "date": {"mer. 08.08.2012": {"year": 2012, "day": 8, "month": 8, "categories": {"H-Hom": {"distance": 9, "rank": 77, "pace": 316000000000, "time": 2703.4}}, "weekday": "wednesday", "livingplace": "Vulliens"}}, "location": "Penthaz"}, "Tour du Pays de Vaud #4 - La Sarraz": {"latitude": 46.7088129, "longitude": 6.5707689, "race": "Tour du Pays de Vaud #4 - La Sarraz", "date": {"mer. 29.08.2012": {"year": 2012, "day": 29, "month": 8, "categories": {"H-Hom": {"distance": 9, "rank": 89, "pace": 318000000000, "time": 2703.1}}, "weekday": "wednesday", "livingplace": "Vulliens"}}, "location": "Chavornay"}, "Tour du Pays de Vaud #3, Chavornay": {"latitude": 46.7784736, "longitude": 6.641183, "race": "Tour du Pays de Vaud #3, Chavornay", "date": {"mer. 27.08.2014": {"year": 2014, "day": 27, "month": 8, "categories": {"H-Hom": {"distance": 9, "rank": 54, "pace": 321000000000, "time": 2767.9}}, "weekday": "wednesday", "livingplace": "Vulliens"}}, "location": "Yverdon-les-Bains"}}, "birth": 1986}