{"name": "Petter Sara", "sex": "F", "races": {"Tour du Pays de Vaud #2 - Genolier": {"latitude": 46.5955273, "longitude": 6.7702883, "race": "Tour du Pays de Vaud #2 - Genolier", "date": {"mer. 17.08.2011": {"year": 2011, "day": 17, "month": 8, "categories": {"D-Dam": {"distance": 9, "rank": 23, "pace": 338000000000, "time": 2880.4}}, "weekday": "wednesday", "livingplace": "Carrouge"}}, "location": "M\u00e9zi\u00e8res VD"}, "Tour du Pays de Vaud #4, La Sarraz": {"latitude": 46.7088129, "longitude": 6.5707689, "race": "Tour du Pays de Vaud #4, La Sarraz", "date": {"mer. 03.09.2014": {"year": 2014, "day": 3, "month": 9, "categories": {"D-Sen1": {"distance": 9, "rank": 89, "pace": 415000000000, "time": 3528.0}}, "weekday": "wednesday", "livingplace": "Carrouge"}}, "location": "Chavornay"}, "Tour du pays de Vaud #6 - St  Prex": {"latitude": 46.4829113, "longitude": 6.458343500000001, "race": "Tour du pays de Vaud #6 - St  Prex", "date": {"mer. 14.09.2011": {"year": 2011, "day": 14, "month": 9, "categories": {"D-Dam": {"distance": 9, "rank": 30, "pace": 335000000000, "time": 2886.8}}, "weekday": "wednesday", "livingplace": "Carrouge"}}, "location": "St-Prex"}, "Tour du Pays de Vaud #2, Mezi\u00e8res": {"latitude": 46.5955273, "longitude": 6.7702883, "race": "Tour du Pays de Vaud #2, Mezi\u00e8res", "date": {"mer. 20.08.2014": {"year": 2014, "day": 20, "month": 8, "categories": {"D-Sen1": {"distance": 8, "rank": 72, "pace": 442000000000, "time": 3587.5}}, "weekday": "wednesday", "livingplace": "Carrouge"}}, "location": "M\u00e9zi\u00e8res VD"}, "Tour du pays de Vaud #5 - Penthaz": {"latitude": 46.5993131, "longitude": 6.539251200000001, "race": "Tour du pays de Vaud #5 - Penthaz", "date": {"mer. 07.09.2011": {"year": 2011, "day": 7, "month": 9, "categories": {"D-Dam": {"distance": 8, "rank": 21, "pace": 383000000000, "time": 3203.8}}, "weekday": "wednesday", "livingplace": "Carrouge"}}, "location": "Penthaz"}, "Morat-Fribourg": {"latitude": 46.92922110000001, "longitude": 7.120184, "race": "Morat-Fribourg", "date": {"sam. 01.10.2011": {"year": 2011, "day": 1, "month": 10, "categories": {"8-JoggF": {"distance": 9, "rank": 101, "pace": 361000000000, "time": 3111.6}}, "weekday": "saturday", "livingplace": "Carrouge"}, "sam. 06.10.2012": {"year": 2012, "day": 6, "month": 10, "categories": {"8-JoggF": {"distance": 9, "rank": 209, "pace": 404000000000, "time": 3593.2}}, "weekday": "saturday", "livingplace": "Carrouge"}}, "location": "Murten"}, "20km de Lausanne": {"latitude": 46.5196535, "longitude": 6.6322734, "race": "20km de Lausanne", "date": {"sam. 30.04.2011": {"year": 2011, "day": 30, "month": 4, "categories": {"10-F20": {"distance": 10, "rank": 491, "pace": 381000000000, "time": 3814.3}}, "weekday": "saturday", "livingplace": "Carrouge"}, "sam. 27.04.2013": {"year": 2013, "day": 27, "month": 4, "categories": {"10-F30": {"distance": 10, "rank": 488, "pace": 363000000000, "time": 3637.7}}, "weekday": "saturday", "livingplace": "Se Bouger pour sa sante 4"}, "sam. 26.04.2014": {"year": 2014, "day": 26, "month": 4, "categories": {"10-F30": {"distance": 10, "rank": 737, "pace": 403000000000, "time": 4030.7}}, "weekday": "saturday", "livingplace": "Se bouger pour sa sante 4"}}, "location": "Lausanne"}, "Tour du Pays de Vaud printanier #2 Yens": {"latitude": 46.6698891, "longitude": 6.7975224, "race": "Tour du Pays de Vaud printanier #2 Yens", "date": {"mer. 06.06.2012": {"year": 2012, "day": 6, "month": 6, "categories": {"D-Sen1": {"distance": 9, "rank": 33, "pace": 408000000000, "time": 3717.5}}, "weekday": "wednesday", "livingplace": "Carrouge"}}, "location": "Moudon"}}, "birth": 1982}