{"name": "Philipona Alain", "sex": "M", "races": {"Morat-Fribourg": {"latitude": 46.92922110000001, "longitude": 7.120184, "race": "Morat-Fribourg", "date": {"sam. 05.10.2013": {"year": 2013, "day": 5, "month": 10, "categories": {"17-M20": {"distance": 17, "rank": 1426, "pace": 310000000000, "time": 5423.4}}, "weekday": "saturday", "livingplace": "Cresuz"}, "sam. 03.10.2015": {"year": 2015, "day": 3, "month": 10, "categories": {"17-M20": {"distance": 17, "rank": 1735, "pace": 343000000000, "time": 5895.3}}, "weekday": "saturday", "livingplace": "Cresuz"}, "sam. 04.10.2014": {"year": 2014, "day": 4, "month": 10, "categories": {"17-M20": {"distance": 17, "rank": 1598, "pace": 333000000000, "time": 5721.1}}, "weekday": "saturday", "livingplace": "Cresuz"}}, "location": "Murten"}, "Corrida Bulloise, Bulle": {"latitude": 46.6154512, "longitude": 7.057726799999999, "race": "Corrida Bulloise, Bulle", "date": {"sam. 21.11.2015": {"year": 2015, "day": 21, "month": 11, "categories": {"Pop-Hom": {"distance": 6, "rank": 293, "pace": 302000000000, "time": 1858.7}}, "weekday": "saturday", "livingplace": "Cresuz"}}, "location": "Bulle"}, "Groupe E Tour Fribourg #2 Kerzers": {"latitude": 46.6175845, "longitude": 7.1654493, "race": "Groupe E Tour Fribourg #2 Kerzers", "date": {"mer. 28.08.2013": {"year": 2013, "day": 28, "month": 8, "categories": {"HE": {"distance": 12, "rank": 25, "pace": 297000000000, "time": 3526.9}}, "weekday": "wednesday", "livingplace": "Cresuz"}}, "location": "Charmey (Gruy\u00e8re)"}, "Groupe E Tour Fribourg #4 Montagny": {"latitude": 46.6585092, "longitude": 6.877722, "race": "Groupe E Tour Fribourg #4 Montagny", "date": {"mer. 11.09.2013": {"year": 2013, "day": 11, "month": 9, "categories": {"HE": {"distance": 10, "rank": 23, "pace": 286000000000, "time": 2809.4}}, "weekday": "wednesday", "livingplace": "Cresuz"}}, "location": "Siviriez"}, "Groupe E Tour Fribourg #3, Kerzers": {"latitude": 46.97488999999999, "longitude": 7.1954365, "race": "Groupe E Tour Fribourg #3, Kerzers", "date": {"mer. 03.09.2014": {"year": 2014, "day": 3, "month": 9, "categories": {"H-Ellite": {"distance": 10, "rank": 44, "pace": 296000000000, "time": 3019.2}}, "weekday": "wednesday", "livingplace": "Cresuz"}}, "location": "Kerzers"}, "Groupe E Tour Fribourg #1, Cousset": {"latitude": 46.81832, "longitude": 6.977279999999999, "race": "Groupe E Tour Fribourg #1, Cousset", "date": {"mer. 20.08.2014": {"year": 2014, "day": 20, "month": 8, "categories": {"H-Elite": {"distance": 9, "rank": 44, "pace": 303000000000, "time": 2853.5}}, "weekday": "wednesday", "livingplace": "Cresuz"}}, "location": "Cousset"}, "Groupe E Tour Fribourg #4, Siviriez": {"latitude": 46.6585092, "longitude": 6.877722, "race": "Groupe E Tour Fribourg #4, Siviriez", "date": {"mer. 10.09.2014": {"year": 2014, "day": 10, "month": 9, "categories": {"H-Elite": {"distance": 11, "rank": 47, "pace": 343000000000, "time": 3713.5}}, "weekday": "wednesday", "livingplace": "Cresuz"}}, "location": "Siviriez"}, "Groupe E Tour Fribourg #2, Charmey": {"latitude": 46.6175845, "longitude": 7.1654493, "race": "Groupe E Tour Fribourg #2, Charmey", "date": {"mer. 27.08.2014": {"year": 2014, "day": 27, "month": 8, "categories": {"H-Elite": {"distance": 10, "rank": 50, "pace": 331000000000, "time": 3197.5}}, "weekday": "wednesday", "livingplace": "Cresuz"}}, "location": "Charmey (Gruy\u00e8re)"}, "Groupe E Tour Fribourg #5 Fribourg": {"latitude": 46.8128615, "longitude": 7.131657799999999, "race": "Groupe E Tour Fribourg #5 Fribourg", "date": {"mer. 18.09.2013": {"year": 2013, "day": 18, "month": 9, "categories": {"HE": {"distance": 10, "rank": 36, "pace": 296000000000, "time": 2963.4}}, "weekday": "wednesday", "livingplace": "Cresuz"}}, "location": "Givisiez"}, "Groupe E Tour Fribourg #3 Charmey": {"latitude": 46.97488999999999, "longitude": 7.1954365, "race": "Groupe E Tour Fribourg #3 Charmey", "date": {"mer. 04.09.2013": {"year": 2013, "day": 4, "month": 9, "categories": {"HE": {"distance": 11, "rank": 35, "pace": 325000000000, "time": 3542.3}}, "weekday": "wednesday", "livingplace": "Cresuz"}}, "location": "Kerzers"}, "Groupe E Tour Fribourg #1 Siviriez": {"latitude": 46.81832, "longitude": 6.977279999999999, "race": "Groupe E Tour Fribourg #1 Siviriez", "date": {"mer. 21.08.2013": {"year": 2013, "day": 21, "month": 8, "categories": {"HE": {"distance": 10, "rank": 26, "pace": 310000000000, "time": 3045.3}}, "weekday": "wednesday", "livingplace": "Cresuz"}}, "location": "Cousset"}, "Groupe E Tour Fribourg #5, Givisiez": {"latitude": 46.8128615, "longitude": 7.131657799999999, "race": "Groupe E Tour Fribourg #5, Givisiez", "date": {"mer. 17.09.2014": {"year": 2014, "day": 17, "month": 9, "categories": {"H-Elite": {"distance": 10, "rank": 43, "pace": 308000000000, "time": 3166.3}}, "weekday": "wednesday", "livingplace": "Cresuz"}}, "location": "Givisiez"}}, "birth": 1985}