{"name": "Pianaro Martin", "sex": "M", "races": {"Grand Prix Craft, Neuch\u00e2tel": {"latitude": 46.9899874, "longitude": 6.9292732, "race": "Grand Prix Craft, Neuch\u00e2tel", "date": {"dim. 16.12.2007": {"year": 2007, "day": 16, "month": 12, "categories": {"KG4": {"distance": 4, "rank": 6, "pace": 230000000000, "time": 969.7}}, "weekday": "sunday", "livingplace": "St Sulpice"}, "dim. 17.12.2006": {"year": 2006, "day": 17, "month": 12, "categories": {"KG3": {"distance": 1, "rank": 4, "pace": 190000000000, "time": 266.4}}, "weekday": "sunday", "livingplace": "St Sulpice"}}, "location": "Neuch\u00e2tel"}, "BCN Tour Le Landeron": {"latitude": 46.9668714, "longitude": 6.8589727, "race": "BCN Tour Le Landeron", "date": {"mer. 22.04.2009": {"year": 2009, "day": 22, "month": 4, "categories": {"HJ": {"distance": 11, "rank": 10, "pace": 276000000000, "time": 3071.5}}, "weekday": "wednesday", "livingplace": "St Sulpice"}}, "location": "Colombier NE"}, "BCN Tour #1 Corcelles": {"latitude": 46.9668714, "longitude": 6.8589727, "race": "BCN Tour #1 Corcelles", "date": {"mer. 24.04.2013": {"year": 2013, "day": 24, "month": 4, "categories": {"HE": {"distance": 10, "rank": 266, "pace": 356000000000, "time": 3498.3}}, "weekday": "wednesday", "livingplace": "Fleurier"}}, "location": "Colombier NE"}, "BCN Tour Auvernier": {"latitude": 46.9668714, "longitude": 6.8589727, "race": "BCN Tour Auvernier", "date": {"mer. 20.04.2011": {"year": 2011, "day": 20, "month": 4, "categories": {"HJ": {"distance": 11, "rank": 13, "pace": 278000000000, "time": 3009.5}}, "weekday": "wednesday", "livingplace": "Saint Sulpice"}}, "location": "Colombier NE"}, "BCN Tour #4 Fleurier": {"latitude": 47.1034892, "longitude": 6.832783800000001, "race": "BCN Tour #4 Fleurier", "date": {"mer. 15.05.2013": {"year": 2013, "day": 15, "month": 5, "categories": {"HE": {"distance": 9, "rank": 238, "pace": 324000000000, "time": 2805.4}}, "weekday": "wednesday", "livingplace": "Fleurier"}}, "location": "La Chaux-de-Fonds"}, "BCN Tour #2 La Chaux-de-Fonds": {"latitude": 47.0624261, "longitude": 6.9175754, "race": "BCN Tour #2 La Chaux-de-Fonds", "date": {"mer. 01.05.2013": {"year": 2013, "day": 1, "month": 5, "categories": {"HE": {"distance": 11, "rank": 236, "pace": 309000000000, "time": 3309.6}}, "weekday": "wednesday", "livingplace": "Fleurier"}}, "location": "Ch\u00e9zard-St-Martin"}, "BCN Tour La Chaux-de-Fonds": {"latitude": 47.1034892, "longitude": 6.832783800000001, "race": "BCN Tour La Chaux-de-Fonds", "date": {"mer. 11.05.2011": {"year": 2011, "day": 11, "month": 5, "categories": {"HJ": {"distance": 11, "rank": 14, "pace": 303000000000, "time": 3251.1}}, "weekday": "wednesday", "livingplace": "Saint Sulpice"}}, "location": "La Chaux-de-Fonds"}, "D\u00e9fi Val-de-Travers, Couvet": {"latitude": 46.9262933, "longitude": 6.6324944, "race": "D\u00e9fi Val-de-Travers, Couvet", "date": {"sam. 20.06.2009": {"year": 2009, "day": 20, "month": 6, "categories": {"SHJ": {"distance": 20, "rank": 2, "pace": 316000000000, "time": 6242.0}}, "weekday": "saturday", "livingplace": "St Sulpice"}, "sam. 19.06.2010": {"year": 2010, "day": 19, "month": 6, "categories": {"21-HJun": {"distance": 20, "rank": 1, "pace": 396000000000, "time": 7813.8}}, "weekday": "saturday", "livingplace": "St Sulpice"}}, "location": "Couvet"}, "BCN Tour Neuch\u00e2tel": {"latitude": 46.9899874, "longitude": 6.9292732, "race": "BCN Tour Neuch\u00e2tel", "date": {"mer. 26.05.2010": {"year": 2010, "day": 26, "month": 5, "categories": {"HJ": {"distance": 10, "rank": 11, "pace": 276000000000, "time": 2682.0}}, "weekday": "wednesday", "livingplace": "Saint Sulpice"}, "mer. 25.05.2011": {"year": 2011, "day": 25, "month": 5, "categories": {"HJ": {"distance": 11, "rank": 14, "pace": 266000000000, "time": 3040.2}}, "weekday": "wednesday", "livingplace": "Saint Sulpice"}}, "location": "Neuch\u00e2tel"}, "Lausanne Marathon": {"latitude": 46.5196535, "longitude": 6.6322734, "race": "Lausanne Marathon", "date": {"dim. 27.10.2013": {"year": 2013, "day": 27, "month": 10, "categories": {"21-H1": {"distance": 21, "rank": 212, "pace": 290000000000, "time": 6134.2}}, "weekday": "sunday", "livingplace": "Fleurier"}}, "location": "Lausanne"}, "BCN Tour #5 Colombier": {"latitude": 46.9262933, "longitude": 6.6324944, "race": "BCN Tour #5 Colombier", "date": {"mer. 22.05.2013": {"year": 2013, "day": 22, "month": 5, "categories": {"HE": {"distance": 11, "rank": 43, "pace": 236000000000, "time": 2488.1}}, "weekday": "wednesday", "livingplace": "Fleurier"}}, "location": "Couvet"}, "BCN Tour Ponts-de-Martel": {"latitude": 47.0624261, "longitude": 6.9175754, "race": "BCN Tour Ponts-de-Martel", "date": {"mer. 28.04.2010": {"year": 2010, "day": 28, "month": 4, "categories": {"HJ": {"distance": 11, "rank": 9, "pace": 261000000000, "time": 2931.6}}, "weekday": "wednesday", "livingplace": "Saint Sulpice"}}, "location": "Ch\u00e9zard-St-Martin"}, "BCN Tour #3 Dombresson": {"latitude": 46.999113, "longitude": 6.733554799999999, "race": "BCN Tour #3 Dombresson", "date": {"mer. 08.05.2013": {"year": 2013, "day": 8, "month": 5, "categories": {"HE": {"distance": 10, "rank": 41, "pace": 248000000000, "time": 2463.7}}, "weekday": "wednesday", "livingplace": "Fleurier"}}, "location": "Les Ponts-de-Martel"}, "BCN Tour M\u00f4tier": {"latitude": 46.9262933, "longitude": 6.6324944, "race": "BCN Tour M\u00f4tier", "date": {"mer. 19.05.2010": {"year": 2010, "day": 19, "month": 5, "categories": {"HJ": {"distance": 10, "rank": 10, "pace": 250000000000, "time": 2482.2}}, "weekday": "wednesday", "livingplace": "Saint Sulpice"}}, "location": "Couvet"}, "BCN Tour Fontaine Cernier": {"latitude": 47.0624261, "longitude": 6.9175754, "race": "BCN Tour Fontaine Cernier", "date": {"mer. 27.04.2011": {"year": 2011, "day": 27, "month": 4, "categories": {"HJ": {"distance": 10, "rank": 14, "pace": 253000000000, "time": 2615.4}}, "weekday": "wednesday", "livingplace": "Saint Sulpice"}}, "location": "Ch\u00e9zard-St-Martin"}, "BCN Tour Le Locle": {"latitude": 46.999113, "longitude": 6.733554799999999, "race": "BCN Tour Le Locle", "date": {"mer. 05.05.2010": {"year": 2010, "day": 5, "month": 5, "categories": {"HJ": {"distance": 11, "rank": 8, "pace": 249000000000, "time": 2716.4}}, "weekday": "wednesday", "livingplace": "Saint Sulpice"}}, "location": "Les Ponts-de-Martel"}, "BCN Tour #6 Neuch\u00e2tel": {"latitude": 46.9899874, "longitude": 6.9292732, "race": "BCN Tour #6 Neuch\u00e2tel", "date": {"mer. 29.05.2013": {"year": 2013, "day": 29, "month": 5, "categories": {"HE": {"distance": 11, "rank": 262, "pace": 344000000000, "time": 3786.7}}, "weekday": "wednesday", "livingplace": "Fleurier"}}, "location": "Neuch\u00e2tel"}, "BCN Tour La Br\u00e9vine": {"latitude": 46.999113, "longitude": 6.733554799999999, "race": "BCN Tour La Br\u00e9vine", "date": {"mer. 04.05.2011": {"year": 2011, "day": 4, "month": 5, "categories": {"HJ": {"distance": 10, "rank": 11, "pace": 262000000000, "time": 2621.8}}, "weekday": "wednesday", "livingplace": "Saint Sulpice"}}, "location": "Les Ponts-de-Martel"}, "BCN Tour Les Ponts de Martel": {"latitude": 46.9262933, "longitude": 6.6324944, "race": "BCN Tour Les Ponts de Martel", "date": {"mer. 18.05.2011": {"year": 2011, "day": 18, "month": 5, "categories": {"HJ": {"distance": 13, "rank": 12, "pace": 263000000000, "time": 3369.9}}, "weekday": "wednesday", "livingplace": "Saint Sulpice"}}, "location": "Couvet"}, "BCN Tour Boudry": {"latitude": 46.9668714, "longitude": 6.8589727, "race": "BCN Tour Boudry", "date": {"mer. 26.04.2006": {"year": 2006, "day": 26, "month": 4, "categories": {"KG3": {"distance": 3, "rank": 7, "pace": 238000000000, "time": 787.6}}, "weekday": "wednesday", "livingplace": "St Sulpice"}}, "location": "Colombier NE"}, "BCN Tour La Chaux-de-fonds": {"latitude": 47.1034892, "longitude": 6.832783800000001, "race": "BCN Tour La Chaux-de-fonds", "date": {"mer. 12.05.2010": {"year": 2010, "day": 12, "month": 5, "categories": {"HJ": {"distance": 11, "rank": 12, "pace": 313000000000, "time": 3353.1}}, "weekday": "wednesday", "livingplace": "Saint Sulpice"}}, "location": "La Chaux-de-Fonds"}, "BCN Tour Colombier": {"latitude": 46.9668714, "longitude": 6.8589727, "race": "BCN Tour Colombier", "date": {"mer. 23.04.2008": {"year": 2008, "day": 23, "month": 4, "categories": {"KG4": {"distance": 4, "rank": 6, "pace": 250000000000, "time": 1000.1}}, "weekday": "wednesday", "livingplace": "St Sulpice"}, "mer. 21.04.2010": {"year": 2010, "day": 21, "month": 4, "categories": {"HJ": {"distance": 10, "rank": 7, "pace": 279000000000, "time": 2797.1}}, "weekday": "wednesday", "livingplace": "Saint Sulpice"}}, "location": "Colombier NE"}}, "birth": 1993}