{"name": "Pichler Karlheinz", "sex": "M", "races": {"Kerzerslauf": {"latitude": 46.97488999999999, "longitude": 7.1954365, "race": "Kerzerslauf", "date": {"sam. 17.03.2007": {"year": 2007, "day": 17, "month": 3, "categories": {"M50": {"distance": 15, "rank": 418, "pace": 425000000000, "time": 6376.6}}, "weekday": "saturday", "livingplace": "Pfaffhausen"}}, "location": "Kerzers"}, "Luzerner Stadtlauf": {"latitude": 47.05016819999999, "longitude": 8.3093072, "race": "Luzerner Stadtlauf", "date": {"sam. 28.04.2007": {"year": 2007, "day": 28, "month": 4, "categories": {"K/29": {"distance": 6, "rank": 156, "pace": 408000000000, "time": 2302.5}}, "weekday": "saturday", "livingplace": "Pfaffhausen"}}, "location": "Luzern"}, "Gossauer Weihnachtslauf": {"latitude": 47.4155608, "longitude": 9.248852, "race": "Gossauer Weihnachtslauf", "date": {"sam. 02.12.2006": {"year": 2006, "day": 2, "month": 12, "categories": {"27": {"distance": 6, "rank": 47, "pace": 374000000000, "time": 2314.8}}, "weekday": "saturday", "livingplace": "Pfaffhausen"}}, "location": "Gossau SG"}, "Basler Stadtlauf": {"latitude": 47.5595986, "longitude": 7.5885761, "race": "Basler Stadtlauf", "date": {"sam. 24.11.2007": {"year": 2007, "day": 24, "month": 11, "categories": {"V": {"distance": 6, "rank": 299, "pace": 475000000000, "time": 2617.0}}, "weekday": "saturday", "livingplace": "Pfaffhausen"}, "sam. 25.11.2006": {"year": 2006, "day": 25, "month": 11, "categories": {"V": {"distance": 6, "rank": 281, "pace": 371000000000, "time": 2045.5}}, "weekday": "saturday", "livingplace": "Pfaffhausen"}, "sam. 29.11.2008": {"year": 2008, "day": 29, "month": 11, "categories": {"X": {"distance": 6, "rank": 354, "pace": 456000000000, "time": 2513.1}}, "weekday": "saturday", "livingplace": "Binz"}}, "location": "Basel"}, "ASICS Bremgarter Reusslauf": {"latitude": 47.34917739999999, "longitude": 8.3397905, "race": "ASICS Bremgarter Reusslauf", "date": {"sam. 17.02.2007": {"year": 2007, "day": 17, "month": 2, "categories": {"M50": {"distance": 11, "rank": 391, "pace": 398000000000, "time": 4179.5}}, "weekday": "saturday", "livingplace": "Pfaffhausen"}}, "location": "Bremgarten AG"}, "Langenthaler Stadtlauf": {"latitude": 47.2120786, "longitude": 7.790562299999999, "race": "Langenthaler Stadtlauf", "date": {"sam. 22.11.2008": {"year": 2008, "day": 22, "month": 11, "categories": {"JogM": {"distance": 5, "rank": 72, "pace": 438000000000, "time": 2192.3}}, "weekday": "saturday", "livingplace": "Binz"}, "sam. 18.11.2006": {"year": 2006, "day": 18, "month": 11, "categories": {"JogM": {"distance": 5, "rank": 109, "pace": 364000000000, "time": 1824.0}}, "weekday": "saturday", "livingplace": "Pfaffhausen"}}, "location": "Langenthal"}, "St  Galler Altstadtlauf": {"latitude": 47.4244818, "longitude": 9.3767173, "race": "St  Galler Altstadtlauf", "date": {"sam. 23.09.2006": {"year": 2006, "day": 23, "month": 9, "categories": {"JogM": {"distance": 4, "rank": 142, "pace": 402000000000, "time": 1527.8}}, "weekday": "saturday", "livingplace": "Pfaffhausen"}}, "location": "St. Gallen"}, "Z\u00fcrcher Silvesterlauf, Z\u00fcrich": {"latitude": 47.3768866, "longitude": 8.541694, "race": "Z\u00fcrcher Silvesterlauf, Z\u00fcrich", "date": {"dim. 10.12.2006": {"year": 2006, "day": 10, "month": 12, "categories": {"MenAK3-8": {"distance": 9, "rank": 639, "pace": 394000000000, "time": 3392.4}}, "weekday": "sunday", "livingplace": "Pfaffhausen"}}, "location": "Z\u00fcrich"}, "Int Greifenseelauf, Uster": {"latitude": 47.3482747, "longitude": 8.717873899999999, "race": "Int Greifenseelauf, Uster", "date": {"sam. 16.09.2006": {"year": 2006, "day": 16, "month": 9, "categories": {"K/M50": {"distance": 10, "rank": 73, "pace": 507000000000, "time": 5070.8}}, "weekday": "saturday", "livingplace": "Pfaffhausen"}}, "location": "Uster"}}, "birth": 1956}