{"name": "Pilet Nicolas", "sex": "M", "races": {"SwissCityMarathon - Lucerne, Luzern": {"latitude": 47.05016819999999, "longitude": 8.3093072, "race": "SwissCityMarathon - Lucerne, Luzern", "date": {"dim. 25.10.2015": {"year": 2015, "day": 25, "month": 10, "categories": {"M-M45": {"distance": 42, "rank": 112, "pace": 333000000000, "time": 14051.3}}, "weekday": "sunday", "livingplace": "Missy"}}, "location": "Luzern"}, "Lausanne Marathon": {"latitude": 46.5196535, "longitude": 6.6322734, "race": "Lausanne Marathon", "date": {"dim. 27.10.2013": {"year": 2013, "day": 27, "month": 10, "categories": {"21-H3": {"distance": 21, "rank": 186, "pace": 285000000000, "time": 6031.8}}, "weekday": "sunday", "livingplace": "Missy"}}, "location": "Lausanne"}, "Morat-Fribourg": {"latitude": 46.92922110000001, "longitude": 7.120184, "race": "Morat-Fribourg", "date": {"sam. 03.10.2015": {"year": 2015, "day": 3, "month": 10, "categories": {"17-M45": {"distance": 17, "rank": 241, "pace": 303000000000, "time": 5217.7}}, "weekday": "saturday", "livingplace": "Missy"}, "sam. 06.10.2012": {"year": 2012, "day": 6, "month": 10, "categories": {"17-M45": {"distance": 17, "rank": 207, "pace": 292000000000, "time": 5110.5}}, "weekday": "saturday", "livingplace": "Missy"}, "sam. 04.10.2014": {"year": 2014, "day": 4, "month": 10, "categories": {"17-M45": {"distance": 17, "rank": 156, "pace": 287000000000, "time": 4932.6}}, "weekday": "saturday", "livingplace": "Missy"}}, "location": "Murten"}, "Tour du Pays de Vaud #2, Mezi\u00e8res": {"latitude": 46.5955273, "longitude": 6.7702883, "race": "Tour du Pays de Vaud #2, Mezi\u00e8res", "date": {"mer. 20.08.2014": {"year": 2014, "day": 20, "month": 8, "categories": {"H-Sen2": {"distance": 8, "rank": 32, "pace": 289000000000, "time": 2342.3}}, "weekday": "wednesday", "livingplace": "Missy"}}, "location": "M\u00e9zi\u00e8res VD"}, "10km, Payerne": {"latitude": 46.8220266, "longitude": 6.9405663, "race": "10km, Payerne", "date": {"sam. 10.03.2012": {"year": 2012, "day": 10, "month": 3, "categories": {"M40": {"distance": 10, "rank": 51, "pace": 262000000000, "time": 2627.9}}, "weekday": "saturday", "livingplace": "Missy"}}, "location": "Payerne"}, "Sierre-Zinal, Sierre": {"latitude": 46.29413110000001, "longitude": 7.533536199999999, "race": "Sierre-Zinal, Sierre", "date": {"dim. 09.08.2015": {"year": 2015, "day": 9, "month": 8, "categories": {"V\u00e9t_I": {"distance": 31, "rank": 128, "pace": 523000000000, "time": 16238.8}}, "weekday": "sunday", "livingplace": "Missy"}}, "location": "Sierre"}, "20km de Lausanne": {"latitude": 46.5196535, "longitude": 6.6322734, "race": "20km de Lausanne", "date": {"sam. 27.04.2013": {"year": 2013, "day": 27, "month": 4, "categories": {"20-H45": {"distance": 20, "rank": 96, "pace": 275000000000, "time": 5513.9}}, "weekday": "saturday", "livingplace": "Missy"}, "sam. 28.04.2012": {"year": 2012, "day": 28, "month": 4, "categories": {"20-H45": {"distance": 20, "rank": 143, "pace": 297000000000, "time": 5954.1}}, "weekday": "saturday", "livingplace": "Missy"}, "sam. 26.04.2014": {"year": 2014, "day": 26, "month": 4, "categories": {"20-H45": {"distance": 20, "rank": 94, "pace": 276000000000, "time": 5535.7}}, "weekday": "saturday", "livingplace": "Missy"}}, "location": "Lausanne"}, "Gurtenclassic, Wabern": {"latitude": 46.92901639999999, "longitude": 7.448973199999999, "race": "Gurtenclassic, Wabern", "date": {"dim. 02.11.2014": {"year": 2014, "day": 2, "month": 11, "categories": {"M40": {"distance": 15, "rank": 89, "pace": 333000000000, "time": 5004.8}}, "weekday": "sunday", "livingplace": "Missy"}}, "location": "Wabern"}}, "birth": 1967}