{"name": "Piller Jana", "sex": "F", "races": {"Int  Bieler Cross, Biel-Bienne": {"latitude": 47.1367785, "longitude": 7.2467909, "race": "Int  Bieler Cross, Biel-Bienne", "date": {"dim. 30.11.2008": {"year": 2008, "day": 30, "month": 11, "categories": {"F16": {"distance": 3, "rank": 4, "pace": 245000000000, "time": 637.6}}, "weekday": "sunday", "livingplace": "Dudingen"}}, "location": "Biel/Bienne"}, "Course de l'Escalade, Gen\u00e8ve": {"latitude": 46.2043907, "longitude": 6.1431577, "race": "Course de l'Escalade, Gen\u00e8ve", "date": {"sam. 03.12.2011": {"year": 2011, "day": 3, "month": 12, "categories": {"F-CA": {"distance": 2, "rank": 1, "pace": 221000000000, "time": 515.0}}, "weekday": "saturday", "livingplace": "St. Ursen"}}, "location": "Gen\u00e8ve"}, "Morat-Fribourg": {"latitude": 46.92922110000001, "longitude": 7.120184, "race": "Morat-Fribourg", "date": {"sam. 04.10.2008": {"year": 2008, "day": 4, "month": 10, "categories": {"K-EFA": {"distance": 3, "rank": 2, "pace": 208000000000, "time": 584.5}}, "weekday": "saturday", "livingplace": "St. Ursen"}, "sam. 06.10.2007": {"year": 2007, "day": 6, "month": 10, "categories": {"K/EFA": {"distance": 3, "rank": 2, "pace": 215000000000, "time": 603.8}}, "weekday": "saturday", "livingplace": "St. Ursen"}}, "location": "Murten"}, "Kerzerslauf": {"latitude": 46.97488999999999, "longitude": 7.1954365, "race": "Kerzerslauf", "date": {"sam. 21.03.2009": {"year": 2009, "day": 21, "month": 3, "categories": {"5-F05J": {"distance": 5, "rank": 4, "pace": 258000000000, "time": 1291.7}}, "weekday": "saturday", "livingplace": "St. Ursen"}, "sam. 19.03.2005": {"year": 2005, "day": 19, "month": 3, "categories": {"F11": {"distance": 1, "rank": 6, "pace": 229000000000, "time": 321.7}}, "weekday": "saturday", "livingplace": "St. Ursen"}}, "location": "Kerzers"}, "Z\u00fcrcher Silvesterlauf, Z\u00fcrich": {"latitude": 47.3768866, "longitude": 8.541694, "race": "Z\u00fcrcher Silvesterlauf, Z\u00fcrich", "date": {"dim. 12.12.2010": {"year": 2010, "day": 12, "month": 12, "categories": {"M\u00e4dch A": {"distance": 3, "rank": 6, "pace": 227000000000, "time": 592.1}}, "weekday": "sunday", "livingplace": "St. Ursen"}, "dim. 11.12.2011": {"year": 2011, "day": 11, "month": 12, "categories": {"M\u00e4dch A": {"distance": 3, "rank": 4, "pace": 214000000000, "time": 557.6}}, "weekday": "sunday", "livingplace": "St. Ursen"}}, "location": "Z\u00fcrich"}}, "birth": 1995}