{"name": "Pilloud L\u00e9onard", "sex": "M", "races": {"Tour du Pays de Vaud etape 5 - La Sarraz": {"latitude": 46.5993131, "longitude": 6.539251200000001, "race": "Tour du Pays de Vaud etape 5 - La Sarraz", "date": {"mer. 09.09.2009": {"year": 2009, "day": 9, "month": 9, "categories": {"Hom": {"distance": 9, "rank": 7, "pace": 223000000000, "time": 1874.4}}, "weekday": "wednesday", "livingplace": "Marchissy"}}, "location": "Penthaz"}, "Morat-Fribourg": {"latitude": 46.92922110000001, "longitude": 7.120184, "race": "Morat-Fribourg", "date": {"sam. 05.10.2013": {"year": 2013, "day": 5, "month": 10, "categories": {"17-M20": {"distance": 17, "rank": 111, "pace": 237000000000, "time": 4147.7}}, "weekday": "saturday", "livingplace": "Marchissy"}, "sam. 03.10.2009": {"year": 2009, "day": 3, "month": 10, "categories": {"C-M20": {"distance": 17, "rank": 52, "pace": 236000000000, "time": 4055.1}}, "weekday": "saturday", "livingplace": "Marchissy"}, "sam. 06.10.2007": {"year": 2007, "day": 6, "month": 10, "categories": {"C/M20": {"distance": 17, "rank": 172, "pace": 249000000000, "time": 4275.4}}, "weekday": "saturday", "livingplace": "Marchissy"}}, "location": "Murten"}, "Corrida Bulloise, Bulle": {"latitude": 46.6154512, "longitude": 7.057726799999999, "race": "Corrida Bulloise, Bulle", "date": {"sam. 21.11.2015": {"year": 2015, "day": 21, "month": 11, "categories": {"8-M20": {"distance": 8, "rank": 15, "pace": 218000000000, "time": 1780.1}}, "weekday": "saturday", "livingplace": "Marchissy"}}, "location": "Bulle"}, "Noviodurun, Nyon": {"latitude": 46.3832683, "longitude": 6.2347852, "race": "Noviodurun, Nyon", "date": {"sam. 01.11.2014": {"year": 2014, "day": 1, "month": 11, "categories": {"Hom2": {"distance": 6, "rank": 5, "pace": 211000000000, "time": 1370.4}}, "weekday": "saturday", "livingplace": "Marchissy"}}, "location": "Nyon"}, "Sierre-Zinal, Sierre": {"latitude": 46.29413110000001, "longitude": 7.533536199999999, "race": "Sierre-Zinal, Sierre", "date": {"dim. 12.08.2012": {"year": 2012, "day": 12, "month": 8, "categories": {"Elites": {"distance": 31, "rank": 93, "pace": 398000000000, "time": 12357.9}}, "weekday": "sunday", "livingplace": "Marchissy"}}, "location": "Sierre"}, "Tour du pays de Vaud #1 - Penthaz": {"latitude": 46.5993131, "longitude": 6.539251200000001, "race": "Tour du pays de Vaud #1 - Penthaz", "date": {"mer. 08.08.2012": {"year": 2012, "day": 8, "month": 8, "categories": {"H-Hom": {"distance": 9, "rank": 7, "pace": 221000000000, "time": 1888.0}}, "weekday": "wednesday", "livingplace": "Marchissy"}}, "location": "Penthaz"}, "Montreux - Les Rochers de Naye": {"latitude": 46.4312213, "longitude": 6.9106799, "race": "Montreux - Les Rochers de Naye", "date": {"dim. 08.07.2012": {"year": 2012, "day": 8, "month": 7, "categories": {"M-HElite": {"distance": 19, "rank": 15, "pace": 366000000000, "time": 6896.1}}, "weekday": "sunday", "livingplace": "Marchissy"}}, "location": "Montreux"}, "Tour du Pays de Vaud etape 2 - Genolier": {"latitude": 46.5955273, "longitude": 6.7702883, "race": "Tour du Pays de Vaud etape 2 - Genolier", "date": {"mer. 19.08.2009": {"year": 2009, "day": 19, "month": 8, "categories": {"Hom": {"distance": 8, "rank": 5, "pace": 228000000000, "time": 1847.1}}, "weekday": "wednesday", "livingplace": "Marchissy"}}, "location": "M\u00e9zi\u00e8res VD"}, "Tour du Pays de Vaud etape 1 - Le Mont sur Lausanne": {"latitude": 46.7784736, "longitude": 6.641183, "race": "Tour du Pays de Vaud etape 1 - Le Mont sur Lausanne", "date": {"mer. 12.08.2009": {"year": 2009, "day": 12, "month": 8, "categories": {"Hom": {"distance": 9, "rank": 6, "pace": 235000000000, "time": 2188.0}}, "weekday": "wednesday", "livingplace": "Marchissy"}}, "location": "Yverdon-les-Bains"}, "Lausanne Marathon": {"latitude": 46.5196535, "longitude": 6.6322734, "race": "Lausanne Marathon", "date": {"sam. 24.10.2015": {"year": 2015, "day": 24, "month": 10, "categories": {"10-H30": {"distance": 10, "rank": 26, "pace": 215000000000, "time": 2152.4}}, "weekday": "saturday", "livingplace": "Marchissy"}, "dim. 26.10.2014": {"year": 2014, "day": 26, "month": 10, "categories": {"21-H30": {"distance": 21, "rank": 24, "pace": 230000000000, "time": 4871.0}}, "weekday": "sunday", "livingplace": "Marchissy"}}, "location": "Lausanne"}, "Course de l'Escalade, Gen\u00e8ve": {"latitude": 46.2043907, "longitude": 6.1431577, "race": "Course de l'Escalade, Gen\u00e8ve", "date": {"sam. 05.12.2015": {"year": 2015, "day": 5, "month": 12, "categories": {"Elite-M": {"distance": 7, "rank": 160, "pace": 215000000000, "time": 1578.5}}, "weekday": "saturday", "livingplace": "Marchissy"}, "sam. 06.12.2014": {"year": 2014, "day": 6, "month": 12, "categories": {"Esc-Hom2": {"distance": 7, "rank": 35, "pace": 226000000000, "time": 1660.6}}, "weekday": "saturday", "livingplace": "Marchissy"}}, "location": "Gen\u00e8ve"}, "Course p\u00e9destre Thyon-Dixence, Thyon": {"latitude": NaN, "longitude": NaN, "race": "Course p\u00e9destre Thyon-Dixence, Thyon", "date": {"dim. 05.08.2012": {"year": 2012, "day": 5, "month": 8, "categories": {"HomElite": {"distance": 16, "rank": 18, "pace": 340000000000, "time": 5574.6}}, "weekday": "sunday", "livingplace": "Marchissy"}}, "location": "Thyon-Les Collons"}}, "birth": 1983}