{"name": "Piller Claudia", "sex": "F", "races": {"Lucerne Marathon, Luzern": {"latitude": 47.05016819999999, "longitude": 8.3093072, "race": "Lucerne Marathon, Luzern", "date": {"dim. 25.10.2009": {"year": 2009, "day": 25, "month": 10, "categories": {"M-F30": {"distance": 42, "rank": 93, "pace": 395000000000, "time": 16707.7}}, "weekday": "sunday", "livingplace": "Hunenberg"}}, "location": "Luzern"}, "Z\u00fcrich Marathon, Teamrun und Cityrun": {"latitude": 47.3768866, "longitude": 8.541694, "race": "Z\u00fcrich Marathon, Teamrun und Cityrun", "date": {"dim. 20.04.2008": {"year": 2008, "day": 20, "month": 4, "categories": {"W30": {"distance": 42, "rank": 218, "pace": 395000000000, "time": 16677.2}}, "weekday": "sunday", "livingplace": "Morgarten"}, "dim. 01.04.2007": {"year": 2007, "day": 1, "month": 4, "categories": {"W30": {"distance": 42, "rank": 227, "pace": 400000000000, "time": 16902.6}}, "weekday": "sunday", "livingplace": "Zug"}}, "location": "Z\u00fcrich"}, "Morat-Fribourg": {"latitude": 46.92922110000001, "longitude": 7.120184, "race": "Morat-Fribourg", "date": {"sam. 03.10.2009": {"year": 2009, "day": 3, "month": 10, "categories": {"C-W35": {"distance": 17, "rank": 120, "pace": 346000000000, "time": 5953.0}}, "weekday": "saturday", "livingplace": "Hunenberg"}}, "location": "Murten"}, "ASICS Bremgarter Reusslauf": {"latitude": 47.34917739999999, "longitude": 8.3397905, "race": "ASICS Bremgarter Reusslauf", "date": {"sam. 27.02.2010": {"year": 2010, "day": 27, "month": 2, "categories": {"F30": {"distance": 11, "rank": 74, "pace": 300000000000, "time": 3308.9}}, "weekday": "saturday", "livingplace": "Hunenberg"}, "sam. 23.02.2008": {"year": 2008, "day": 23, "month": 2, "categories": {"F30": {"distance": 11, "rank": 106, "pace": 326000000000, "time": 3595.7}}, "weekday": "saturday", "livingplace": "Mettmenstetten"}}, "location": "Bremgarten AG"}, "Int Greifenseelauf, Uster": {"latitude": 47.3482747, "longitude": 8.717873899999999, "race": "Int Greifenseelauf, Uster", "date": {"sam. 22.09.2007": {"year": 2007, "day": 22, "month": 9, "categories": {"K/W30": {"distance": 21, "rank": 228, "pace": 368000000000, "time": 7779.8}}, "weekday": "saturday", "livingplace": "Mettmenstetten"}, "sam. 16.09.2006": {"year": 2006, "day": 16, "month": 9, "categories": {"H/W30": {"distance": 21, "rank": 273, "pace": 371000000000, "time": 7842.0}}, "weekday": "saturday", "livingplace": "Zug"}}, "location": "Uster"}}, "birth": 1973}