{"name": "Pistorius Pascal", "sex": "M", "races": {"Tour du Chablais #5 Bex": {"latitude": 46.3603257, "longitude": 6.931504599999999, "race": "Tour du Chablais #5 Bex", "date": {"mer. 09.05.2012": {"year": 2012, "day": 9, "month": 5, "categories": {"M-M20": {"distance": 9, "rank": 55, "pace": 247000000000, "time": 2192.0}}, "weekday": "wednesday", "livingplace": "Chemin"}}, "location": "Roche VD"}, "Tour du Chablais #1 Martigny": {"latitude": 46.2957462, "longitude": 6.9916269, "race": "Tour du Chablais #1 Martigny", "date": {"mer. 23.04.2014": {"year": 2014, "day": 23, "month": 4, "categories": {"M-M20": {"distance": 9, "rank": 212, "pace": 307000000000, "time": 2617.2}}, "weekday": "wednesday", "livingplace": "Chemin"}}, "location": "Ollon VD"}, "Tour du Chablais #4 Champ\u00e9ry": {"latitude": NaN, "longitude": NaN, "race": "Tour du Chablais #4 Champ\u00e9ry", "date": {"mer. 02.05.2012": {"year": 2012, "day": 2, "month": 5, "categories": {"M-M20": {"distance": 8, "rank": 70, "pace": 254000000000, "time": 2114.2}}, "weekday": "wednesday", "livingplace": "Chemin"}}, "location": "Les Mosses"}, "Tour du Chablais #1 Montreux": {"latitude": 46.2957462, "longitude": 6.9916269, "race": "Tour du Chablais #1 Montreux", "date": {"mer. 11.04.2012": {"year": 2012, "day": 11, "month": 4, "categories": {"M-M20": {"distance": 8, "rank": 87, "pace": 271000000000, "time": 2062.8}}, "weekday": "wednesday", "livingplace": "Chemin"}}, "location": "Ollon VD"}, "Tour du Chablais #6 Montreux": {"latitude": 46.3190253, "longitude": 6.970566, "race": "Tour du Chablais #6 Montreux", "date": {"mer. 16.05.2012": {"year": 2012, "day": 16, "month": 5, "categories": {"M-M20": {"distance": 9, "rank": 76, "pace": 252000000000, "time": 2332.1}}, "weekday": "wednesday", "livingplace": "Chemin"}}, "location": "Aigle"}, "Sierre-Zinal, Sierre": {"latitude": 46.29413110000001, "longitude": 7.533536199999999, "race": "Sierre-Zinal, Sierre", "date": {"dim. 12.08.2012": {"year": 2012, "day": 12, "month": 8, "categories": {"Elites": {"distance": 31, "rank": 340, "pace": 549000000000, "time": 17048.3}}, "weekday": "sunday", "livingplace": "Chemin"}}, "location": "Sierre"}, "Tour du Chablais #2 Bex": {"latitude": 46.3835529, "longitude": 6.854975199999999, "race": "Tour du Chablais #2 Bex", "date": {"mer. 18.04.2012": {"year": 2012, "day": 18, "month": 4, "categories": {"M-M20": {"distance": 8, "rank": 79, "pace": 260000000000, "time": 2080.9}}, "weekday": "wednesday", "livingplace": "Chemin"}}, "location": "Bouveret"}, "Tour du Chablais #3 Collombey-Muraz": {"latitude": 46.1782231, "longitude": 7.0223787, "race": "Tour du Chablais #3 Collombey-Muraz", "date": {"mer. 25.04.2012": {"year": 2012, "day": 25, "month": 4, "categories": {"M-M20": {"distance": 9, "rank": 69, "pace": 253000000000, "time": 2275.7}}, "weekday": "wednesday", "livingplace": "Chemin"}}, "location": "Evionnaz"}}, "birth": 1977}