{"name": "Pittet Antoinette", "sex": "F", "races": {"Tour du Chablais #1 Roche": {"latitude": 46.2957462, "longitude": 6.9916269, "race": "Tour du Chablais #1 Roche", "date": {"mer. 07.04.2010": {"year": 2010, "day": 7, "month": 4, "categories": {"F-F20": {"distance": 9, "rank": 134, "pace": 399000000000, "time": 3573.6}}, "weekday": "wednesday", "livingplace": "Val d'Illiez"}}, "location": "Ollon VD"}, "Tour du Chablais #2 Rennaz": {"latitude": 46.3835529, "longitude": 6.854975199999999, "race": "Tour du Chablais #2 Rennaz", "date": {"mer. 04.05.2011": {"year": 2011, "day": 4, "month": 5, "categories": {"F-F20": {"distance": 9, "rank": 131, "pace": 404000000000, "time": 3779.3}}, "weekday": "wednesday", "livingplace": "Val d'Illiez"}}, "location": "Bouveret"}, "Tour du Chablais #3 Bex": {"latitude": 46.1782231, "longitude": 7.0223787, "race": "Tour du Chablais #3 Bex", "date": {"mer. 21.04.2010": {"year": 2010, "day": 21, "month": 4, "categories": {"F-F20": {"distance": 10, "rank": 109, "pace": 374000000000, "time": 3741.5}}, "weekday": "wednesday", "livingplace": "Val d'Illiez"}}, "location": "Evionnaz"}, "Tour du Chablais #3 Le Bouveret": {"latitude": 46.1782231, "longitude": 7.0223787, "race": "Tour du Chablais #3 Le Bouveret", "date": {"mer. 11.05.2011": {"year": 2011, "day": 11, "month": 5, "categories": {"F-F20": {"distance": 10, "rank": 125, "pace": 380000000000, "time": 3805.7}}, "weekday": "wednesday", "livingplace": "Val d'Illiez"}}, "location": "Evionnaz"}, "Tour du Chablais #4 Morgins": {"latitude": NaN, "longitude": NaN, "race": "Tour du Chablais #4 Morgins", "date": {"mer. 18.05.2011": {"year": 2011, "day": 18, "month": 5, "categories": {"F-F20": {"distance": 8, "rank": 106, "pace": 391000000000, "time": 3266.2}}, "weekday": "wednesday", "livingplace": "Val d'Illiez"}}, "location": "Les Mosses"}, "Tour du Chablais #1 Lavey": {"latitude": 46.2957462, "longitude": 6.9916269, "race": "Tour du Chablais #1 Lavey", "date": {"mer. 27.04.2011": {"year": 2011, "day": 27, "month": 4, "categories": {"F-F20": {"distance": 9, "rank": 111, "pace": 385000000000, "time": 3465.4}}, "weekday": "wednesday", "livingplace": "Val d'Illiez"}}, "location": "Ollon VD"}, "Tour du Chablais #4 Champ\u00e9ry": {"latitude": NaN, "longitude": NaN, "race": "Tour du Chablais #4 Champ\u00e9ry", "date": {"mer. 02.05.2012": {"year": 2012, "day": 2, "month": 5, "categories": {"F-F20": {"distance": 8, "rank": 73, "pace": 325000000000, "time": 2702.7}}, "weekday": "wednesday", "livingplace": "Val d'Illiez"}}, "location": "Les Mosses"}, "Tour du Chablais #5 Leysin": {"latitude": 46.3603257, "longitude": 6.931504599999999, "race": "Tour du Chablais #5 Leysin", "date": {"mer. 05.05.2010": {"year": 2010, "day": 5, "month": 5, "categories": {"F-F20": {"distance": 8, "rank": 74, "pace": 389000000000, "time": 3290.4}}, "weekday": "wednesday", "livingplace": "Val d'Illiez"}}, "location": "Roche VD"}, "Tour du Chablais #5 Bex": {"latitude": 46.3603257, "longitude": 6.931504599999999, "race": "Tour du Chablais #5 Bex", "date": {"mer. 09.05.2012": {"year": 2012, "day": 9, "month": 5, "categories": {"F-F20": {"distance": 9, "rank": 62, "pace": 316000000000, "time": 2805.4}}, "weekday": "wednesday", "livingplace": "Val d'Illiez"}}, "location": "Roche VD"}, "Tour du Chablais #6 Mouthey": {"latitude": 46.3190253, "longitude": 6.970566, "race": "Tour du Chablais #6 Mouthey", "date": {"mer. 12.05.2010": {"year": 2010, "day": 12, "month": 5, "categories": {"F-F20": {"distance": 9, "rank": 98, "pace": 352000000000, "time": 3241.9}}, "weekday": "wednesday", "livingplace": "Val d'Illiez"}}, "location": "Aigle"}, "Tour du Chablais #1 Montreux": {"latitude": 46.2957462, "longitude": 6.9916269, "race": "Tour du Chablais #1 Montreux", "date": {"mer. 11.04.2012": {"year": 2012, "day": 11, "month": 4, "categories": {"F-F20": {"distance": 8, "rank": 91, "pace": 353000000000, "time": 2685.6}}, "weekday": "wednesday", "livingplace": "Val d'Illiez"}}, "location": "Ollon VD"}, "Tour du Chablais #5 Les Mosses": {"latitude": 46.3603257, "longitude": 6.931504599999999, "race": "Tour du Chablais #5 Les Mosses", "date": {"mer. 25.05.2011": {"year": 2011, "day": 25, "month": 5, "categories": {"F-F20": {"distance": 8, "rank": 96, "pace": 390000000000, "time": 3121.9}}, "weekday": "wednesday", "livingplace": "Val d'Illiez"}}, "location": "Roche VD"}, "Tour du Chablais #6 Aigle": {"latitude": 46.3190253, "longitude": 6.970566, "race": "Tour du Chablais #6 Aigle", "date": {"mer. 01.06.2011": {"year": 2011, "day": 1, "month": 6, "categories": {"F-F20": {"distance": 10, "rank": 117, "pace": 360000000000, "time": 3674.8}}, "weekday": "wednesday", "livingplace": "Val d'Illiez"}}, "location": "Aigle"}, "Tour du Chablais #2 St-Gingolph": {"latitude": 46.3835529, "longitude": 6.854975199999999, "race": "Tour du Chablais #2 St-Gingolph", "date": {"mer. 14.04.2010": {"year": 2010, "day": 14, "month": 4, "categories": {"F-F20": {"distance": 8, "rank": 98, "pace": 405000000000, "time": 3382.0}}, "weekday": "wednesday", "livingplace": "Val d'Illiez"}}, "location": "Bouveret"}, "Tour du Chablais #4 Yvorne": {"latitude": NaN, "longitude": NaN, "race": "Tour du Chablais #4 Yvorne", "date": {"mer. 28.04.2010": {"year": 2010, "day": 28, "month": 4, "categories": {"F-F20": {"distance": 8, "rank": 102, "pace": 415000000000, "time": 3442.6}}, "weekday": "wednesday", "livingplace": "Val d'Illiez"}}, "location": "Les Mosses"}, "Tour du Chablais #2 Bex": {"latitude": 46.3835529, "longitude": 6.854975199999999, "race": "Tour du Chablais #2 Bex", "date": {"mer. 18.04.2012": {"year": 2012, "day": 18, "month": 4, "categories": {"F-F20": {"distance": 8, "rank": 84, "pace": 333000000000, "time": 2668.0}}, "weekday": "wednesday", "livingplace": "Val d'Illiez"}}, "location": "Bouveret"}, "Tour du Chablais #3 Collombey-Muraz": {"latitude": 46.1782231, "longitude": 7.0223787, "race": "Tour du Chablais #3 Collombey-Muraz", "date": {"mer. 25.04.2012": {"year": 2012, "day": 25, "month": 4, "categories": {"F-F20": {"distance": 9, "rank": 79, "pace": 332000000000, "time": 2988.8}}, "weekday": "wednesday", "livingplace": "Val d'Illiez"}}, "location": "Evionnaz"}, "Tour du Chablais #6 Montreux": {"latitude": 46.3190253, "longitude": 6.970566, "race": "Tour du Chablais #6 Montreux", "date": {"mer. 16.05.2012": {"year": 2012, "day": 16, "month": 5, "categories": {"F-F20": {"distance": 9, "rank": 76, "pace": 319000000000, "time": 2958.0}}, "weekday": "wednesday", "livingplace": "Val d'Illiez"}}, "location": "Aigle"}}, "birth": 1978}