{"name": "Pittet Claire", "sex": "F", "races": {"Tour du Pays de Vaud printanier #2 Yverdon-les-Bains": {"latitude": 46.6698891, "longitude": 6.7975224, "race": "Tour du Pays de Vaud printanier #2 Yverdon-les-Bains", "date": {"mer. 05.06.2013": {"year": 2013, "day": 5, "month": 6, "categories": {"D-Sen2": {"distance": 9, "rank": 37, "pace": 412000000000, "time": 3757.8}}, "weekday": "wednesday", "livingplace": "Vufflens la Ville"}}, "location": "Moudon"}, "20km de Lausanne": {"latitude": 46.5196535, "longitude": 6.6322734, "race": "20km de Lausanne", "date": {"sam. 27.04.2013": {"year": 2013, "day": 27, "month": 4, "categories": {"10-F40": {"distance": 10, "rank": 313, "pace": 427000000000, "time": 4270.3}}, "weekday": "saturday", "livingplace": "Vufflens la Ville"}, "sam. 25.04.2015": {"year": 2015, "day": 25, "month": 4, "categories": {"10-F40": {"distance": 10, "rank": 249, "pace": 361000000000, "time": 3619.1}}, "weekday": "saturday", "livingplace": "Le Mont Pelerin"}}, "location": "Lausanne"}, "Tour du Pays de Vaud printanier #3 - Yens": {"latitude": 46.7829756, "longitude": 6.5728678, "race": "Tour du Pays de Vaud printanier #3 - Yens", "date": {"mer. 12.06.2013": {"year": 2013, "day": 12, "month": 6, "categories": {"D-Sen2": {"distance": 9, "rank": 48, "pace": 404000000000, "time": 3680.9}}, "weekday": "wednesday", "livingplace": "Vufflens la Ville"}}, "location": "Champvent"}, "Les Traine-Savates, Cheseaux-sur-Lausanne": {"latitude": 46.585452, "longitude": 6.6047712, "race": "Les Traine-Savates, Cheseaux-sur-Lausanne", "date": {"sam. 18.04.2015": {"year": 2015, "day": 18, "month": 4, "categories": {"10-W40": {"distance": 10, "rank": 77, "pace": 365000000000, "time": 3762.7}}, "weekday": "saturday", "livingplace": "Vufflens la Ville"}}, "location": "Cheseaux-sur-Lausanne"}, "Tour du Pays de Vaud printanier #1 Moudon": {"latitude": 46.3832683, "longitude": 6.2347852, "race": "Tour du Pays de Vaud printanier #1 Moudon", "date": {"mer. 29.05.2013": {"year": 2013, "day": 29, "month": 5, "categories": {"D-Sen2": {"distance": 8, "rank": 29, "pace": 419000000000, "time": 3585.5}}, "weekday": "wednesday", "livingplace": "Vufflens la Ville"}}, "location": "Nyon"}}, "birth": 1971}