{"name": "Pittier Jannick", "sex": "F", "races": {"Tour du Chablais #1 Roche": {"latitude": 46.2957462, "longitude": 6.9916269, "race": "Tour du Chablais #1 Roche", "date": {"mer. 07.04.2010": {"year": 2010, "day": 7, "month": 4, "categories": {"F-F40": {"distance": 9, "rank": 29, "pace": 312000000000, "time": 2795.2}}, "weekday": "wednesday", "livingplace": "Bex"}, "mer. 03.04.2013": {"year": 2013, "day": 3, "month": 4, "categories": {"F-F40": {"distance": 9, "rank": 33, "pace": 309000000000, "time": 2745.6}}, "weekday": "wednesday", "livingplace": "Bex"}}, "location": "Ollon VD"}, "Tour du Chablais #2 Rennaz": {"latitude": 46.3835529, "longitude": 6.854975199999999, "race": "Tour du Chablais #2 Rennaz", "date": {"mer. 04.05.2011": {"year": 2011, "day": 4, "month": 5, "categories": {"F-F40": {"distance": 9, "rank": 37, "pace": 316000000000, "time": 2959.3}}, "weekday": "wednesday", "livingplace": "Bex"}}, "location": "Bouveret"}, "Morat-Fribourg": {"latitude": 46.92922110000001, "longitude": 7.120184, "race": "Morat-Fribourg", "date": {"sam. 02.10.2010": {"year": 2010, "day": 2, "month": 10, "categories": {"17-W40": {"distance": 17, "rank": 98, "pace": 346000000000, "time": 5941.4}}, "weekday": "saturday", "livingplace": "Bex"}, "sam. 03.10.2015": {"year": 2015, "day": 3, "month": 10, "categories": {"17-W45": {"distance": 17, "rank": 91, "pace": 346000000000, "time": 5952.1}}, "weekday": "saturday", "livingplace": "Bex"}, "sam. 06.10.2012": {"year": 2012, "day": 6, "month": 10, "categories": {"17-W40": {"distance": 17, "rank": 124, "pace": 340000000000, "time": 5938.4}}, "weekday": "saturday", "livingplace": "Bex"}, "sam. 04.10.2014": {"year": 2014, "day": 4, "month": 10, "categories": {"17-W45": {"distance": 17, "rank": 197, "pace": 382000000000, "time": 6567.3}}, "weekday": "saturday", "livingplace": "Bex"}}, "location": "Murten"}, "Tour du Chablais #4 Morgins": {"latitude": NaN, "longitude": NaN, "race": "Tour du Chablais #4 Morgins", "date": {"mer. 18.05.2011": {"year": 2011, "day": 18, "month": 5, "categories": {"F-F40": {"distance": 8, "rank": 41, "pace": 335000000000, "time": 2803.4}}, "weekday": "wednesday", "livingplace": "Bex"}}, "location": "Les Mosses"}, "20km de Lausanne": {"latitude": 46.5196535, "longitude": 6.6322734, "race": "20km de Lausanne", "date": {"sam. 30.04.2011": {"year": 2011, "day": 30, "month": 4, "categories": {"10-F40": {"distance": 10, "rank": 71, "pace": 331000000000, "time": 3310.2}}, "weekday": "saturday", "livingplace": "Bex"}, "sam. 25.04.2015": {"year": 2015, "day": 25, "month": 4, "categories": {"10-F45": {"distance": 10, "rank": 46, "pace": 318000000000, "time": 3184.5}}, "weekday": "saturday", "livingplace": "Bex"}}, "location": "Lausanne"}, "Tour du Chablais #1 Lavey": {"latitude": 46.2957462, "longitude": 6.9916269, "race": "Tour du Chablais #1 Lavey", "date": {"mer. 27.04.2011": {"year": 2011, "day": 27, "month": 4, "categories": {"F-F40": {"distance": 9, "rank": 40, "pace": 329000000000, "time": 2966.1}}, "weekday": "wednesday", "livingplace": "Bex"}}, "location": "Ollon VD"}, "Tour du Chablais #2 Yvorne": {"latitude": 46.3835529, "longitude": 6.854975199999999, "race": "Tour du Chablais #2 Yvorne", "date": {"mer. 10.04.2013": {"year": 2013, "day": 10, "month": 4, "categories": {"F-F40": {"distance": 8, "rank": 24, "pace": 340000000000, "time": 2725.6}}, "weekday": "wednesday", "livingplace": "Bex"}}, "location": "Bouveret"}, "Tour du Chablais #5 Leysin": {"latitude": 46.3603257, "longitude": 6.931504599999999, "race": "Tour du Chablais #5 Leysin", "date": {"mer. 05.05.2010": {"year": 2010, "day": 5, "month": 5, "categories": {"F-F40": {"distance": 8, "rank": 24, "pace": 340000000000, "time": 2875.9}}, "weekday": "wednesday", "livingplace": "Bex"}}, "location": "Roche VD"}, "Tour du Chablais #5 Bex": {"latitude": 46.3603257, "longitude": 6.931504599999999, "race": "Tour du Chablais #5 Bex", "date": {"mer. 09.05.2012": {"year": 2012, "day": 9, "month": 5, "categories": {"F-F40": {"distance": 9, "rank": 20, "pace": 300000000000, "time": 2666.5}}, "weekday": "wednesday", "livingplace": "Bex"}}, "location": "Roche VD"}, "Tour du Chablais #4 Champ\u00e9ry": {"latitude": NaN, "longitude": NaN, "race": "Tour du Chablais #4 Champ\u00e9ry", "date": {"mer. 02.05.2012": {"year": 2012, "day": 2, "month": 5, "categories": {"F-F40": {"distance": 8, "rank": 20, "pace": 307000000000, "time": 2554.4}}, "weekday": "wednesday", "livingplace": "Bex"}}, "location": "Les Mosses"}, "Tour du Chablais #5 Les Mosses": {"latitude": 46.3603257, "longitude": 6.931504599999999, "race": "Tour du Chablais #5 Les Mosses", "date": {"mer. 25.05.2011": {"year": 2011, "day": 25, "month": 5, "categories": {"F-F40": {"distance": 8, "rank": 39, "pace": 353000000000, "time": 2829.9}}, "weekday": "wednesday", "livingplace": "Bex"}}, "location": "Roche VD"}, "Tour du Chablais #6 Aigle": {"latitude": 46.3190253, "longitude": 6.970566, "race": "Tour du Chablais #6 Aigle", "date": {"mer. 01.06.2011": {"year": 2011, "day": 1, "month": 6, "categories": {"F-F40": {"distance": 10, "rank": 33, "pace": 313000000000, "time": 3198.3}}, "weekday": "wednesday", "livingplace": "Bex"}}, "location": "Aigle"}, "Tour du Chablais #3 Bex": {"latitude": 46.1782231, "longitude": 7.0223787, "race": "Tour du Chablais #3 Bex", "date": {"mer. 21.04.2010": {"year": 2010, "day": 21, "month": 4, "categories": {"F-F40": {"distance": 10, "rank": 30, "pace": 321000000000, "time": 3210.1}}, "weekday": "wednesday", "livingplace": "Bex"}}, "location": "Evionnaz"}, "Tour du Chablais #3 Collombey-Muraz": {"latitude": 46.1782231, "longitude": 7.0223787, "race": "Tour du Chablais #3 Collombey-Muraz", "date": {"mer. 25.04.2012": {"year": 2012, "day": 25, "month": 4, "categories": {"F-F40": {"distance": 9, "rank": 23, "pace": 311000000000, "time": 2800.3}}, "weekday": "wednesday", "livingplace": "Bex"}}, "location": "Evionnaz"}, "Tour du Chablais #4 St  Maurice": {"latitude": NaN, "longitude": NaN, "race": "Tour du Chablais #4 St  Maurice", "date": {"mer. 24.04.2013": {"year": 2013, "day": 24, "month": 4, "categories": {"F-F40": {"distance": 10, "rank": 28, "pace": 315000000000, "time": 3154.7}}, "weekday": "wednesday", "livingplace": "Bex"}}, "location": "Les Mosses"}, "Schweizer Frauenlauf Bern": {"latitude": 46.9479739, "longitude": 7.4474468, "race": "Schweizer Frauenlauf Bern", "date": {"dim. 10.06.2012": {"year": 2012, "day": 10, "month": 6, "categories": {"10-W40": {"distance": 10, "rank": 122, "pace": 303000000000, "time": 3037.3}}, "weekday": "sunday", "livingplace": "Bex"}}, "location": "Bern"}, "Tour du Chablais #6 Mouthey": {"latitude": 46.3190253, "longitude": 6.970566, "race": "Tour du Chablais #6 Mouthey", "date": {"mer. 12.05.2010": {"year": 2010, "day": 12, "month": 5, "categories": {"F-F40": {"distance": 9, "rank": 30, "pace": 304000000000, "time": 2803.5}}, "weekday": "wednesday", "livingplace": "Bex"}}, "location": "Aigle"}, "Tour du Chablais #1 Montreux": {"latitude": 46.2957462, "longitude": 6.9916269, "race": "Tour du Chablais #1 Montreux", "date": {"mer. 11.04.2012": {"year": 2012, "day": 11, "month": 4, "categories": {"F-F40": {"distance": 8, "rank": 24, "pace": 330000000000, "time": 2511.2}}, "weekday": "wednesday", "livingplace": "Bex"}}, "location": "Ollon VD"}, "Tour du Chablais #3 Bouveret": {"latitude": 46.1782231, "longitude": 7.0223787, "race": "Tour du Chablais #3 Bouveret", "date": {"mer. 17.04.2013": {"year": 2013, "day": 17, "month": 4, "categories": {"F-F40": {"distance": 10, "rank": 23, "pace": 308000000000, "time": 3080.2}}, "weekday": "wednesday", "livingplace": "Bex"}}, "location": "Evionnaz"}, "Tour du Chablais #2 St-Gingolph": {"latitude": 46.3835529, "longitude": 6.854975199999999, "race": "Tour du Chablais #2 St-Gingolph", "date": {"mer. 14.04.2010": {"year": 2010, "day": 14, "month": 4, "categories": {"F-F40": {"distance": 8, "rank": 32, "pace": 346000000000, "time": 2891.4}}, "weekday": "wednesday", "livingplace": "Bex"}}, "location": "Bouveret"}, "Tour du Chablais #4 Yvorne": {"latitude": NaN, "longitude": NaN, "race": "Tour du Chablais #4 Yvorne", "date": {"mer. 28.04.2010": {"year": 2010, "day": 28, "month": 4, "categories": {"F-F40": {"distance": 8, "rank": 37, "pace": 346000000000, "time": 2868.6}}, "weekday": "wednesday", "livingplace": "Bex"}}, "location": "Les Mosses"}, "Tour du Chablais #2 Bex": {"latitude": 46.3835529, "longitude": 6.854975199999999, "race": "Tour du Chablais #2 Bex", "date": {"mer. 18.04.2012": {"year": 2012, "day": 18, "month": 4, "categories": {"F-F40": {"distance": 8, "rank": 25, "pace": 313000000000, "time": 2506.5}}, "weekday": "wednesday", "livingplace": "Bex"}}, "location": "Bouveret"}, "Tour du Chablais #6 Montreux": {"latitude": 46.3190253, "longitude": 6.970566, "race": "Tour du Chablais #6 Montreux", "date": {"mer. 16.05.2012": {"year": 2012, "day": 16, "month": 5, "categories": {"F-F40": {"distance": 9, "rank": 24, "pace": 299000000000, "time": 2772.6}}, "weekday": "wednesday", "livingplace": "Bex"}}, "location": "Aigle"}}, "birth": 1969}