{"name": "Platel Marc", "sex": "M", "races": {"Tour du Pays de Vaud printanier #2 Yverdon-les-Bains": {"latitude": 46.6698891, "longitude": 6.7975224, "race": "Tour du Pays de Vaud printanier #2 Yverdon-les-Bains", "date": {"mer. 11.06.2014": {"year": 2014, "day": 11, "month": 6, "categories": {"H-Sen1": {"distance": 9, "rank": 98, "pace": 366000000000, "time": 3337.7}}, "weekday": "wednesday", "livingplace": "Oron la Ville"}, "mer. 05.06.2013": {"year": 2013, "day": 5, "month": 6, "categories": {"H-Sen1": {"distance": 9, "rank": 78, "pace": 334000000000, "time": 3044.1}}, "weekday": "wednesday", "livingplace": "Oron la Ville"}}, "location": "Moudon"}, "Glacier 3000 Run, Gstaad": {"latitude": 46.4717588, "longitude": 7.2865728, "race": "Glacier 3000 Run, Gstaad", "date": {"sam. 08.08.2015": {"year": 2015, "day": 8, "month": 8, "categories": {"M30": {"distance": 26, "rank": 89, "pace": 632000000000, "time": 16439.4}}, "weekday": "saturday", "livingplace": "Oron la Ville"}}, "location": "Gstaad"}, "Morat-Fribourg": {"latitude": 46.92922110000001, "longitude": 7.120184, "race": "Morat-Fribourg", "date": {"sam. 05.10.2013": {"year": 2013, "day": 5, "month": 10, "categories": {"17-M20": {"distance": 17, "rank": 1727, "pace": 327000000000, "time": 5717.6}}, "weekday": "saturday", "livingplace": "Oron la Ville"}, "sam. 03.10.2015": {"year": 2015, "day": 3, "month": 10, "categories": {"17-M20": {"distance": 17, "rank": 1231, "pace": 312000000000, "time": 5369.4}}, "weekday": "saturday", "livingplace": "Oron la Ville"}, "sam. 04.10.2014": {"year": 2014, "day": 4, "month": 10, "categories": {"17-M20": {"distance": 17, "rank": 1433, "pace": 324000000000, "time": 5563.7}}, "weekday": "saturday", "livingplace": "Oron la Ville"}}, "location": "Murten"}, "Tour du Pays de Vaud #2, Mezi\u00e8res": {"latitude": 46.5955273, "longitude": 6.7702883, "race": "Tour du Pays de Vaud #2, Mezi\u00e8res", "date": {"mer. 20.08.2014": {"year": 2014, "day": 20, "month": 8, "categories": {"H-Sen1": {"distance": 8, "rank": 96, "pace": 335000000000, "time": 2717.4}}, "weekday": "wednesday", "livingplace": "Oron la Ville"}}, "location": "M\u00e9zi\u00e8res VD"}, "Tour du Pays de Vaud #2 - Mezi\u00e8res": {"latitude": 46.5955273, "longitude": 6.7702883, "race": "Tour du Pays de Vaud #2 - Mezi\u00e8res", "date": {"mer. 21.08.2013": {"year": 2013, "day": 21, "month": 8, "categories": {"H-Sen1": {"distance": 8, "rank": 105, "pace": 332000000000, "time": 2694.0}}, "weekday": "wednesday", "livingplace": "Oron la Ville"}}, "location": "M\u00e9zi\u00e8res VD"}, "Lausanne Marathon": {"latitude": 46.5196535, "longitude": 6.6322734, "race": "Lausanne Marathon", "date": {"sam. 24.10.2015": {"year": 2015, "day": 24, "month": 10, "categories": {"42-H30": {"distance": 42, "rank": 157, "pace": 330000000000, "time": 13958.0}}, "weekday": "saturday", "livingplace": "Oron la Ville"}}, "location": "Lausanne"}, "20km de Lausanne": {"latitude": 46.5196535, "longitude": 6.6322734, "race": "20km de Lausanne", "date": {"sam. 26.04.2014": {"year": 2014, "day": 26, "month": 4, "categories": {"20-H30": {"distance": 20, "rank": 630, "pace": 321000000000, "time": 6437.6}}, "weekday": "saturday", "livingplace": "Oron la Ville"}}, "location": "Lausanne"}, "Tour du Pays de Vaud printanier #1 Moudon": {"latitude": 46.3832683, "longitude": 6.2347852, "race": "Tour du Pays de Vaud printanier #1 Moudon", "date": {"mer. 29.05.2013": {"year": 2013, "day": 29, "month": 5, "categories": {"H-Sen1": {"distance": 8, "rank": 59, "pace": 312000000000, "time": 2670.1}}, "weekday": "wednesday", "livingplace": "Oron la Ville"}, "mer. 04.06.2014": {"year": 2014, "day": 4, "month": 6, "categories": {"H-Sen1": {"distance": 8, "rank": 78, "pace": 311000000000, "time": 2616.0}}, "weekday": "wednesday", "livingplace": "Oron la Ville"}}, "location": "Nyon"}}, "birth": 1978}