{"name": "Pochon Johann", "sex": "M", "races": {"Tour du Chablais #1 Roche": {"latitude": 46.2957462, "longitude": 6.9916269, "race": "Tour du Chablais #1 Roche", "date": {"mer. 07.04.2010": {"year": 2010, "day": 7, "month": 4, "categories": {"M-M20": {"distance": 9, "rank": 189, "pace": 313000000000, "time": 2802.8}}, "weekday": "wednesday", "livingplace": "Penthalaz"}}, "location": "Ollon VD"}, "Tour du Chablais #4 Yvorne": {"latitude": NaN, "longitude": NaN, "race": "Tour du Chablais #4 Yvorne", "date": {"mer. 28.04.2010": {"year": 2010, "day": 28, "month": 4, "categories": {"M-M20": {"distance": 8, "rank": 185, "pace": 347000000000, "time": 2878.2}}, "weekday": "wednesday", "livingplace": "Penthalaz"}}, "location": "Les Mosses"}, "Morat-Fribourg": {"latitude": 46.92922110000001, "longitude": 7.120184, "race": "Morat-Fribourg", "date": {"sam. 06.10.2012": {"year": 2012, "day": 6, "month": 10, "categories": {"17-M20": {"distance": 17, "rank": 1352, "pace": 321000000000, "time": 5613.3}}, "weekday": "saturday", "livingplace": "Penthalaz"}}, "location": "Murten"}, "Corrida Bulloise, Bulle": {"latitude": 46.6154512, "longitude": 7.057726799999999, "race": "Corrida Bulloise, Bulle", "date": {"sam. 17.11.2012": {"year": 2012, "day": 17, "month": 11, "categories": {"M20": {"distance": 8, "rank": 119, "pace": 283000000000, "time": 2312.8}}, "weekday": "saturday", "livingplace": "Penthalaz"}, "sam. 15.11.2014": {"year": 2014, "day": 15, "month": 11, "categories": {"8-M20": {"distance": 8, "rank": 107, "pace": 273000000000, "time": 2227.9}}, "weekday": "saturday", "livingplace": "Penthalaz"}}, "location": "Bulle"}, "Tour du Pays de Vaud printanier #1 Chavornay": {"latitude": 46.3832683, "longitude": 6.2347852, "race": "Tour du Pays de Vaud printanier #1 Chavornay", "date": {"mer. 30.05.2012": {"year": 2012, "day": 30, "month": 5, "categories": {"H-Sen1": {"distance": 9, "rank": 50, "pace": 310000000000, "time": 2777.4}}, "weekday": "wednesday", "livingplace": "Penthalaz"}}, "location": "Nyon"}, "Tour du Pays de Vaud #3 - Mezi\u00e8res": {"latitude": 46.7784736, "longitude": 6.641183, "race": "Tour du Pays de Vaud #3 - Mezi\u00e8res", "date": {"mer. 22.08.2012": {"year": 2012, "day": 22, "month": 8, "categories": {"H-Sen1": {"distance": 8, "rank": 108, "pace": 323000000000, "time": 2717.4}}, "weekday": "wednesday", "livingplace": "Penthalaz"}}, "location": "Yverdon-les-Bains"}, "Sierre-Zinal, Sierre": {"latitude": 46.29413110000001, "longitude": 7.533536199999999, "race": "Sierre-Zinal, Sierre", "date": {"dim. 12.08.2012": {"year": 2012, "day": 12, "month": 8, "categories": {"Elites": {"distance": 31, "rank": 439, "pace": 632000000000, "time": 19600.2}}, "weekday": "sunday", "livingplace": "Penthalaz"}, "dim. 11.08.2013": {"year": 2013, "day": 11, "month": 8, "categories": {"Elites": {"distance": 31, "rank": 449, "pace": 597000000000, "time": 18513.6}}, "weekday": "sunday", "livingplace": "Penthalaz"}}, "location": "Sierre"}, "20km de Lausanne": {"latitude": 46.5196535, "longitude": 6.6322734, "race": "20km de Lausanne", "date": {"sam. 24.04.2010": {"year": 2010, "day": 24, "month": 4, "categories": {"10-H30": {"distance": 10, "rank": 749, "pace": 370000000000, "time": 3708.6}}, "weekday": "saturday", "livingplace": "Penthalaz"}, "sam. 27.04.2013": {"year": 2013, "day": 27, "month": 4, "categories": {"20-H30": {"distance": 20, "rank": 501, "pace": 297000000000, "time": 5947.0}}, "weekday": "saturday", "livingplace": "Lausanne"}, "sam. 28.04.2012": {"year": 2012, "day": 28, "month": 4, "categories": {"10-H30": {"distance": 10, "rank": 376, "pace": 302000000000, "time": 3020.0}}, "weekday": "saturday", "livingplace": "Penthalaz"}}, "location": "Lausanne"}, "Humani'Trail, Les Diablerets": {"latitude": 46.351389, "longitude": 7.158055999999999, "race": "Humani'Trail, Les Diablerets", "date": {"sam. 21.09.2013": {"year": 2013, "day": 21, "month": 9, "categories": {"25-HS": {"distance": 25, "rank": 78, "pace": 686000000000, "time": 17153.2}}, "weekday": "saturday", "livingplace": "Penthalaz"}}, "location": "Les Diablerets"}, "Z\u00fcrich Marathon, Teamrun und Cityrun": {"latitude": 47.3768866, "longitude": 8.541694, "race": "Z\u00fcrich Marathon, Teamrun und Cityrun", "date": {"dim. 07.04.2013": {"year": 2013, "day": 7, "month": 4, "categories": {"42-M30": {"distance": 42, "rank": 384, "pace": 335000000000, "time": 14164.1}}, "weekday": "sunday", "livingplace": "Penthalaz"}}, "location": "Z\u00fcrich"}, "Tour du Pays de Vaud #2 - Genolier": {"latitude": 46.5955273, "longitude": 6.7702883, "race": "Tour du Pays de Vaud #2 - Genolier", "date": {"mer. 15.08.2012": {"year": 2012, "day": 15, "month": 8, "categories": {"H-Sen1": {"distance": 9, "rank": 83, "pace": 284000000000, "time": 2416.6}}, "weekday": "wednesday", "livingplace": "Penthalaz"}}, "location": "M\u00e9zi\u00e8res VD"}, "Lausanne Marathon": {"latitude": 46.5196535, "longitude": 6.6322734, "race": "Lausanne Marathon", "date": {"dim. 30.10.2011": {"year": 2011, "day": 30, "month": 10, "categories": {"10-H2": {"distance": 10, "rank": 308, "pace": 306000000000, "time": 3065.6}}, "weekday": "sunday", "livingplace": "Penthalaz"}, "dim. 28.10.2012": {"year": 2012, "day": 28, "month": 10, "categories": {"42-H2": {"distance": 42, "rank": 235, "pace": 376000000000, "time": 15869.5}}, "weekday": "sunday", "livingplace": "Penthalaz"}}, "location": "Lausanne"}, "Course p\u00e9destre Thyon-Dixence, Thyon": {"latitude": NaN, "longitude": NaN, "race": "Course p\u00e9destre Thyon-Dixence, Thyon", "date": {"dim. 04.08.2013": {"year": 2013, "day": 4, "month": 8, "categories": {"HomElite": {"distance": 16, "rank": 133, "pace": 520000000000, "time": 8516.8}}, "weekday": "sunday", "livingplace": "Penthalaz"}}, "location": "Thyon-Les Collons"}, "Montreux - Les Rochers de Naye": {"latitude": 46.4312213, "longitude": 6.9106799, "race": "Montreux - Les Rochers de Naye", "date": {"dim. 08.07.2012": {"year": 2012, "day": 8, "month": 7, "categories": {"M-HElite": {"distance": 19, "rank": 162, "pace": 531000000000, "time": 9996.3}}, "weekday": "sunday", "livingplace": "Penthalaz"}}, "location": "Montreux"}, "Tour du Pays de Vaud #4 - La Sarraz": {"latitude": 46.7088129, "longitude": 6.5707689, "race": "Tour du Pays de Vaud #4 - La Sarraz", "date": {"mer. 29.08.2012": {"year": 2012, "day": 29, "month": 8, "categories": {"H-Sen1": {"distance": 9, "rank": 90, "pace": 279000000000, "time": 2374.8}}, "weekday": "wednesday", "livingplace": "Penthalaz"}}, "location": "Chavornay"}, "Tour du pays de Vaud #1 - Penthaz": {"latitude": 46.5993131, "longitude": 6.539251200000001, "race": "Tour du pays de Vaud #1 - Penthaz", "date": {"mer. 08.08.2012": {"year": 2012, "day": 8, "month": 8, "categories": {"H-Sen1": {"distance": 9, "rank": 79, "pace": 286000000000, "time": 2439.6}}, "weekday": "wednesday", "livingplace": "Penthalaz"}}, "location": "Penthaz"}, "Tour du Pays de Vaud printanier #2 Yens": {"latitude": 46.6698891, "longitude": 6.7975224, "race": "Tour du Pays de Vaud printanier #2 Yens", "date": {"mer. 06.06.2012": {"year": 2012, "day": 6, "month": 6, "categories": {"H-Sen1": {"distance": 9, "rank": 41, "pace": 295000000000, "time": 2692.9}}, "weekday": "wednesday", "livingplace": "Penthalaz"}}, "location": "Moudon"}}, "birth": 1975}