{"name": "Politino Emanuele", "sex": "M", "races": {"Tour du Pays de Vaud printanier #2 Yverdon-les-Bains": {"latitude": 46.6698891, "longitude": 6.7975224, "race": "Tour du Pays de Vaud printanier #2 Yverdon-les-Bains", "date": {"mer. 11.06.2014": {"year": 2014, "day": 11, "month": 6, "categories": {"H-Hom": {"distance": 9, "rank": 57, "pace": 355000000000, "time": 3238.7}}, "weekday": "wednesday", "livingplace": "Lausanne"}}, "location": "Moudon"}, "Tour du Pays de Vaud #1, Penthaz": {"latitude": 46.5993131, "longitude": 6.539251200000001, "race": "Tour du Pays de Vaud #1, Penthaz", "date": {"mer. 13.08.2014": {"year": 2014, "day": 13, "month": 8, "categories": {"H-Hom": {"distance": 9, "rank": 55, "pace": 313000000000, "time": 2674.9}}, "weekday": "wednesday", "livingplace": "Lausanne"}}, "location": "Penthaz"}, "Tour du Pays de Vaud printanier #3 - Yens": {"latitude": 46.7829756, "longitude": 6.5728678, "race": "Tour du Pays de Vaud printanier #3 - Yens", "date": {"mer. 18.06.2014": {"year": 2014, "day": 18, "month": 6, "categories": {"H-Hom": {"distance": 9, "rank": 48, "pace": 330000000000, "time": 3004.3}}, "weekday": "wednesday", "livingplace": "Lausanne"}}, "location": "Champvent"}, "Tour du Pays de Vaud #2, Mezi\u00e8res": {"latitude": 46.5955273, "longitude": 6.7702883, "race": "Tour du Pays de Vaud #2, Mezi\u00e8res", "date": {"mer. 20.08.2014": {"year": 2014, "day": 20, "month": 8, "categories": {"H-Hom": {"distance": 8, "rank": 52, "pace": 356000000000, "time": 2883.9}}, "weekday": "wednesday", "livingplace": "Lausanne"}}, "location": "M\u00e9zi\u00e8res VD"}, "Tour du Pays de Vaud printanier #1 Moudon": {"latitude": 46.3832683, "longitude": 6.2347852, "race": "Tour du Pays de Vaud printanier #1 Moudon", "date": {"mer. 04.06.2014": {"year": 2014, "day": 4, "month": 6, "categories": {"H-Hom": {"distance": 8, "rank": 53, "pace": 333000000000, "time": 2802.7}}, "weekday": "wednesday", "livingplace": "Lausanne"}}, "location": "Nyon"}, "Lausanne Marathon": {"latitude": 46.5196535, "longitude": 6.6322734, "race": "Lausanne Marathon", "date": {"dim. 30.10.2011": {"year": 2011, "day": 30, "month": 10, "categories": {"10-H1": {"distance": 10, "rank": 297, "pace": 317000000000, "time": 3179.5}}, "weekday": "sunday", "livingplace": "Lausanne"}, "dim. 26.10.2014": {"year": 2014, "day": 26, "month": 10, "categories": {"21-H20": {"distance": 21, "rank": 471, "pace": 332000000000, "time": 7012.0}}, "weekday": "sunday", "livingplace": "Lausanne"}, "dim. 27.10.2013": {"year": 2013, "day": 27, "month": 10, "categories": {"10-H1": {"distance": 10, "rank": 340, "pace": 317000000000, "time": 3175.8}}, "weekday": "sunday", "livingplace": "Lausanne"}}, "location": "Lausanne"}, "Morat-Fribourg": {"latitude": 46.92922110000001, "longitude": 7.120184, "race": "Morat-Fribourg", "date": {"sam. 04.10.2014": {"year": 2014, "day": 4, "month": 10, "categories": {"17-M20": {"distance": 17, "rank": 1700, "pace": 340000000000, "time": 5838.9}}, "weekday": "saturday", "livingplace": "Lausanne"}}, "location": "Murten"}, "20km de Lausanne": {"latitude": 46.5196535, "longitude": 6.6322734, "race": "20km de Lausanne", "date": {"sam. 30.04.2011": {"year": 2011, "day": 30, "month": 4, "categories": {"10-H20": {"distance": 10, "rank": 590, "pace": 343000000000, "time": 3433.5}}, "weekday": "saturday", "livingplace": "Lausanne"}, "sam. 24.04.2010": {"year": 2010, "day": 24, "month": 4, "categories": {"10-H20": {"distance": 10, "rank": 565, "pace": 365000000000, "time": 3653.1}}, "weekday": "saturday", "livingplace": "Lausanne"}, "sam. 27.04.2013": {"year": 2013, "day": 27, "month": 4, "categories": {"10-H20": {"distance": 10, "rank": 607, "pace": 320000000000, "time": 3200.7}}, "weekday": "saturday", "livingplace": "Lausanne"}, "sam. 28.04.2012": {"year": 2012, "day": 28, "month": 4, "categories": {"10-H20": {"distance": 10, "rank": 494, "pace": 325000000000, "time": 3254.2}}, "weekday": "saturday", "livingplace": "Lausanne"}, "sam. 26.04.2014": {"year": 2014, "day": 26, "month": 4, "categories": {"10-H20": {"distance": 10, "rank": 602, "pace": 323000000000, "time": 3238.7}}, "weekday": "saturday", "livingplace": "Lausanne"}}, "location": "Lausanne"}, "Les Traine-Savates, Cheseaux-sur-Lausanne": {"latitude": 46.585452, "longitude": 6.6047712, "race": "Les Traine-Savates, Cheseaux-sur-Lausanne", "date": {"sam. 18.04.2015": {"year": 2015, "day": 18, "month": 4, "categories": {"10-M20": {"distance": 10, "rank": 236, "pace": 316000000000, "time": 3262.2}}, "weekday": "saturday", "livingplace": "Lausanne"}}, "location": "Cheseaux-sur-Lausanne"}, "Tour du Pays de Vaud #4, La Sarraz": {"latitude": 46.7088129, "longitude": 6.5707689, "race": "Tour du Pays de Vaud #4, La Sarraz", "date": {"mer. 03.09.2014": {"year": 2014, "day": 3, "month": 9, "categories": {"H-Hom": {"distance": 9, "rank": 48, "pace": 303000000000, "time": 2581.5}}, "weekday": "wednesday", "livingplace": "Lausanne"}}, "location": "Chavornay"}, "Tour du Pays de Vaud #3, Chavornay": {"latitude": 46.7784736, "longitude": 6.641183, "race": "Tour du Pays de Vaud #3, Chavornay", "date": {"mer. 27.08.2014": {"year": 2014, "day": 27, "month": 8, "categories": {"H-Hom": {"distance": 9, "rank": 60, "pace": 327000000000, "time": 2818.1}}, "weekday": "wednesday", "livingplace": "Lausanne"}}, "location": "Yverdon-les-Bains"}}, "birth": 1986}