{"name": "Poncet St\u00e9phanie", "sex": "F", "races": {"Morat-Fribourg": {"latitude": 46.92922110000001, "longitude": 7.120184, "race": "Morat-Fribourg", "date": {"sam. 05.10.2013": {"year": 2013, "day": 5, "month": 10, "categories": {"17-W20": {"distance": 17, "rank": 316, "pace": 344000000000, "time": 6010.0}}, "weekday": "saturday", "livingplace": "Chene Bourg"}}, "location": "Murten"}, "Basler Stadtlauf": {"latitude": 47.5595986, "longitude": 7.5885761, "race": "Basler Stadtlauf", "date": {"sam. 30.11.2013": {"year": 2013, "day": 30, "month": 11, "categories": {"F20": {"distance": 6, "rank": 93, "pace": 279000000000, "time": 1536.3}}, "weekday": "saturday", "livingplace": "Chene Bourg"}, "sam. 24.11.2012": {"year": 2012, "day": 24, "month": 11, "categories": {"F20": {"distance": 6, "rank": 105, "pace": 287000000000, "time": 1581.3}}, "weekday": "saturday", "livingplace": "Chene Bourg"}}, "location": "Basel"}, "Schweizer Frauenlauf Bern": {"latitude": 46.9479739, "longitude": 7.4474468, "race": "Schweizer Frauenlauf Bern", "date": {"dim. 10.06.2012": {"year": 2012, "day": 10, "month": 6, "categories": {"10-W20": {"distance": 10, "rank": 182, "pace": 306000000000, "time": 3060.0}}, "weekday": "sunday", "livingplace": "Chene Bourg"}}, "location": "Bern"}, "Course de l'Escalade, Gen\u00e8ve": {"latitude": 46.2043907, "longitude": 6.1431577, "race": "Course de l'Escalade, Gen\u00e8ve", "date": {"sam. 01.12.2012": {"year": 2012, "day": 1, "month": 12, "categories": {"Duc-Fem1": {"distance": 18, "rank": 78, "pace": 348000000000, "time": 6106.3}}, "weekday": "saturday", "livingplace": "Chene Bourg"}}, "location": "Gen\u00e8ve"}, "20km de Lausanne": {"latitude": 46.5196535, "longitude": 6.6322734, "race": "20km de Lausanne", "date": {"sam. 27.04.2013": {"year": 2013, "day": 27, "month": 4, "categories": {"20-F20": {"distance": 20, "rank": 122, "pace": 329000000000, "time": 6595.0}}, "weekday": "saturday", "livingplace": "Chene Bourg"}}, "location": "Lausanne"}, "Les Traine-Savates, Cheseaux-sur-Lausanne": {"latitude": 46.585452, "longitude": 6.6047712, "race": "Les Traine-Savates, Cheseaux-sur-Lausanne", "date": {"sam. 18.04.2015": {"year": 2015, "day": 18, "month": 4, "categories": {"10-W20": {"distance": 10, "rank": 45, "pace": 296000000000, "time": 3056.0}}, "weekday": "saturday", "livingplace": "Chene Bourg"}}, "location": "Cheseaux-sur-Lausanne"}}, "birth": 1989}