{"name": "Ponthus St\u00e9phanie", "sex": "F", "races": {"Kerzerslauf": {"latitude": 46.97488999999999, "longitude": 7.1954365, "race": "Kerzerslauf", "date": {"sam. 17.03.2012": {"year": 2012, "day": 17, "month": 3, "categories": {"15-F35": {"distance": 15, "rank": 23, "pace": 269000000000, "time": 4042.5}}, "weekday": "saturday", "livingplace": "St Cergue"}}, "location": "Kerzers"}, "20km de Lausanne": {"latitude": 46.5196535, "longitude": 6.6322734, "race": "20km de Lausanne", "date": {"sam. 27.04.2013": {"year": 2013, "day": 27, "month": 4, "categories": {"20-F30": {"distance": 20, "rank": 19, "pace": 272000000000, "time": 5445.6}}, "weekday": "saturday", "livingplace": "St Cergue"}, "sam. 28.04.2012": {"year": 2012, "day": 28, "month": 4, "categories": {"10-F30": {"distance": 10, "rank": 4, "pace": 254000000000, "time": 2543.7}}, "weekday": "saturday", "livingplace": "BCV Concours"}, "sam. 25.04.2015": {"year": 2015, "day": 25, "month": 4, "categories": {"10-F40": {"distance": 10, "rank": 12, "pace": 277000000000, "time": 2777.9}}, "weekday": "saturday", "livingplace": "St Cergue"}}, "location": "Lausanne"}, "Morat-Fribourg": {"latitude": 46.92922110000001, "longitude": 7.120184, "race": "Morat-Fribourg", "date": {"sam. 04.10.2008": {"year": 2008, "day": 4, "month": 10, "categories": {"C-W20": {"distance": 17, "rank": 33, "pace": 285000000000, "time": 4901.0}}, "weekday": "saturday", "livingplace": "St Cergue"}, "sam. 03.10.2015": {"year": 2015, "day": 3, "month": 10, "categories": {"17-W40": {"distance": 17, "rank": 19, "pace": 289000000000, "time": 4973.4}}, "weekday": "saturday", "livingplace": "St Cergue"}}, "location": "Murten"}, "Basel City Marathon": {"latitude": 47.5595986, "longitude": 7.5885761, "race": "Basel City Marathon", "date": {"dim. 28.08.2005": {"year": 2005, "day": 28, "month": 8, "categories": {"F30": {"distance": 42, "rank": 7, "pace": 296000000000, "time": 12523.4}}, "weekday": "sunday", "livingplace": "St Julien en Genevois"}}, "location": "Basel"}, "Gurtenclassic, Wabern": {"latitude": 46.92901639999999, "longitude": 7.448973199999999, "race": "Gurtenclassic, Wabern", "date": {"dim. 02.11.2008": {"year": 2008, "day": 2, "month": 11, "categories": {"W33": {"distance": 15, "rank": 4, "pace": 296000000000, "time": 4442.1}}, "weekday": "sunday", "livingplace": "St Cergue"}, "dim. 01.11.2009": {"year": 2009, "day": 1, "month": 11, "categories": {"W33": {"distance": 15, "rank": 6, "pace": 298000000000, "time": 4483.6}}, "weekday": "sunday", "livingplace": "St Cergue"}}, "location": "Wabern"}, "Les Traine-Savates, Cheseaux-sur-Lausanne": {"latitude": 46.585452, "longitude": 6.6047712, "race": "Les Traine-Savates, Cheseaux-sur-Lausanne", "date": {"sam. 04.04.2009": {"year": 2009, "day": 4, "month": 4, "categories": {"DamSen": {"distance": 10, "rank": 10, "pace": 254000000000, "time": 2650.6}}, "weekday": "saturday", "livingplace": "St Cergue"}}, "location": "Cheseaux-sur-Lausanne"}, "Z\u00fcrich Marathon, Teamrun und Cityrun": {"latitude": 47.3768866, "longitude": 8.541694, "race": "Z\u00fcrich Marathon, Teamrun und Cityrun", "date": {"dim. 09.04.2006": {"year": 2006, "day": 9, "month": 4, "categories": {"W30": {"distance": 42, "rank": 120, "pace": 319000000000, "time": 13491.4}}, "weekday": "sunday", "livingplace": "Thonon les Bains"}}, "location": "Z\u00fcrich"}}, "birth": 1974}