{"name": "Porchet Thibaud", "sex": "M", "races": {"Groupe E Tour Fribourg #1 Gurmels": {"latitude": 46.81832, "longitude": 6.977279999999999, "race": "Groupe E Tour Fribourg #1 Gurmels", "date": {"mer. 29.08.2012": {"year": 2012, "day": 29, "month": 8, "categories": {"HE": {"distance": 8, "rank": 11, "pace": 289000000000, "time": 2435.1}}, "weekday": "wednesday", "livingplace": "Mezieres"}}, "location": "Cousset"}, "Lausanne Marathon": {"latitude": 46.5196535, "longitude": 6.6322734, "race": "Lausanne Marathon", "date": {"dim. 27.10.2013": {"year": 2013, "day": 27, "month": 10, "categories": {"21-H1": {"distance": 21, "rank": 53, "pace": 254000000000, "time": 5373.0}}, "weekday": "sunday", "livingplace": "Mezieres"}, "dim. 28.10.2012": {"year": 2012, "day": 28, "month": 10, "categories": {"21-H1": {"distance": 21, "rank": 124, "pace": 273000000000, "time": 5762.5}}, "weekday": "sunday", "livingplace": "Mezieres"}}, "location": "Lausanne"}, "Morat-Fribourg": {"latitude": 46.92922110000001, "longitude": 7.120184, "race": "Morat-Fribourg", "date": {"sam. 05.10.2013": {"year": 2013, "day": 5, "month": 10, "categories": {"17-M20": {"distance": 17, "rank": 1834, "pace": 334000000000, "time": 5829.4}}, "weekday": "saturday", "livingplace": "Mezieres"}, "sam. 01.10.2011": {"year": 2011, "day": 1, "month": 10, "categories": {"17-M20": {"distance": 17, "rank": 1082, "pace": 308000000000, "time": 5300.1}}, "weekday": "saturday", "livingplace": "Vuisternens en Ogoz"}, "sam. 06.10.2012": {"year": 2012, "day": 6, "month": 10, "categories": {"17-M20": {"distance": 17, "rank": 1369, "pace": 322000000000, "time": 5630.9}}, "weekday": "saturday", "livingplace": "Mezieres"}}, "location": "Murten"}, "Corrida Bulloise, Bulle": {"latitude": 46.6154512, "longitude": 7.057726799999999, "race": "Corrida Bulloise, Bulle", "date": {"sam. 21.11.2009": {"year": 2009, "day": 21, "month": 11, "categories": {"M20": {"distance": 8, "rank": 174, "pace": 291000000000, "time": 2379.5}}, "weekday": "saturday", "livingplace": "Mezieres Fr"}, "sam. 19.11.2011": {"year": 2011, "day": 19, "month": 11, "categories": {"M20": {"distance": 8, "rank": 130, "pace": 274000000000, "time": 2237.3}}, "weekday": "saturday", "livingplace": "Mezieres"}}, "location": "Bulle"}, "Groupe E Tour Fribourg #3 Estavayer-le-Lac": {"latitude": 46.97488999999999, "longitude": 7.1954365, "race": "Groupe E Tour Fribourg #3 Estavayer-le-Lac", "date": {"mer. 12.09.2012": {"year": 2012, "day": 12, "month": 9, "categories": {"HE": {"distance": 10, "rank": 17, "pace": 260000000000, "time": 2566.5}}, "weekday": "wednesday", "livingplace": "Mezieres"}}, "location": "Kerzers"}, "Sierre-Zinal, Sierre": {"latitude": 46.29413110000001, "longitude": 7.533536199999999, "race": "Sierre-Zinal, Sierre", "date": {"dim. 11.08.2013": {"year": 2013, "day": 11, "month": 8, "categories": {"Elites": {"distance": 31, "rank": 428, "pace": 584000000000, "time": 18126.3}}, "weekday": "sunday", "livingplace": "Mezieres"}}, "location": "Sierre"}, "20km de Lausanne": {"latitude": 46.5196535, "longitude": 6.6322734, "race": "20km de Lausanne", "date": {"sam. 30.04.2011": {"year": 2011, "day": 30, "month": 4, "categories": {"10-H20": {"distance": 10, "rank": 694, "pace": 385000000000, "time": 3856.5}}, "weekday": "saturday", "livingplace": "Mezieres"}}, "location": "Lausanne"}, "Groupe E Tour Fribourg #2 Plafayon": {"latitude": 46.6175845, "longitude": 7.1654493, "race": "Groupe E Tour Fribourg #2 Plafayon", "date": {"mer. 05.09.2012": {"year": 2012, "day": 5, "month": 9, "categories": {"HE": {"distance": 9, "rank": 9, "pace": 260000000000, "time": 2435.3}}, "weekday": "wednesday", "livingplace": "Mezieres"}}, "location": "Charmey (Gruy\u00e8re)"}}, "birth": 1984}