{"name": "Portillo Zeus", "sex": "M", "races": {"BCN Tour La Chaux-de-Fonds": {"latitude": 47.1034892, "longitude": 6.832783800000001, "race": "BCN Tour La Chaux-de-Fonds", "date": {"mer. 11.05.2011": {"year": 2011, "day": 11, "month": 5, "categories": {"KG4": {"distance": 4, "rank": 21, "pace": 203000000000, "time": 793.0}}, "weekday": "wednesday", "livingplace": "Boudevilliers"}}, "location": "La Chaux-de-Fonds"}, "BCN Tour La Br\u00e9vine": {"latitude": 46.999113, "longitude": 6.733554799999999, "race": "BCN Tour La Br\u00e9vine", "date": {"mer. 04.05.2011": {"year": 2011, "day": 4, "month": 5, "categories": {"KG4": {"distance": 4, "rank": 23, "pace": 270000000000, "time": 1029.5}}, "weekday": "wednesday", "livingplace": "Boudevilliers"}}, "location": "Les Ponts-de-Martel"}, "BCN Tour Fontaine Cernier": {"latitude": 47.0624261, "longitude": 6.9175754, "race": "BCN Tour Fontaine Cernier", "date": {"mer. 27.04.2011": {"year": 2011, "day": 27, "month": 4, "categories": {"KG4": {"distance": 3, "rank": 35, "pace": 344000000000, "time": 1032.5}}, "weekday": "wednesday", "livingplace": "Boudevilliers"}}, "location": "Ch\u00e9zard-St-Martin"}, "BCN Tour Neuch\u00e2tel": {"latitude": 46.9899874, "longitude": 6.9292732, "race": "BCN Tour Neuch\u00e2tel", "date": {"mer. 25.05.2011": {"year": 2011, "day": 25, "month": 5, "categories": {"KG4": {"distance": 4, "rank": 23, "pace": 250000000000, "time": 906.6}}, "weekday": "wednesday", "livingplace": "Boudevilliers"}}, "location": "Neuch\u00e2tel"}, "BCN Tour Les Ponts de Martel": {"latitude": 46.9262933, "longitude": 6.6324944, "race": "BCN Tour Les Ponts de Martel", "date": {"mer. 18.05.2011": {"year": 2011, "day": 18, "month": 5, "categories": {"KG4": {"distance": 4, "rank": 25, "pace": 262000000000, "time": 1023.8}}, "weekday": "wednesday", "livingplace": "Boudevilliers"}}, "location": "Couvet"}, "BCN Tour Le Landeron": {"latitude": 46.9668714, "longitude": 6.8589727, "race": "BCN Tour Le Landeron", "date": {"mer. 22.04.2009": {"year": 2009, "day": 22, "month": 4, "categories": {"KG3": {"distance": 4, "rank": 38, "pace": 307000000000, "time": 1228.5}}, "weekday": "wednesday", "livingplace": "Centre Pedagogique de Mal"}}, "location": "Colombier NE"}}, "birth": 1996}