{"name": "Pradervand Catherine", "sex": "F", "races": {"Groupe E Tour Fribourg #4, Siviriez": {"latitude": 46.6585092, "longitude": 6.877722, "race": "Groupe E Tour Fribourg #4, Siviriez", "date": {"mer. 10.09.2014": {"year": 2014, "day": 10, "month": 9, "categories": {"D-Dam3": {"distance": 11, "rank": 6, "pace": 384000000000, "time": 4153.4}}, "weekday": "wednesday", "livingplace": "Marnand"}}, "location": "Siviriez"}, "Morat-Fribourg": {"latitude": 46.92922110000001, "longitude": 7.120184, "race": "Morat-Fribourg", "date": {"sam. 03.10.2015": {"year": 2015, "day": 3, "month": 10, "categories": {"17-W45": {"distance": 17, "rank": 72, "pace": 338000000000, "time": 5818.6}}, "weekday": "saturday", "livingplace": "Marnand"}, "sam. 04.10.2014": {"year": 2014, "day": 4, "month": 10, "categories": {"17-W45": {"distance": 17, "rank": 95, "pace": 342000000000, "time": 5888.9}}, "weekday": "saturday", "livingplace": "Marnand"}}, "location": "Murten"}, "Groupe E Tour Fribourg #1, Cousset": {"latitude": 46.81832, "longitude": 6.977279999999999, "race": "Groupe E Tour Fribourg #1, Cousset", "date": {"mer. 20.08.2014": {"year": 2014, "day": 20, "month": 8, "categories": {"D-Dam3": {"distance": 9, "rank": 16, "pace": 337000000000, "time": 3171.6}}, "weekday": "wednesday", "livingplace": "Marnand"}}, "location": "Cousset"}, "Groupe E Tour Fribourg #2, Charmey": {"latitude": 46.6175845, "longitude": 7.1654493, "race": "Groupe E Tour Fribourg #2, Charmey", "date": {"mer. 27.08.2014": {"year": 2014, "day": 27, "month": 8, "categories": {"D-Dam3": {"distance": 10, "rank": 6, "pace": 367000000000, "time": 3549.6}}, "weekday": "wednesday", "livingplace": "Marnand"}}, "location": "Charmey (Gruy\u00e8re)"}, "10km, Payerne": {"latitude": 46.8220266, "longitude": 6.9405663, "race": "10km, Payerne", "date": {"sam. 10.03.2012": {"year": 2012, "day": 10, "month": 3, "categories": {"W40": {"distance": 10, "rank": 30, "pace": 316000000000, "time": 3169.4}}, "weekday": "saturday", "livingplace": "Payerne"}}, "location": "Payerne"}, "Groupe E Tour Fribourg #3, Kerzers": {"latitude": 46.97488999999999, "longitude": 7.1954365, "race": "Groupe E Tour Fribourg #3, Kerzers", "date": {"mer. 03.09.2014": {"year": 2014, "day": 3, "month": 9, "categories": {"D-Dam3": {"distance": 10, "rank": 11, "pace": 329000000000, "time": 3348.0}}, "weekday": "wednesday", "livingplace": "Marnand"}}, "location": "Kerzers"}, "Groupe E Tour Fribourg #5, Givisiez": {"latitude": 46.8128615, "longitude": 7.131657799999999, "race": "Groupe E Tour Fribourg #5, Givisiez", "date": {"mer. 17.09.2014": {"year": 2014, "day": 17, "month": 9, "categories": {"D-Dam3": {"distance": 10, "rank": 15, "pace": 335000000000, "time": 3446.9}}, "weekday": "wednesday", "livingplace": "Marnand"}}, "location": "Givisiez"}, "10km de Payerne": {"latitude": 46.8220266, "longitude": 6.9405663, "race": "10km de Payerne", "date": {"sam. 27.03.2010": {"year": 2010, "day": 27, "month": 3, "categories": {"W40": {"distance": 10, "rank": 19, "pace": 341000000000, "time": 3418.0}}, "weekday": "saturday", "livingplace": "Payerne"}}, "location": "Payerne"}}, "birth": 1967}