{"name": "Produit-Monnet Carole", "sex": "F", "races": {"Tour du Chablais #1 Roche": {"latitude": 46.2957462, "longitude": 6.9916269, "race": "Tour du Chablais #1 Roche", "date": {"mer. 03.04.2013": {"year": 2013, "day": 3, "month": 4, "categories": {"F-F20": {"distance": 9, "rank": 11, "pace": 264000000000, "time": 2342.8}}, "weekday": "wednesday", "livingplace": "Leytron"}}, "location": "Ollon VD"}, "Tour du Chablais #6 Monthey": {"latitude": 46.3190253, "longitude": 6.970566, "race": "Tour du Chablais #6 Monthey", "date": {"mer. 08.05.2013": {"year": 2013, "day": 8, "month": 5, "categories": {"F-F20": {"distance": 9, "rank": 9, "pace": 260000000000, "time": 2429.6}}, "weekday": "wednesday", "livingplace": "Leytron"}}, "location": "Aigle"}, "Morat-Fribourg": {"latitude": 46.92922110000001, "longitude": 7.120184, "race": "Morat-Fribourg", "date": {"sam. 05.10.2013": {"year": 2013, "day": 5, "month": 10, "categories": {"17-W20": {"distance": 17, "rank": 129, "pace": 310000000000, "time": 5413.0}}, "weekday": "saturday", "livingplace": "Leytron"}, "sam. 06.10.2012": {"year": 2012, "day": 6, "month": 10, "categories": {"17-W20": {"distance": 17, "rank": 71, "pace": 298000000000, "time": 5202.9}}, "weekday": "saturday", "livingplace": "Leytron"}}, "location": "Murten"}, "Kerzerslauf": {"latitude": 46.97488999999999, "longitude": 7.1954365, "race": "Kerzerslauf", "date": {"sam. 15.03.2014": {"year": 2014, "day": 15, "month": 3, "categories": {"15-F20": {"distance": 15, "rank": 110, "pace": 300000000000, "time": 4506.6}}, "weekday": "saturday", "livingplace": "Leytron"}}, "location": "Kerzers"}, "Corrida Bulloise, Bulle": {"latitude": 46.6154512, "longitude": 7.057726799999999, "race": "Corrida Bulloise, Bulle", "date": {"sam. 17.11.2012": {"year": 2012, "day": 17, "month": 11, "categories": {"F20": {"distance": 6, "rank": 35, "pace": 269000000000, "time": 1659.4}}, "weekday": "saturday", "livingplace": "Leytron"}}, "location": "Bulle"}, "20km de Lausanne": {"latitude": 46.5196535, "longitude": 6.6322734, "race": "20km de Lausanne", "date": {"sam. 25.04.2015": {"year": 2015, "day": 25, "month": 4, "categories": {"10-F30": {"distance": 10, "rank": 26, "pace": 280000000000, "time": 2805.3}}, "weekday": "saturday", "livingplace": "SwissMove 2015"}, "sam. 27.04.2013": {"year": 2013, "day": 27, "month": 4, "categories": {"10-F30": {"distance": 10, "rank": 10, "pace": 260000000000, "time": 2605.2}}, "weekday": "saturday", "livingplace": "Perraudin sport la Tzouma"}, "sam. 28.04.2012": {"year": 2012, "day": 28, "month": 4, "categories": {"10-F30": {"distance": 10, "rank": 22, "pace": 285000000000, "time": 2857.0}}, "weekday": "saturday", "livingplace": "Leytron"}, "sam. 26.04.2014": {"year": 2014, "day": 26, "month": 4, "categories": {"10-F30": {"distance": 10, "rank": 9, "pace": 274000000000, "time": 2746.1}}, "weekday": "saturday", "livingplace": "Team Perraudin Sports Tzo"}}, "location": "Lausanne"}, "Tour du Chablais #2 Yvorne": {"latitude": 46.3835529, "longitude": 6.854975199999999, "race": "Tour du Chablais #2 Yvorne", "date": {"mer. 10.04.2013": {"year": 2013, "day": 10, "month": 4, "categories": {"F-F20": {"distance": 8, "rank": 13, "pace": 287000000000, "time": 2299.0}}, "weekday": "wednesday", "livingplace": "Leytron"}}, "location": "Bouveret"}, "Tour du Chablais #5 Morgins": {"latitude": 46.3603257, "longitude": 6.931504599999999, "race": "Tour du Chablais #5 Morgins", "date": {"mer. 01.05.2013": {"year": 2013, "day": 1, "month": 5, "categories": {"F-F20": {"distance": 8, "rank": 10, "pace": 277000000000, "time": 2106.3}}, "weekday": "wednesday", "livingplace": "Leytron"}}, "location": "Roche VD"}, "Tour du Chablais #1 Martigny": {"latitude": 46.2957462, "longitude": 6.9916269, "race": "Tour du Chablais #1 Martigny", "date": {"mer. 23.04.2014": {"year": 2014, "day": 23, "month": 4, "categories": {"F-F20": {"distance": 9, "rank": 18, "pace": 269000000000, "time": 2288.4}}, "weekday": "wednesday", "livingplace": "Leytron"}}, "location": "Ollon VD"}, "Tour du Chablais #1 Montreux": {"latitude": 46.2957462, "longitude": 6.9916269, "race": "Tour du Chablais #1 Montreux", "date": {"mer. 11.04.2012": {"year": 2012, "day": 11, "month": 4, "categories": {"F-F20": {"distance": 8, "rank": 13, "pace": 281000000000, "time": 2141.7}}, "weekday": "wednesday", "livingplace": "Leytron"}}, "location": "Ollon VD"}, "Tour du Chablais #3 Collombey-Muraz": {"latitude": 46.1782231, "longitude": 7.0223787, "race": "Tour du Chablais #3 Collombey-Muraz", "date": {"mer. 25.04.2012": {"year": 2012, "day": 25, "month": 4, "categories": {"F-F20": {"distance": 9, "rank": 9, "pace": 269000000000, "time": 2417.8}}, "weekday": "wednesday", "livingplace": "Leytron"}}, "location": "Evionnaz"}, "Tour du Chablais #4 St  Maurice": {"latitude": NaN, "longitude": NaN, "race": "Tour du Chablais #4 St  Maurice", "date": {"mer. 24.04.2013": {"year": 2013, "day": 24, "month": 4, "categories": {"F-F20": {"distance": 10, "rank": 8, "pace": 266000000000, "time": 2663.2}}, "weekday": "wednesday", "livingplace": "Leytron"}}, "location": "Les Mosses"}, "Tour du Chablais #2 Bex": {"latitude": 46.3835529, "longitude": 6.854975199999999, "race": "Tour du Chablais #2 Bex", "date": {"mer. 18.04.2012": {"year": 2012, "day": 18, "month": 4, "categories": {"F-F20": {"distance": 8, "rank": 14, "pace": 276000000000, "time": 2210.6}}, "weekday": "wednesday", "livingplace": "Leytron"}}, "location": "Bouveret"}, "Tour du Chablais #3 Bouveret": {"latitude": 46.1782231, "longitude": 7.0223787, "race": "Tour du Chablais #3 Bouveret", "date": {"mer. 17.04.2013": {"year": 2013, "day": 17, "month": 4, "categories": {"F-F20": {"distance": 10, "rank": 12, "pace": 265000000000, "time": 2659.2}}, "weekday": "wednesday", "livingplace": "Leytron"}}, "location": "Evionnaz"}}, "birth": 1981}