{"name": "Purro Julien", "sex": "M", "races": {"Lausanne Marathon": {"latitude": 46.5196535, "longitude": 6.6322734, "race": "Lausanne Marathon", "date": {"dim. 30.10.2011": {"year": 2011, "day": 30, "month": 10, "categories": {"21-H1": {"distance": 21, "rank": 114, "pace": 271000000000, "time": 5721.7}}, "weekday": "sunday", "livingplace": "Bottens"}}, "location": "Lausanne"}, "Tour du Pays de Vaud #3 - Mezi\u00e8res": {"latitude": 46.7784736, "longitude": 6.641183, "race": "Tour du Pays de Vaud #3 - Mezi\u00e8res", "date": {"mer. 22.08.2012": {"year": 2012, "day": 22, "month": 8, "categories": {"H-Hom": {"distance": 8, "rank": 52, "pace": 303000000000, "time": 2547.1}}, "weekday": "wednesday", "livingplace": "Bottens"}}, "location": "Yverdon-les-Bains"}, "Tour du pays de Vaud #1 - Penthaz": {"latitude": 46.5993131, "longitude": 6.539251200000001, "race": "Tour du pays de Vaud #1 - Penthaz", "date": {"mer. 08.08.2012": {"year": 2012, "day": 8, "month": 8, "categories": {"H-Hom": {"distance": 9, "rank": 41, "pace": 274000000000, "time": 2339.5}}, "weekday": "wednesday", "livingplace": "Bottens"}}, "location": "Penthaz"}, "Tour du Pays de Vaud #2 - Genolier": {"latitude": 46.5955273, "longitude": 6.7702883, "race": "Tour du Pays de Vaud #2 - Genolier", "date": {"mer. 15.08.2012": {"year": 2012, "day": 15, "month": 8, "categories": {"H-Hom": {"distance": 9, "rank": 56, "pace": 277000000000, "time": 2357.6}}, "weekday": "wednesday", "livingplace": "Bottens"}}, "location": "M\u00e9zi\u00e8res VD"}, "Course de l'Escalade, Gen\u00e8ve": {"latitude": 46.2043907, "longitude": 6.1431577, "race": "Course de l'Escalade, Gen\u00e8ve", "date": {"sam. 06.12.2003": {"year": 2003, "day": 6, "month": 12, "categories": {"HJun": {"distance": 7, "rank": 19, "pace": 220000000000, "time": 1600.6}}, "weekday": "saturday", "livingplace": "La Chaux De Fonds"}}, "location": "Gen\u00e8ve"}}, "birth": 1985}