{"name": "Putallaz Anne-Val\u00e9rie", "sex": "F", "races": {"Tour du Chablais #1 Martigny": {"latitude": 46.2957462, "longitude": 6.9916269, "race": "Tour du Chablais #1 Martigny", "date": {"mer. 23.04.2014": {"year": 2014, "day": 23, "month": 4, "categories": {"F-F20": {"distance": 9, "rank": 8, "pace": 257000000000, "time": 2186.1}}, "weekday": "wednesday", "livingplace": "Sion"}}, "location": "Ollon VD"}, "Morat-Fribourg": {"latitude": 46.92922110000001, "longitude": 7.120184, "race": "Morat-Fribourg", "date": {"sam. 06.10.2012": {"year": 2012, "day": 6, "month": 10, "categories": {"17-W20": {"distance": 17, "rank": 147, "pace": 320000000000, "time": 5587.5}}, "weekday": "saturday", "livingplace": "Sion"}}, "location": "Murten"}, "Z\u00fcrcher Silvesterlauf, Z\u00fcrich": {"latitude": 47.3768866, "longitude": 8.541694, "race": "Z\u00fcrcher Silvesterlauf, Z\u00fcrich", "date": {"dim. 16.12.2007": {"year": 2007, "day": 16, "month": 12, "categories": {"DaHK-8": {"distance": 9, "rank": 79, "pace": 286000000000, "time": 2466.8}}, "weekday": "sunday", "livingplace": "Sion"}}, "location": "Z\u00fcrich"}, "Corrida Bulloise, Bulle": {"latitude": 46.6154512, "longitude": 7.057726799999999, "race": "Corrida Bulloise, Bulle", "date": {"sam. 16.11.2013": {"year": 2013, "day": 16, "month": 11, "categories": {"F20": {"distance": 6, "rank": 28, "pace": 256000000000, "time": 1575.9}}, "weekday": "saturday", "livingplace": "Sion"}}, "location": "Bulle"}, "Schweizer Frauenlauf Bern": {"latitude": 46.9479739, "longitude": 7.4474468, "race": "Schweizer Frauenlauf Bern", "date": {"dim. 10.06.2012": {"year": 2012, "day": 10, "month": 6, "categories": {"10-W20": {"distance": 10, "rank": 97, "pace": 290000000000, "time": 2907.8}}, "weekday": "sunday", "livingplace": "Sion"}, "dim. 14.06.2009": {"year": 2009, "day": 14, "month": 6, "categories": {"5-W20": {"distance": 5, "rank": 80, "pace": 294000000000, "time": 1472.5}}, "weekday": "sunday", "livingplace": "Sion"}}, "location": "Bern"}}, "birth": 1987}