{"name": "Quaglia Mich\u00e8le", "sex": "F", "races": {"Tour du Chablais #1 Roche": {"latitude": 46.2957462, "longitude": 6.9916269, "race": "Tour du Chablais #1 Roche", "date": {"mer. 07.04.2010": {"year": 2010, "day": 7, "month": 4, "categories": {"F-F20": {"distance": 9, "rank": 129, "pace": 386000000000, "time": 3459.4}}, "weekday": "wednesday", "livingplace": "Bouveret"}}, "location": "Ollon VD"}, "Tour du Chablais #2 Rennaz": {"latitude": 46.3835529, "longitude": 6.854975199999999, "race": "Tour du Chablais #2 Rennaz", "date": {"mer. 04.05.2011": {"year": 2011, "day": 4, "month": 5, "categories": {"F-F20": {"distance": 9, "rank": 137, "pace": 421000000000, "time": 3940.8}}, "weekday": "wednesday", "livingplace": "Bouveret"}}, "location": "Bouveret"}, "Tour du Chablais #3 Bex": {"latitude": 46.1782231, "longitude": 7.0223787, "race": "Tour du Chablais #3 Bex", "date": {"mer. 21.04.2010": {"year": 2010, "day": 21, "month": 4, "categories": {"F-F20": {"distance": 10, "rank": 120, "pace": 388000000000, "time": 3885.0}}, "weekday": "wednesday", "livingplace": "Bouveret"}}, "location": "Evionnaz"}, "Tour du Chablais #3 Le Bouveret": {"latitude": 46.1782231, "longitude": 7.0223787, "race": "Tour du Chablais #3 Le Bouveret", "date": {"mer. 11.05.2011": {"year": 2011, "day": 11, "month": 5, "categories": {"F-F20": {"distance": 10, "rank": 143, "pace": 421000000000, "time": 4219.2}}, "weekday": "wednesday", "livingplace": "Bouveret"}}, "location": "Evionnaz"}, "Tour du Chablais #4 Morgins": {"latitude": NaN, "longitude": NaN, "race": "Tour du Chablais #4 Morgins", "date": {"mer. 18.05.2011": {"year": 2011, "day": 18, "month": 5, "categories": {"F-F20": {"distance": 8, "rank": 121, "pace": 448000000000, "time": 3742.0}}, "weekday": "wednesday", "livingplace": "Bouveret"}}, "location": "Les Mosses"}, "Tour du Chablais #1 Lavey": {"latitude": 46.2957462, "longitude": 6.9916269, "race": "Tour du Chablais #1 Lavey", "date": {"mer. 27.04.2011": {"year": 2011, "day": 27, "month": 4, "categories": {"F-F20": {"distance": 9, "rank": 124, "pace": 411000000000, "time": 3702.1}}, "weekday": "wednesday", "livingplace": "Bouveret"}}, "location": "Ollon VD"}, "Tour du Chablais #4 Champ\u00e9ry": {"latitude": NaN, "longitude": NaN, "race": "Tour du Chablais #4 Champ\u00e9ry", "date": {"mer. 02.05.2012": {"year": 2012, "day": 2, "month": 5, "categories": {"F-F20": {"distance": 8, "rank": 114, "pace": 376000000000, "time": 3121.1}}, "weekday": "wednesday", "livingplace": "Bouveret"}}, "location": "Les Mosses"}, "Tour du Chablais #2 St-Gingolph": {"latitude": 46.3835529, "longitude": 6.854975199999999, "race": "Tour du Chablais #2 St-Gingolph", "date": {"mer. 14.04.2010": {"year": 2010, "day": 14, "month": 4, "categories": {"F-F20": {"distance": 8, "rank": 101, "pace": 409000000000, "time": 3415.9}}, "weekday": "wednesday", "livingplace": "Bouveret"}}, "location": "Bouveret"}, "Tour du Chablais #6 Mouthey": {"latitude": 46.3190253, "longitude": 6.970566, "race": "Tour du Chablais #6 Mouthey", "date": {"mer. 12.05.2010": {"year": 2010, "day": 12, "month": 5, "categories": {"F-F20": {"distance": 9, "rank": 111, "pace": 371000000000, "time": 3416.5}}, "weekday": "wednesday", "livingplace": "Bouveret"}}, "location": "Aigle"}, "Tour du Chablais #1 Montreux": {"latitude": 46.2957462, "longitude": 6.9916269, "race": "Tour du Chablais #1 Montreux", "date": {"mer. 11.04.2012": {"year": 2012, "day": 11, "month": 4, "categories": {"F-F20": {"distance": 8, "rank": 136, "pace": 389000000000, "time": 2961.7}}, "weekday": "wednesday", "livingplace": "Bouveret"}}, "location": "Ollon VD"}, "Tour du Chablais #5 Les Mosses": {"latitude": 46.3603257, "longitude": 6.931504599999999, "race": "Tour du Chablais #5 Les Mosses", "date": {"mer. 25.05.2011": {"year": 2011, "day": 25, "month": 5, "categories": {"F-F20": {"distance": 8, "rank": 119, "pace": 446000000000, "time": 3571.9}}, "weekday": "wednesday", "livingplace": "Bouveret"}}, "location": "Roche VD"}, "Tour du Chablais #6 Aigle": {"latitude": 46.3190253, "longitude": 6.970566, "race": "Tour du Chablais #6 Aigle", "date": {"mer. 01.06.2011": {"year": 2011, "day": 1, "month": 6, "categories": {"F-F20": {"distance": 10, "rank": 149, "pace": 424000000000, "time": 4329.6}}, "weekday": "wednesday", "livingplace": "Bouveret"}}, "location": "Aigle"}, "Tour du Chablais #4 Yvorne": {"latitude": NaN, "longitude": NaN, "race": "Tour du Chablais #4 Yvorne", "date": {"mer. 28.04.2010": {"year": 2010, "day": 28, "month": 4, "categories": {"F-F20": {"distance": 8, "rank": 98, "pace": 396000000000, "time": 3280.7}}, "weekday": "wednesday", "livingplace": "Bouveret"}}, "location": "Les Mosses"}, "Tour du Chablais #2 Bex": {"latitude": 46.3835529, "longitude": 6.854975199999999, "race": "Tour du Chablais #2 Bex", "date": {"mer. 18.04.2012": {"year": 2012, "day": 18, "month": 4, "categories": {"F-F20": {"distance": 8, "rank": 130, "pace": 381000000000, "time": 3055.8}}, "weekday": "wednesday", "livingplace": "Bouveret"}}, "location": "Bouveret"}, "Tour du Chablais #3 Collombey-Muraz": {"latitude": 46.1782231, "longitude": 7.0223787, "race": "Tour du Chablais #3 Collombey-Muraz", "date": {"mer. 25.04.2012": {"year": 2012, "day": 25, "month": 4, "categories": {"F-F20": {"distance": 9, "rank": 109, "pace": 360000000000, "time": 3236.8}}, "weekday": "wednesday", "livingplace": "Bouveret"}}, "location": "Evionnaz"}}, "birth": 1975}