{"name": "Racault Jean-Paul", "sex": "M", "races": {"Tour du Pays de Vaud etape 5 - La Sarraz": {"latitude": 46.5993131, "longitude": 6.539251200000001, "race": "Tour du Pays de Vaud etape 5 - La Sarraz", "date": {"mer. 09.09.2009": {"year": 2009, "day": 9, "month": 9, "categories": {"HS2": {"distance": 9, "rank": 107, "pace": 309000000000, "time": 2603.3}}, "weekday": "wednesday", "livingplace": "Oye et Pallet"}, "mer. 10.09.2008": {"year": 2008, "day": 10, "month": 9, "categories": {"HomSen2": {"distance": 9, "rank": 80, "pace": 279000000000, "time": 2400.4}}, "weekday": "wednesday", "livingplace": "Oye et Pallet"}}, "location": "Penthaz"}, "Tour du Pays de Vaud #4, La Sarraz": {"latitude": 46.7088129, "longitude": 6.5707689, "race": "Tour du Pays de Vaud #4, La Sarraz", "date": {"mer. 03.09.2014": {"year": 2014, "day": 3, "month": 9, "categories": {"H-Sen3": {"distance": 9, "rank": 29, "pace": 285000000000, "time": 2425.6}}, "weekday": "wednesday", "livingplace": "Oye et Pallet"}}, "location": "Chavornay"}, "Tour du pays de Vaud #1 - Penthaz": {"latitude": 46.5993131, "longitude": 6.539251200000001, "race": "Tour du pays de Vaud #1 - Penthaz", "date": {"mer. 14.08.2013": {"year": 2013, "day": 14, "month": 8, "categories": {"H-Sen3": {"distance": 9, "rank": 46, "pace": 307000000000, "time": 2623.6}}, "weekday": "wednesday", "livingplace": "Oye et Pallet"}}, "location": "Penthaz"}, "Tour du Pays de Vaud #2 - Mezi\u00e8res": {"latitude": 46.5955273, "longitude": 6.7702883, "race": "Tour du Pays de Vaud #2 - Mezi\u00e8res", "date": {"mer. 21.08.2013": {"year": 2013, "day": 21, "month": 8, "categories": {"H-Sen3": {"distance": 8, "rank": 58, "pace": 334000000000, "time": 2712.4}}, "weekday": "wednesday", "livingplace": "Oye et Pallet"}}, "location": "M\u00e9zi\u00e8res VD"}, "Tour du Pays de Vaud etape 2 - Genolier": {"latitude": 46.5955273, "longitude": 6.7702883, "race": "Tour du Pays de Vaud etape 2 - Genolier", "date": {"mer. 19.08.2009": {"year": 2009, "day": 19, "month": 8, "categories": {"HSen2": {"distance": 8, "rank": 116, "pace": 325000000000, "time": 2640.4}}, "weekday": "wednesday", "livingplace": "Oye et Pallet"}}, "location": "M\u00e9zi\u00e8res VD"}, "Tour du Pays de Vaud etape 3 - Aubonne": {"latitude": 46.7829756, "longitude": 6.5728678, "race": "Tour du Pays de Vaud etape 3 - Aubonne", "date": {"mer. 27.08.2008": {"year": 2008, "day": 27, "month": 8, "categories": {"HomSen2": {"distance": 8, "rank": 82, "pace": 308000000000, "time": 2404.1}}, "weekday": "wednesday", "livingplace": "Oye et Pallet"}}, "location": "Champvent"}, "Lausanne Marathon": {"latitude": 46.5196535, "longitude": 6.6322734, "race": "Lausanne Marathon", "date": {"dim. 26.10.2014": {"year": 2014, "day": 26, "month": 10, "categories": {"21-H50": {"distance": 21, "rank": 179, "pace": 305000000000, "time": 6456.0}}, "weekday": "sunday", "livingplace": "Oye et Pallet"}}, "location": "Lausanne"}, "20km de Lausanne": {"latitude": 46.5196535, "longitude": 6.6322734, "race": "20km de Lausanne", "date": {"sam. 24.04.2004": {"year": 2004, "day": 24, "month": 4, "categories": {"13": {"distance": 20, "rank": 249, "pace": 295000000000, "time": 5904.8}}, "weekday": "saturday", "livingplace": "Houtaud"}, "sam. 23.04.2005": {"year": 2005, "day": 23, "month": 4, "categories": {"13": {"distance": 20, "rank": 285, "pace": 290000000000, "time": 5808.2}}, "weekday": "saturday", "livingplace": "Saint Antoine"}, "sam. 26.04.2003": {"year": 2003, "day": 26, "month": 4, "categories": {"13": {"distance": 20, "rank": 72, "pace": 258000000000, "time": 5164.9}}, "weekday": "saturday", "livingplace": "Saint Antoine"}}, "location": "Lausanne"}, "Tour du Pays de Vaud #3 - Chavornay": {"latitude": 46.7784736, "longitude": 6.641183, "race": "Tour du Pays de Vaud #3 - Chavornay", "date": {"mer. 28.08.2013": {"year": 2013, "day": 28, "month": 8, "categories": {"H-Sen3": {"distance": 9, "rank": 64, "pace": 312000000000, "time": 2776.9}}, "weekday": "wednesday", "livingplace": "Oye et Pallet"}}, "location": "Yverdon-les-Bains"}, "BCN Tour Boudry": {"latitude": 46.9668714, "longitude": 6.8589727, "race": "BCN Tour Boudry", "date": {"mer. 26.04.2006": {"year": 2006, "day": 26, "month": 4, "categories": {"HS2": {"distance": 10, "rank": 68, "pace": 285000000000, "time": 2910.5}}, "weekday": "wednesday", "livingplace": "St Antoine"}}, "location": "Colombier NE"}, "Tour du Pays de Vaud #4 - La Sarraz": {"latitude": 46.7088129, "longitude": 6.5707689, "race": "Tour du Pays de Vaud #4 - La Sarraz", "date": {"mer. 04.09.2013": {"year": 2013, "day": 4, "month": 9, "categories": {"H-Sen3": {"distance": 9, "rank": 55, "pace": 320000000000, "time": 2722.5}}, "weekday": "wednesday", "livingplace": "Oye et Pallet"}}, "location": "Chavornay"}}, "birth": 1960}