{"name": "Racine Micha\u00ebl", "sex": "M", "races": {"BCN Tour Couvet": {"latitude": 47.0624261, "longitude": 6.9175754, "race": "BCN Tour Couvet", "date": {"mer. 02.05.2012": {"year": 2012, "day": 2, "month": 5, "categories": {"KG3": {"distance": 4, "rank": 36, "pace": 303000000000, "time": 1121.9}}, "weekday": "wednesday", "livingplace": "Geneve"}}, "location": "Ch\u00e9zard-St-Martin"}, "BCN Tour M\u00f4tier": {"latitude": 46.9262933, "longitude": 6.6324944, "race": "BCN Tour M\u00f4tier", "date": {"mer. 19.05.2010": {"year": 2010, "day": 19, "month": 5, "categories": {"KG2": {"distance": 2, "rank": 63, "pace": 287000000000, "time": 516.6}}, "weekday": "wednesday", "livingplace": "Geneve"}}, "location": "Couvet"}, "BCN Tour Les Ponts-de-Martel": {"latitude": 46.999113, "longitude": 6.733554799999999, "race": "BCN Tour Les Ponts-de-Martel", "date": {"mer. 09.05.2012": {"year": 2012, "day": 9, "month": 5, "categories": {"KG3": {"distance": 4, "rank": 44, "pace": 319000000000, "time": 1212.7}}, "weekday": "wednesday", "livingplace": "Geneve"}}, "location": "Les Ponts-de-Martel"}, "BCN Tour Fontaine Cernier": {"latitude": 47.0624261, "longitude": 6.9175754, "race": "BCN Tour Fontaine Cernier", "date": {"mer. 27.04.2011": {"year": 2011, "day": 27, "month": 4, "categories": {"KG2": {"distance": 2, "rank": 49, "pace": 323000000000, "time": 550.4}}, "weekday": "wednesday", "livingplace": "Geneve"}}, "location": "Ch\u00e9zard-St-Martin"}, "BCN Tour Le Landeron": {"latitude": 46.9668714, "longitude": 6.8589727, "race": "BCN Tour Le Landeron", "date": {"mer. 22.04.2009": {"year": 2009, "day": 22, "month": 4, "categories": {"KG1": {"distance": 2, "rank": 60, "pace": 329000000000, "time": 659.0}}, "weekday": "wednesday", "livingplace": "Geneve"}}, "location": "Colombier NE"}, "BCN Tour Le Locle": {"latitude": 46.999113, "longitude": 6.733554799999999, "race": "BCN Tour Le Locle", "date": {"mer. 05.05.2010": {"year": 2010, "day": 5, "month": 5, "categories": {"KG2": {"distance": 2, "rank": 62, "pace": 315000000000, "time": 567.4}}, "weekday": "wednesday", "livingplace": "Geneve"}}, "location": "Les Ponts-de-Martel"}, "BCN Tour Neuch\u00e2tel": {"latitude": 46.9899874, "longitude": 6.9292732, "race": "BCN Tour Neuch\u00e2tel", "date": {"mer. 26.05.2010": {"year": 2010, "day": 26, "month": 5, "categories": {"KG2": {"distance": 2, "rank": 73, "pace": 259000000000, "time": 389.3}}, "weekday": "wednesday", "livingplace": "Geneve"}, "mer. 30.05.2012": {"year": 2012, "day": 30, "month": 5, "categories": {"KG3": {"distance": 3, "rank": 44, "pace": 291000000000, "time": 904.2}}, "weekday": "wednesday", "livingplace": "Geneve"}}, "location": "Neuch\u00e2tel"}, "BCN Tour Auvernier": {"latitude": 46.9668714, "longitude": 6.8589727, "race": "BCN Tour Auvernier", "date": {"mer. 20.04.2011": {"year": 2011, "day": 20, "month": 4, "categories": {"KG2": {"distance": 1, "rank": 40, "pace": 252000000000, "time": 341.2}}, "weekday": "wednesday", "livingplace": "Geneve"}}, "location": "Colombier NE"}, "BCN Tour #4 Fleurier": {"latitude": 47.1034892, "longitude": 6.832783800000001, "race": "BCN Tour #4 Fleurier", "date": {"mer. 15.05.2013": {"year": 2013, "day": 15, "month": 5, "categories": {"KG3": {"distance": 3, "rank": 20, "pace": 250000000000, "time": 627.2}}, "weekday": "wednesday", "livingplace": "Geneve"}}, "location": "La Chaux-de-Fonds"}, "BCN Tour Cornaux": {"latitude": 46.9668714, "longitude": 6.8589727, "race": "BCN Tour Cornaux", "date": {"mer. 25.04.2012": {"year": 2012, "day": 25, "month": 4, "categories": {"KG3": {"distance": 3, "rank": 34, "pace": 278000000000, "time": 779.8}}, "weekday": "wednesday", "livingplace": "Geneve"}}, "location": "Colombier NE"}, "BCN Tour #1 Corcelles": {"latitude": 46.9668714, "longitude": 6.8589727, "race": "BCN Tour #1 Corcelles", "date": {"mer. 24.04.2013": {"year": 2013, "day": 24, "month": 4, "categories": {"KG3": {"distance": 3, "rank": 21, "pace": 312000000000, "time": 874.6}}, "weekday": "wednesday", "livingplace": "Geneve"}}, "location": "Colombier NE"}, "BCN Tour La Chaux-de-Fonds": {"latitude": 47.1034892, "longitude": 6.832783800000001, "race": "BCN Tour La Chaux-de-Fonds", "date": {"mer. 23.05.2012": {"year": 2012, "day": 23, "month": 5, "categories": {"KG3": {"distance": 4, "rank": 38, "pace": 307000000000, "time": 1106.0}}, "weekday": "wednesday", "livingplace": "Geneve"}, "mer. 11.05.2011": {"year": 2011, "day": 11, "month": 5, "categories": {"KG2": {"distance": 1, "rank": 36, "pace": 453000000000, "time": 440.2}}, "weekday": "wednesday", "livingplace": "Geneve"}}, "location": "La Chaux-de-Fonds"}, "BCN Tour #6 Neuch\u00e2tel": {"latitude": 46.9899874, "longitude": 6.9292732, "race": "BCN Tour #6 Neuch\u00e2tel", "date": {"mer. 29.05.2013": {"year": 2013, "day": 29, "month": 5, "categories": {"KG3": {"distance": 2, "rank": 22, "pace": 226000000000, "time": 498.1}}, "weekday": "wednesday", "livingplace": "Geneve"}}, "location": "Neuch\u00e2tel"}, "BCN Tour La Br\u00e9vine": {"latitude": 46.999113, "longitude": 6.733554799999999, "race": "BCN Tour La Br\u00e9vine", "date": {"mer. 04.05.2011": {"year": 2011, "day": 4, "month": 5, "categories": {"KG2": {"distance": 2, "rank": 34, "pace": 274000000000, "time": 521.7}}, "weekday": "wednesday", "livingplace": "Geneve"}}, "location": "Les Ponts-de-Martel"}, "BCN Tour Ponts-de-Martel": {"latitude": 47.0624261, "longitude": 6.9175754, "race": "BCN Tour Ponts-de-Martel", "date": {"mer. 28.04.2010": {"year": 2010, "day": 28, "month": 4, "categories": {"KG2": {"distance": 2, "rank": 93, "pace": 277000000000, "time": 611.0}}, "weekday": "wednesday", "livingplace": "Geneve"}}, "location": "Ch\u00e9zard-St-Martin"}, "BCN Tour Les Ponts de Martel": {"latitude": 46.9262933, "longitude": 6.6324944, "race": "BCN Tour Les Ponts de Martel", "date": {"mer. 18.05.2011": {"year": 2011, "day": 18, "month": 5, "categories": {"KG2": {"distance": 2, "rank": 42, "pace": 255000000000, "time": 503.7}}, "weekday": "wednesday", "livingplace": "Geneve"}}, "location": "Couvet"}, "BCN Tour #5 Colombier": {"latitude": 46.9262933, "longitude": 6.6324944, "race": "BCN Tour #5 Colombier", "date": {"mer. 22.05.2013": {"year": 2013, "day": 22, "month": 5, "categories": {"KG3": {"distance": 2, "rank": 30, "pace": 258000000000, "time": 595.5}}, "weekday": "wednesday", "livingplace": "Geneve"}}, "location": "Couvet"}, "BCN Tour #2 La Chaux-de-Fonds": {"latitude": 47.0624261, "longitude": 6.9175754, "race": "BCN Tour #2 La Chaux-de-Fonds", "date": {"mer. 01.05.2013": {"year": 2013, "day": 1, "month": 5, "categories": {"KG3": {"distance": 2, "rank": 32, "pace": 251000000000, "time": 603.6}}, "weekday": "wednesday", "livingplace": "Geneve"}}, "location": "Ch\u00e9zard-St-Martin"}, "BCN Tour La Chaux-de-fonds": {"latitude": 47.1034892, "longitude": 6.832783800000001, "race": "BCN Tour La Chaux-de-fonds", "date": {"mer. 12.05.2010": {"year": 2010, "day": 12, "month": 5, "categories": {"KG2": {"distance": 1, "rank": 71, "pace": 868000000000, "time": 842.3}}, "weekday": "wednesday", "livingplace": "Geneve"}}, "location": "La Chaux-de-Fonds"}, "BCN Tour Colombier": {"latitude": 46.9668714, "longitude": 6.8589727, "race": "BCN Tour Colombier", "date": {"mer. 16.05.2012": {"year": 2012, "day": 16, "month": 5, "categories": {"KG3": {"distance": 3, "rank": 42, "pace": 299000000000, "time": 898.7}}, "weekday": "wednesday", "livingplace": "Geneve"}, "mer. 23.04.2008": {"year": 2008, "day": 23, "month": 4, "categories": {"KG1": {"distance": 2, "rank": 64, "pace": 476000000000, "time": 952.6}}, "weekday": "wednesday", "livingplace": "Geneve"}, "mer. 21.04.2010": {"year": 2010, "day": 21, "month": 4, "categories": {"KG2": {"distance": 2, "rank": 60, "pace": 328000000000, "time": 657.8}}, "weekday": "wednesday", "livingplace": "Geneve"}}, "location": "Colombier NE"}, "BCN Tour #3 Dombresson": {"latitude": 46.999113, "longitude": 6.733554799999999, "race": "BCN Tour #3 Dombresson", "date": {"mer. 08.05.2013": {"year": 2013, "day": 8, "month": 5, "categories": {"KG3": {"distance": 3, "rank": 24, "pace": 276000000000, "time": 691.1}}, "weekday": "wednesday", "livingplace": "Geneve"}}, "location": "Les Ponts-de-Martel"}}, "birth": 2000}