{"name": "Ramuz Laurentia", "sex": "F", "races": {"Tour du Chablais #2 Rennaz": {"latitude": 46.3835529, "longitude": 6.854975199999999, "race": "Tour du Chablais #2 Rennaz", "date": {"mer. 04.05.2011": {"year": 2011, "day": 4, "month": 5, "categories": {"F-F50": {"distance": 9, "rank": 5, "pace": 290000000000, "time": 2714.0}}, "weekday": "wednesday", "livingplace": "Leytron"}}, "location": "Bouveret"}, "Tour du Chablais #5 Les Mosses": {"latitude": 46.3603257, "longitude": 6.931504599999999, "race": "Tour du Chablais #5 Les Mosses", "date": {"mer. 25.05.2011": {"year": 2011, "day": 25, "month": 5, "categories": {"F-F50": {"distance": 8, "rank": 3, "pace": 313000000000, "time": 2507.9}}, "weekday": "wednesday", "livingplace": "Leytron"}}, "location": "Roche VD"}, "Tour du Chablais #3 Le Bouveret": {"latitude": 46.1782231, "longitude": 7.0223787, "race": "Tour du Chablais #3 Le Bouveret", "date": {"mer. 11.05.2011": {"year": 2011, "day": 11, "month": 5, "categories": {"F-F50": {"distance": 10, "rank": 4, "pace": 292000000000, "time": 2923.4}}, "weekday": "wednesday", "livingplace": "Leytron"}}, "location": "Evionnaz"}, "Tour du Chablais #4 Morgins": {"latitude": NaN, "longitude": NaN, "race": "Tour du Chablais #4 Morgins", "date": {"mer. 18.05.2011": {"year": 2011, "day": 18, "month": 5, "categories": {"F-F50": {"distance": 8, "rank": 5, "pace": 315000000000, "time": 2636.4}}, "weekday": "wednesday", "livingplace": "Leytron"}}, "location": "Les Mosses"}, "Tour du Chablais #6 Aigle": {"latitude": 46.3190253, "longitude": 6.970566, "race": "Tour du Chablais #6 Aigle", "date": {"mer. 01.06.2011": {"year": 2011, "day": 1, "month": 6, "categories": {"F-F50": {"distance": 10, "rank": 4, "pace": 281000000000, "time": 2871.0}}, "weekday": "wednesday", "livingplace": "Leytron"}}, "location": "Aigle"}, "Tour du Chablais #1 Lavey": {"latitude": 46.2957462, "longitude": 6.9916269, "race": "Tour du Chablais #1 Lavey", "date": {"mer. 27.04.2011": {"year": 2011, "day": 27, "month": 4, "categories": {"F-F50": {"distance": 9, "rank": 7, "pace": 305000000000, "time": 2745.6}}, "weekday": "wednesday", "livingplace": "Leytron"}}, "location": "Ollon VD"}}, "birth": 1957}