{"name": "Ramuz Christian", "sex": "M", "races": {"Tour du Chablais #5 Bex": {"latitude": 46.3603257, "longitude": 6.931504599999999, "race": "Tour du Chablais #5 Bex", "date": {"mer. 09.05.2012": {"year": 2012, "day": 9, "month": 5, "categories": {"M-M40": {"distance": 9, "rank": 78, "pace": 280000000000, "time": 2486.7}}, "weekday": "wednesday", "livingplace": "Corcelles le Jorat"}}, "location": "Roche VD"}, "Tour du pays de Vaud #6 - St  Prex": {"latitude": 46.4829113, "longitude": 6.458343500000001, "race": "Tour du pays de Vaud #6 - St  Prex", "date": {"mer. 14.09.2011": {"year": 2011, "day": 14, "month": 9, "categories": {"H-Sen2": {"distance": 9, "rank": 136, "pace": 301000000000, "time": 2590.8}}, "weekday": "wednesday", "livingplace": "Corcelles le Jorat"}}, "location": "St-Prex"}, "Tour du pays de Vaud #1 - Mezi\u00e8res": {"latitude": 46.7784736, "longitude": 6.641183, "race": "Tour du pays de Vaud #1 - Mezi\u00e8res", "date": {"mer. 10.08.2011": {"year": 2011, "day": 10, "month": 8, "categories": {"H-Sen2": {"distance": 9, "rank": 121, "pace": 296000000000, "time": 2521.6}}, "weekday": "wednesday", "livingplace": "Corcelles le Jorat"}}, "location": "Yverdon-les-Bains"}, "Tour du Pays de Vaud #3 - Mezi\u00e8res": {"latitude": 46.7784736, "longitude": 6.641183, "race": "Tour du Pays de Vaud #3 - Mezi\u00e8res", "date": {"mer. 22.08.2012": {"year": 2012, "day": 22, "month": 8, "categories": {"H-Sen2": {"distance": 8, "rank": 111, "pace": 332000000000, "time": 2789.4}}, "weekday": "wednesday", "livingplace": "Corcelles le Jorat"}}, "location": "Yverdon-les-Bains"}, "20km de Lausanne": {"latitude": 46.5196535, "longitude": 6.6322734, "race": "20km de Lausanne", "date": {"sam. 30.04.2011": {"year": 2011, "day": 30, "month": 4, "categories": {"20-H40": {"distance": 20, "rank": 277, "pace": 308000000000, "time": 6163.4}}, "weekday": "saturday", "livingplace": "Corcelles le Jorat"}}, "location": "Lausanne"}, "D\u00e9fi du vignoble, Cully": {"latitude": 45.565921, "longitude": -122.6066627, "race": "D\u00e9fi du vignoble, Cully", "date": {"mer. 14.05.2014": {"year": 2014, "day": 14, "month": 5, "categories": {"M40": {"distance": 4, "rank": 42, "pace": 668000000000, "time": 2432.2}}, "weekday": "wednesday", "livingplace": "Corcelles le Jorat"}}, "location": "Cully"}, "Morat-Fribourg": {"latitude": 46.92922110000001, "longitude": 7.120184, "race": "Morat-Fribourg", "date": {"sam. 04.10.2014": {"year": 2014, "day": 4, "month": 10, "categories": {"17-M40": {"distance": 17, "rank": 619, "pace": 351000000000, "time": 6042.9}}, "weekday": "saturday", "livingplace": "Corcelles le Jorat"}}, "location": "Murten"}, "Tour du Pays de Vaud #2 - Genolier": {"latitude": 46.5955273, "longitude": 6.7702883, "race": "Tour du Pays de Vaud #2 - Genolier", "date": {"mer. 17.08.2011": {"year": 2011, "day": 17, "month": 8, "categories": {"H-Sen2": {"distance": 9, "rank": 105, "pace": 308000000000, "time": 2625.9}}, "weekday": "wednesday", "livingplace": "Corcelles le Jorat"}}, "location": "M\u00e9zi\u00e8res VD"}, "Lausanne Marathon": {"latitude": 46.5196535, "longitude": 6.6322734, "race": "Lausanne Marathon", "date": {"dim. 31.10.2010": {"year": 2010, "day": 31, "month": 10, "categories": {"10-H3": {"distance": 10, "rank": 145, "pace": 273000000000, "time": 2733.7}}, "weekday": "sunday", "livingplace": "Corcelles le Jorat"}, "dim. 30.10.2011": {"year": 2011, "day": 30, "month": 10, "categories": {"10-H3": {"distance": 10, "rank": 208, "pace": 288000000000, "time": 2882.9}}, "weekday": "sunday", "livingplace": "Corcelles le Jorat"}, "dim. 26.10.2014": {"year": 2014, "day": 26, "month": 10, "categories": {"10-H40": {"distance": 10, "rank": 302, "pace": 301000000000, "time": 3011.8}}, "weekday": "sunday", "livingplace": "Corcelles le Jorat"}}, "location": "Lausanne"}, "Tour du Chablais #4 Champ\u00e9ry": {"latitude": NaN, "longitude": NaN, "race": "Tour du Chablais #4 Champ\u00e9ry", "date": {"mer. 02.05.2012": {"year": 2012, "day": 2, "month": 5, "categories": {"M-M40": {"distance": 8, "rank": 91, "pace": 289000000000, "time": 2406.1}}, "weekday": "wednesday", "livingplace": "Corcelles le Jorat"}}, "location": "Les Mosses"}, "Tour du Chablais #1 Montreux": {"latitude": 46.2957462, "longitude": 6.9916269, "race": "Tour du Chablais #1 Montreux", "date": {"mer. 11.04.2012": {"year": 2012, "day": 11, "month": 4, "categories": {"M-M40": {"distance": 8, "rank": 121, "pace": 309000000000, "time": 2348.8}}, "weekday": "wednesday", "livingplace": "Corcelles le Jorat"}}, "location": "Ollon VD"}, "Tour du Chablais #3 Collombey-Muraz": {"latitude": 46.1782231, "longitude": 7.0223787, "race": "Tour du Chablais #3 Collombey-Muraz", "date": {"mer. 25.04.2012": {"year": 2012, "day": 25, "month": 4, "categories": {"M-M40": {"distance": 9, "rank": 91, "pace": 285000000000, "time": 2562.7}}, "weekday": "wednesday", "livingplace": "Corcelles le Jorat"}}, "location": "Evionnaz"}, "Tour du Pays de Vaud printanier #1 Moudon": {"latitude": 46.3832683, "longitude": 6.2347852, "race": "Tour du Pays de Vaud printanier #1 Moudon", "date": {"mer. 29.05.2013": {"year": 2013, "day": 29, "month": 5, "categories": {"H-Sen2": {"distance": 8, "rank": 57, "pace": 328000000000, "time": 2806.1}}, "weekday": "wednesday", "livingplace": "Corcelles le Jorat"}}, "location": "Nyon"}, "Tour du pays de Vaud #5 - Penthaz": {"latitude": 46.5993131, "longitude": 6.539251200000001, "race": "Tour du pays de Vaud #5 - Penthaz", "date": {"mer. 07.09.2011": {"year": 2011, "day": 7, "month": 9, "categories": {"H-Sen2": {"distance": 8, "rank": 88, "pace": 318000000000, "time": 2655.8}}, "weekday": "wednesday", "livingplace": "Corcelles le Jorat"}}, "location": "Penthaz"}, "Tour du Pays de Vaud printanier #3 - Yens": {"latitude": 46.7829756, "longitude": 6.5728678, "race": "Tour du Pays de Vaud printanier #3 - Yens", "date": {"mer. 18.06.2014": {"year": 2014, "day": 18, "month": 6, "categories": {"H-Sen2": {"distance": 9, "rank": 64, "pace": 328000000000, "time": 2988.6}}, "weekday": "wednesday", "livingplace": "Corcelles le Jorat"}}, "location": "Champvent"}, "Tour du Chablais #2 Bex": {"latitude": 46.3835529, "longitude": 6.854975199999999, "race": "Tour du Chablais #2 Bex", "date": {"mer. 18.04.2012": {"year": 2012, "day": 18, "month": 4, "categories": {"M-M40": {"distance": 8, "rank": 96, "pace": 288000000000, "time": 2308.3}}, "weekday": "wednesday", "livingplace": "Corcelles le Jorat"}}, "location": "Bouveret"}, "Tour du Chablais #6 Montreux": {"latitude": 46.3190253, "longitude": 6.970566, "race": "Tour du Chablais #6 Montreux", "date": {"mer. 16.05.2012": {"year": 2012, "day": 16, "month": 5, "categories": {"M-M40": {"distance": 9, "rank": 120, "pace": 290000000000, "time": 2683.1}}, "weekday": "wednesday", "livingplace": "Corcelles le Jorat"}}, "location": "Aigle"}}, "birth": 1970}