{"name": "Raso Ilario", "sex": "M", "races": {"Z\u00fcrcher Silvesterlauf, Z\u00fcrich": {"latitude": 47.3768866, "longitude": 8.541694, "race": "Z\u00fcrcher Silvesterlauf, Z\u00fcrich", "date": {"dim. 15.12.2013": {"year": 2013, "day": 15, "month": 12, "categories": {"10-M30": {"distance": 10, "rank": 222, "pace": 250000000000, "time": 2509.8}}, "weekday": "sunday", "livingplace": "Fleurier"}}, "location": "Z\u00fcrich"}, "Thuner Stadtlauf, Thun": {"latitude": 46.7579868, "longitude": 7.6279881, "race": "Thuner Stadtlauf, Thun", "date": {"dim. 26.08.2007": {"year": 2007, "day": 26, "month": 8, "categories": {"10/M30": {"distance": 10, "rank": 51, "pace": 253000000000, "time": 2530.9}}, "weekday": "sunday", "livingplace": "Fleurier"}}, "location": "Thun"}, "Morat-Fribourg": {"latitude": 46.92922110000001, "longitude": 7.120184, "race": "Morat-Fribourg", "date": {"sam. 04.10.2008": {"year": 2008, "day": 4, "month": 10, "categories": {"C-M20": {"distance": 17, "rank": 184, "pace": 252000000000, "time": 4328.8}}, "weekday": "saturday", "livingplace": "Fleurier"}, "sam. 06.10.2007": {"year": 2007, "day": 6, "month": 10, "categories": {"C/M20": {"distance": 17, "rank": 331, "pace": 265000000000, "time": 4563.1}}, "weekday": "saturday", "livingplace": "Fleurier"}}, "location": "Murten"}, "Corrida Bulloise, Bulle": {"latitude": 46.6154512, "longitude": 7.057726799999999, "race": "Corrida Bulloise, Bulle", "date": {"sam. 15.11.2008": {"year": 2008, "day": 15, "month": 11, "categories": {"M20": {"distance": 8, "rank": 82, "pace": 239000000000, "time": 1917.1}}, "weekday": "saturday", "livingplace": "Fleurier"}}, "location": "Bulle"}, "D\u00e9fi Val-de-Travers, Couvet": {"latitude": 46.9262933, "longitude": 6.6324944, "race": "D\u00e9fi Val-de-Travers, Couvet", "date": {"sam. 21.06.2008": {"year": 2008, "day": 21, "month": 6, "categories": {"EHS1": {"distance": 12, "rank": 4, "pace": 306000000000, "time": 3744.5}}, "weekday": "saturday", "livingplace": "Fleurier"}, "sam. 20.06.2009": {"year": 2009, "day": 20, "month": 6, "categories": {"EHS1": {"distance": 12, "rank": 5, "pace": 287000000000, "time": 3510.1}}, "weekday": "saturday", "livingplace": "Fleurier"}}, "location": "Couvet"}, "BCN Tour Le Landeron": {"latitude": 46.9668714, "longitude": 6.8589727, "race": "BCN Tour Le Landeron", "date": {"mer. 22.04.2009": {"year": 2009, "day": 22, "month": 4, "categories": {"HS1": {"distance": 11, "rank": 42, "pace": 256000000000, "time": 2852.3}}, "weekday": "wednesday", "livingplace": "Fleurier"}}, "location": "Colombier NE"}, "Les Traine-Savates, Cheseaux-sur-Lausanne": {"latitude": 46.585452, "longitude": 6.6047712, "race": "Les Traine-Savates, Cheseaux-sur-Lausanne", "date": {"sam. 04.04.2009": {"year": 2009, "day": 4, "month": 4, "categories": {"Hom Sen": {"distance": 10, "rank": 47, "pace": 242000000000, "time": 2522.9}}, "weekday": "saturday", "livingplace": "Fleurier"}}, "location": "Cheseaux-sur-Lausanne"}, "Kerzerslauf": {"latitude": 46.97488999999999, "longitude": 7.1954365, "race": "Kerzerslauf", "date": {"sam. 21.03.2009": {"year": 2009, "day": 21, "month": 3, "categories": {"15-M20": {"distance": 15, "rank": 157, "pace": 247000000000, "time": 3715.3}}, "weekday": "saturday", "livingplace": "Fleurier"}, "sam. 15.03.2008": {"year": 2008, "day": 15, "month": 3, "categories": {"15/M20": {"distance": 15, "rank": 214, "pace": 261000000000, "time": 3921.9}}, "weekday": "saturday", "livingplace": "Fleurier"}}, "location": "Kerzers"}, "BCN Tour Colombier": {"latitude": 46.9668714, "longitude": 6.8589727, "race": "BCN Tour Colombier", "date": {"mer. 23.04.2008": {"year": 2008, "day": 23, "month": 4, "categories": {"HS1": {"distance": 10, "rank": 38, "pace": 263000000000, "time": 2686.2}}, "weekday": "wednesday", "livingplace": "Fleurier"}}, "location": "Colombier NE"}}, "birth": 1975}