{"name": "Rattez Brice", "sex": "M", "races": {"Zermatt Marathon, Zermatt": {"latitude": NaN, "longitude": NaN, "race": "Zermatt Marathon, Zermatt", "date": {"sam. 09.07.2011": {"year": 2011, "day": 9, "month": 7, "categories": {"M-M20": {"distance": 42, "rank": 26, "pace": 458000000000, "time": 19340.3}}, "weekday": "saturday", "livingplace": "Pully"}}, "location": "Zermatt"}, "Tour du pays de Vaud #6 - St  Prex": {"latitude": 46.4829113, "longitude": 6.458343500000001, "race": "Tour du pays de Vaud #6 - St  Prex", "date": {"mer. 14.09.2011": {"year": 2011, "day": 14, "month": 9, "categories": {"H-Hom": {"distance": 9, "rank": 26, "pace": 255000000000, "time": 2201.0}}, "weekday": "wednesday", "livingplace": "Lausanne"}}, "location": "St-Prex"}, "Lausanne Marathon": {"latitude": 46.5196535, "longitude": 6.6322734, "race": "Lausanne Marathon", "date": {"dim. 27.10.2013": {"year": 2013, "day": 27, "month": 10, "categories": {"21-H2": {"distance": 21, "rank": 355, "pace": 295000000000, "time": 6243.7}}, "weekday": "sunday", "livingplace": "Pully"}}, "location": "Lausanne"}, "Sierre-Zinal, Sierre": {"latitude": 46.29413110000001, "longitude": 7.533536199999999, "race": "Sierre-Zinal, Sierre", "date": {"dim. 10.08.2014": {"year": 2014, "day": 10, "month": 8, "categories": {"ElitesHo": {"distance": 31, "rank": 524, "pace": 580000000000, "time": 18002.5}}, "weekday": "sunday", "livingplace": "Pully"}}, "location": "Sierre"}, "20km de Lausanne": {"latitude": 46.5196535, "longitude": 6.6322734, "race": "20km de Lausanne", "date": {"sam. 30.04.2011": {"year": 2011, "day": 30, "month": 4, "categories": {"20-H20": {"distance": 20, "rank": 74, "pace": 255000000000, "time": 5114.5}}, "weekday": "saturday", "livingplace": "Pully"}, "sam. 26.04.2014": {"year": 2014, "day": 26, "month": 4, "categories": {"20-H30": {"distance": 20, "rank": 141, "pace": 262000000000, "time": 5252.1}}, "weekday": "saturday", "livingplace": "Pully"}}, "location": "Lausanne"}, "Morat-Fribourg": {"latitude": 46.92922110000001, "longitude": 7.120184, "race": "Morat-Fribourg", "date": {"sam. 03.10.2015": {"year": 2015, "day": 3, "month": 10, "categories": {"17-M20": {"distance": 17, "rank": 514, "pace": 277000000000, "time": 4764.2}}, "weekday": "saturday", "livingplace": "Gland"}}, "location": "Murten"}, "Course de l'Escalade, Gen\u00e8ve": {"latitude": 46.2043907, "longitude": 6.1431577, "race": "Course de l'Escalade, Gen\u00e8ve", "date": {"sam. 05.12.2015": {"year": 2015, "day": 5, "month": 12, "categories": {"Esc-Hom2": {"distance": 7, "rank": 306, "pace": 249000000000, "time": 1825.1}}, "weekday": "saturday", "livingplace": "Pully"}, "sam. 06.12.2014": {"year": 2014, "day": 6, "month": 12, "categories": {"Esc-Hom2": {"distance": 7, "rank": 242, "pace": 256000000000, "time": 1879.7}}, "weekday": "saturday", "livingplace": "Pully"}}, "location": "Gen\u00e8ve"}}, "birth": 1982}