{"name": "Rattaz Pascal", "sex": "M", "races": {"Tour du pays de Vaud #6 - St  Prex": {"latitude": 46.4829113, "longitude": 6.458343500000001, "race": "Tour du pays de Vaud #6 - St  Prex", "date": {"mer. 14.09.2011": {"year": 2011, "day": 14, "month": 9, "categories": {"H-Sen2": {"distance": 9, "rank": 214, "pace": 383000000000, "time": 3296.8}}, "weekday": "wednesday", "livingplace": "Poliez le Grand"}}, "location": "St-Prex"}, "Tour du Pays de Vaud printanier #1 Chavornay": {"latitude": 46.3832683, "longitude": 6.2347852, "race": "Tour du Pays de Vaud printanier #1 Chavornay", "date": {"mer. 30.05.2012": {"year": 2012, "day": 30, "month": 5, "categories": {"H-Sen2": {"distance": 9, "rank": 66, "pace": 378000000000, "time": 3387.8}}, "weekday": "wednesday", "livingplace": "Poliez le Grand"}}, "location": "Nyon"}, "Tour du pays de Vaud #1 - Mezi\u00e8res": {"latitude": 46.7784736, "longitude": 6.641183, "race": "Tour du pays de Vaud #1 - Mezi\u00e8res", "date": {"mer. 10.08.2011": {"year": 2011, "day": 10, "month": 8, "categories": {"H-Sen2": {"distance": 9, "rank": 192, "pace": 394000000000, "time": 3351.9}}, "weekday": "wednesday", "livingplace": "Poliez le Grand"}}, "location": "Yverdon-les-Bains"}, "Tour du Pays de Vaud #3 - Mezi\u00e8res": {"latitude": 46.7784736, "longitude": 6.641183, "race": "Tour du Pays de Vaud #3 - Mezi\u00e8res", "date": {"mer. 22.08.2012": {"year": 2012, "day": 22, "month": 8, "categories": {"H-Sen2": {"distance": 8, "rank": 183, "pace": 432000000000, "time": 3635.1}}, "weekday": "wednesday", "livingplace": "Poliez le Grand"}}, "location": "Yverdon-les-Bains"}, "Tour du pays de Vaud #1 - Penthaz": {"latitude": 46.5993131, "longitude": 6.539251200000001, "race": "Tour du pays de Vaud #1 - Penthaz", "date": {"mer. 08.08.2012": {"year": 2012, "day": 8, "month": 8, "categories": {"H-Sen2": {"distance": 9, "rank": 162, "pace": 377000000000, "time": 3222.7}}, "weekday": "wednesday", "livingplace": "Poliez le Grand"}}, "location": "Penthaz"}, "Tour du Pays de Vaud #4, La Sarraz": {"latitude": 46.7088129, "longitude": 6.5707689, "race": "Tour du Pays de Vaud #4, La Sarraz", "date": {"mer. 03.09.2014": {"year": 2014, "day": 3, "month": 9, "categories": {"H-Sen2": {"distance": 9, "rank": 144, "pace": 378000000000, "time": 3215.9}}, "weekday": "wednesday", "livingplace": "Poliez le Grand"}}, "location": "Chavornay"}, "Tour du Pays de Vaud #3, Chavornay": {"latitude": 46.7784736, "longitude": 6.641183, "race": "Tour du Pays de Vaud #3, Chavornay", "date": {"mer. 27.08.2014": {"year": 2014, "day": 27, "month": 8, "categories": {"H-Sen2": {"distance": 9, "rank": 145, "pace": 404000000000, "time": 3482.2}}, "weekday": "wednesday", "livingplace": "Poliez le Grand"}}, "location": "Yverdon-les-Bains"}, "Tour du Pays de Vaud #2 - Genolier": {"latitude": 46.5955273, "longitude": 6.7702883, "race": "Tour du Pays de Vaud #2 - Genolier", "date": {"mer. 15.08.2012": {"year": 2012, "day": 15, "month": 8, "categories": {"H-Sen2": {"distance": 9, "rank": 161, "pace": 384000000000, "time": 3269.7}}, "weekday": "wednesday", "livingplace": "Poliez le Grand"}, "mer. 17.08.2011": {"year": 2011, "day": 17, "month": 8, "categories": {"H-Sen2": {"distance": 9, "rank": 170, "pace": 411000000000, "time": 3495.7}}, "weekday": "wednesday", "livingplace": "Poliez le Grand"}}, "location": "M\u00e9zi\u00e8res VD"}, "Tour du Pays de Vaud #1, Penthaz": {"latitude": 46.5993131, "longitude": 6.539251200000001, "race": "Tour du Pays de Vaud #1, Penthaz", "date": {"mer. 13.08.2014": {"year": 2014, "day": 13, "month": 8, "categories": {"H-Sen2": {"distance": 9, "rank": 109, "pace": 365000000000, "time": 3120.2}}, "weekday": "wednesday", "livingplace": "Poliez le Grand"}}, "location": "Penthaz"}, "Tour du Pays de Vaud #2, Mezi\u00e8res": {"latitude": 46.5955273, "longitude": 6.7702883, "race": "Tour du Pays de Vaud #2, Mezi\u00e8res", "date": {"mer. 20.08.2014": {"year": 2014, "day": 20, "month": 8, "categories": {"H-Sen2": {"distance": 8, "rank": 123, "pace": 437000000000, "time": 3546.6}}, "weekday": "wednesday", "livingplace": "Poliez le Grand"}}, "location": "M\u00e9zi\u00e8res VD"}, "Les Traine-Savates, Cheseaux-sur-Lausanne": {"latitude": 46.585452, "longitude": 6.6047712, "race": "Les Traine-Savates, Cheseaux-sur-Lausanne", "date": {"sam. 09.04.2011": {"year": 2011, "day": 9, "month": 4, "categories": {"10-M40": {"distance": 10, "rank": 258, "pace": 395000000000, "time": 4108.0}}, "weekday": "saturday", "livingplace": "Poliez le Grand"}, "sam. 14.04.2012": {"year": 2012, "day": 14, "month": 4, "categories": {"10-M40": {"distance": 10, "rank": 187, "pace": 356000000000, "time": 3710.8}}, "weekday": "saturday", "livingplace": "Poliez le Grand"}, "sam. 12.04.2014": {"year": 2014, "day": 12, "month": 4, "categories": {"10-M40": {"distance": 10, "rank": 207, "pace": 354000000000, "time": 3654.6}}, "weekday": "saturday", "livingplace": "Poliez le Grand"}}, "location": "Cheseaux-sur-Lausanne"}, "Lausanne Marathon": {"latitude": 46.5196535, "longitude": 6.6322734, "race": "Lausanne Marathon", "date": {"dim. 31.10.2010": {"year": 2010, "day": 31, "month": 10, "categories": {"10-H3": {"distance": 10, "rank": 502, "pace": 379000000000, "time": 3793.0}}, "weekday": "sunday", "livingplace": "Poliez le Grand"}, "dim. 30.10.2011": {"year": 2011, "day": 30, "month": 10, "categories": {"10-H3": {"distance": 10, "rank": 483, "pace": 378000000000, "time": 3781.2}}, "weekday": "sunday", "livingplace": "Poliez le Grand"}, "dim. 27.10.2013": {"year": 2013, "day": 27, "month": 10, "categories": {"10-H3": {"distance": 10, "rank": 451, "pace": 354000000000, "time": 3543.1}}, "weekday": "sunday", "livingplace": "Poliez le Grand"}, "dim. 28.10.2012": {"year": 2012, "day": 28, "month": 10, "categories": {"10-H3": {"distance": 10, "rank": 446, "pace": 356000000000, "time": 3564.4}}, "weekday": "sunday", "livingplace": "Poliez le Grand"}}, "location": "Lausanne"}, "Tour du Pays de Vaud #4 - La Sarraz": {"latitude": 46.7088129, "longitude": 6.5707689, "race": "Tour du Pays de Vaud #4 - La Sarraz", "date": {"mer. 29.08.2012": {"year": 2012, "day": 29, "month": 8, "categories": {"H-Sen2": {"distance": 9, "rank": 169, "pace": 368000000000, "time": 3134.5}}, "weekday": "wednesday", "livingplace": "Poliez le Grand"}}, "location": "Chavornay"}, "20km de Lausanne": {"latitude": 46.5196535, "longitude": 6.6322734, "race": "20km de Lausanne", "date": {"sam. 30.04.2011": {"year": 2011, "day": 30, "month": 4, "categories": {"10-H45": {"distance": 10, "rank": 403, "pace": 385000000000, "time": 3855.9}}, "weekday": "saturday", "livingplace": "Poliez le Grand"}, "sam. 28.04.2012": {"year": 2012, "day": 28, "month": 4, "categories": {"10-H45": {"distance": 10, "rank": 329, "pace": 358000000000, "time": 3584.4}}, "weekday": "saturday", "livingplace": "Poliez le Grand"}, "sam. 26.04.2014": {"year": 2014, "day": 26, "month": 4, "categories": {"10-H45": {"distance": 10, "rank": 390, "pace": 354000000000, "time": 3540.1}}, "weekday": "saturday", "livingplace": "Poliez le Grand"}}, "location": "Lausanne"}, "Tour du Pays de Vaud printanier #2 Yens": {"latitude": 46.6698891, "longitude": 6.7975224, "race": "Tour du Pays de Vaud printanier #2 Yens", "date": {"mer. 06.06.2012": {"year": 2012, "day": 6, "month": 6, "categories": {"H-Sen2": {"distance": 9, "rank": 68, "pace": 369000000000, "time": 3365.1}}, "weekday": "wednesday", "livingplace": "Poliez le Grand"}}, "location": "Moudon"}}, "birth": 1966}