{"name": "Rauber Katja", "sex": "F", "races": {"Groupe E Tour Fribourg #4, Siviriez": {"latitude": 46.6585092, "longitude": 6.877722, "race": "Groupe E Tour Fribourg #4, Siviriez", "date": {"mer. 10.09.2014": {"year": 2014, "day": 10, "month": 9, "categories": {"Cad-F": {"distance": 2, "rank": 2, "pace": 239000000000, "time": 455.8}}, "weekday": "wednesday", "livingplace": "Im Fang"}}, "location": "Siviriez"}, "Groupe E Tour Fribourg #3, Kerzers": {"latitude": 46.97488999999999, "longitude": 7.1954365, "race": "Groupe E Tour Fribourg #3, Kerzers", "date": {"mer. 03.09.2014": {"year": 2014, "day": 3, "month": 9, "categories": {"Cad-F": {"distance": 2, "rank": 2, "pace": 264000000000, "time": 581.1}}, "weekday": "wednesday", "livingplace": "Im Fang"}}, "location": "Kerzers"}, "Groupe E Tour Fribourg #5, Givisiez": {"latitude": 46.8128615, "longitude": 7.131657799999999, "race": "Groupe E Tour Fribourg #5, Givisiez", "date": {"mer. 17.09.2014": {"year": 2014, "day": 17, "month": 9, "categories": {"Cad-F": {"distance": 3, "rank": 2, "pace": 227000000000, "time": 568.9}}, "weekday": "wednesday", "livingplace": "Im Fang"}}, "location": "Givisiez"}, "Groupe E Tour Fribourg #1, Cousset": {"latitude": 46.81832, "longitude": 6.977279999999999, "race": "Groupe E Tour Fribourg #1, Cousset", "date": {"mer. 20.08.2014": {"year": 2014, "day": 20, "month": 8, "categories": {"Cad-F": {"distance": 2, "rank": 1, "pace": 227000000000, "time": 524.2}}, "weekday": "wednesday", "livingplace": "Im Fang"}}, "location": "Cousset"}, "Groupe E Tour Fribourg #2, Charmey": {"latitude": 46.6175845, "longitude": 7.1654493, "race": "Groupe E Tour Fribourg #2, Charmey", "date": {"mer. 27.08.2014": {"year": 2014, "day": 27, "month": 8, "categories": {"Cad-F": {"distance": 2, "rank": 1, "pace": 235000000000, "time": 495.1}}, "weekday": "wednesday", "livingplace": "Im Fang"}}, "location": "Charmey (Gruy\u00e8re)"}}, "birth": 1999}