{"name": "Ravera Marco", "sex": "M", "races": {"Grand Prix Craft, Neuch\u00e2tel": {"latitude": 46.9899874, "longitude": 6.9292732, "race": "Grand Prix Craft, Neuch\u00e2tel", "date": {"dim. 17.12.2006": {"year": 2006, "day": 17, "month": 12, "categories": {"HE": {"distance": 7, "rank": 46, "pace": 261000000000, "time": 1831.8}}, "weekday": "sunday", "livingplace": "Bevaix"}}, "location": "Neuch\u00e2tel"}, "BCN Tour La Chaux-de-Fonds": {"latitude": 47.1034892, "longitude": 6.832783800000001, "race": "BCN Tour La Chaux-de-Fonds", "date": {"mer. 11.05.2011": {"year": 2011, "day": 11, "month": 5, "categories": {"HS1": {"distance": 11, "rank": 128, "pace": 337000000000, "time": 3614.8}}, "weekday": "wednesday", "livingplace": "Peseux"}}, "location": "La Chaux-de-Fonds"}, "BCN Tour La Br\u00e9vine": {"latitude": 46.999113, "longitude": 6.733554799999999, "race": "BCN Tour La Br\u00e9vine", "date": {"mer. 04.05.2011": {"year": 2011, "day": 4, "month": 5, "categories": {"HS1": {"distance": 10, "rank": 153, "pace": 318000000000, "time": 3186.9}}, "weekday": "wednesday", "livingplace": "Peseux"}}, "location": "Les Ponts-de-Martel"}, "BCN Tour Fontaine Cernier": {"latitude": 47.0624261, "longitude": 6.9175754, "race": "BCN Tour Fontaine Cernier", "date": {"mer. 27.04.2011": {"year": 2011, "day": 27, "month": 4, "categories": {"HS1": {"distance": 10, "rank": 155, "pace": 296000000000, "time": 3050.7}}, "weekday": "wednesday", "livingplace": "Peseux"}}, "location": "Ch\u00e9zard-St-Martin"}, "BCN Tour Neuch\u00e2tel": {"latitude": 46.9899874, "longitude": 6.9292732, "race": "BCN Tour Neuch\u00e2tel", "date": {"mer. 25.05.2011": {"year": 2011, "day": 25, "month": 5, "categories": {"HS1": {"distance": 11, "rank": 135, "pace": 303000000000, "time": 3460.8}}, "weekday": "wednesday", "livingplace": "Peseux"}}, "location": "Neuch\u00e2tel"}, "BCN Tour Les Ponts de Martel": {"latitude": 46.9262933, "longitude": 6.6324944, "race": "BCN Tour Les Ponts de Martel", "date": {"mer. 18.05.2011": {"year": 2011, "day": 18, "month": 5, "categories": {"HS1": {"distance": 13, "rank": 123, "pace": 306000000000, "time": 3921.7}}, "weekday": "wednesday", "livingplace": "Peseux"}}, "location": "Couvet"}, "BCN Tour Boudry": {"latitude": 46.9668714, "longitude": 6.8589727, "race": "BCN Tour Boudry", "date": {"mer. 26.04.2006": {"year": 2006, "day": 26, "month": 4, "categories": {"HE": {"distance": 10, "rank": 75, "pace": 309000000000, "time": 3152.6}}, "weekday": "wednesday", "livingplace": "Enges"}}, "location": "Colombier NE"}, "Kerzerslauf": {"latitude": 46.97488999999999, "longitude": 7.1954365, "race": "Kerzerslauf", "date": {"sam. 15.03.2008": {"year": 2008, "day": 15, "month": 3, "categories": {"15/M20": {"distance": 15, "rank": 488, "pace": 317000000000, "time": 4761.1}}, "weekday": "saturday", "livingplace": "Bevaix"}}, "location": "Kerzers"}, "BCN Tour Colombier": {"latitude": 46.9668714, "longitude": 6.8589727, "race": "BCN Tour Colombier", "date": {"mer. 23.04.2008": {"year": 2008, "day": 23, "month": 4, "categories": {"HS1": {"distance": 10, "rank": 115, "pace": 313000000000, "time": 3197.9}}, "weekday": "wednesday", "livingplace": "Petroplus refining SA II"}}, "location": "Colombier NE"}}, "birth": 1978}