{"name": "Rebstein Julia", "sex": "F", "races": {"Tour du Pays de Vaud #2 - Genolier": {"latitude": 46.5955273, "longitude": 6.7702883, "race": "Tour du Pays de Vaud #2 - Genolier", "date": {"mer. 17.08.2011": {"year": 2011, "day": 17, "month": 8, "categories": {"D-Sen2": {"distance": 9, "rank": 36, "pace": 349000000000, "time": 2970.9}}, "weekday": "wednesday", "livingplace": "Bottens"}}, "location": "M\u00e9zi\u00e8res VD"}, "Tour du pays de Vaud #5 - Penthaz": {"latitude": 46.5993131, "longitude": 6.539251200000001, "race": "Tour du pays de Vaud #5 - Penthaz", "date": {"mer. 07.09.2011": {"year": 2011, "day": 7, "month": 9, "categories": {"D-Sen2": {"distance": 8, "rank": 31, "pace": 358000000000, "time": 2996.8}}, "weekday": "wednesday", "livingplace": "Bottens"}}, "location": "Penthaz"}, "Les Traine-Savates, Cheseaux-sur-Lausanne": {"latitude": 46.585452, "longitude": 6.6047712, "race": "Les Traine-Savates, Cheseaux-sur-Lausanne", "date": {"sam. 04.04.2009": {"year": 2009, "day": 4, "month": 4, "categories": {"DamSen": {"distance": 10, "rank": 82, "pace": 351000000000, "time": 3658.1}}, "weekday": "saturday", "livingplace": "Bottens"}, "sam. 09.04.2011": {"year": 2011, "day": 9, "month": 4, "categories": {"10-W40": {"distance": 10, "rank": 62, "pace": 343000000000, "time": 3575.7}}, "weekday": "saturday", "livingplace": "Bottens"}}, "location": "Cheseaux-sur-Lausanne"}, "Tour du pays de Vaud #6 - St  Prex": {"latitude": 46.4829113, "longitude": 6.458343500000001, "race": "Tour du pays de Vaud #6 - St  Prex", "date": {"mer. 14.09.2011": {"year": 2011, "day": 14, "month": 9, "categories": {"D-Sen2": {"distance": 9, "rank": 37, "pace": 318000000000, "time": 2738.8}}, "weekday": "wednesday", "livingplace": "Bottens"}}, "location": "St-Prex"}, "Tour du pays de Vaud #1 - Mezi\u00e8res": {"latitude": 46.7784736, "longitude": 6.641183, "race": "Tour du pays de Vaud #1 - Mezi\u00e8res", "date": {"mer. 10.08.2011": {"year": 2011, "day": 10, "month": 8, "categories": {"D-Sen2": {"distance": 9, "rank": 41, "pace": 333000000000, "time": 2830.6}}, "weekday": "wednesday", "livingplace": "Bottens"}}, "location": "Yverdon-les-Bains"}}, "birth": 1971}