{"name": "Reichen Benoit", "sex": "M", "races": {"BCN Tour Les Ponts-de-Martel": {"latitude": 46.999113, "longitude": 6.733554799999999, "race": "BCN Tour Les Ponts-de-Martel", "date": {"mer. 09.05.2012": {"year": 2012, "day": 9, "month": 5, "categories": {"HS1": {"distance": 10, "rank": 52, "pace": 262000000000, "time": 2699.5}}, "weekday": "wednesday", "livingplace": "Villeret"}}, "location": "Les Ponts-de-Martel"}, "BCN Tour La Chaux-de-Fonds": {"latitude": 46.9262933, "longitude": 6.6324944, "race": "BCN Tour La Chaux-de-Fonds", "date": {"mer. 23.05.2012": {"year": 2012, "day": 23, "month": 5, "categories": {"HS1": {"distance": 11, "rank": 76, "pace": 271000000000, "time": 2928.3}}, "weekday": "wednesday", "livingplace": "Villeret"}}, "location": "Couvet"}, "BCN Tour Colombier": {"latitude": 47.1034892, "longitude": 6.832783800000001, "race": "BCN Tour Colombier", "date": {"mer. 16.05.2012": {"year": 2012, "day": 16, "month": 5, "categories": {"HS1": {"distance": 11, "rank": 90, "pace": 277000000000, "time": 3001.6}}, "weekday": "wednesday", "livingplace": "Villeret"}}, "location": "La Chaux-de-Fonds"}, "BCN Tour Fontaine Cernier": {"latitude": 47.0624261, "longitude": 6.9175754, "race": "BCN Tour Fontaine Cernier", "date": {"mer. 27.04.2011": {"year": 2011, "day": 27, "month": 4, "categories": {"HS1": {"distance": 10, "rank": 45, "pace": 252000000000, "time": 2605.4}}, "weekday": "wednesday", "livingplace": "Cornaux"}}, "location": "Ch\u00e9zard-St-Martin"}, "BCN Tour Neuch\u00e2tel": {"latitude": 46.9899874, "longitude": 6.9292732, "race": "BCN Tour Neuch\u00e2tel", "date": {"mer. 26.05.2010": {"year": 2010, "day": 26, "month": 5, "categories": {"HS1": {"distance": 10, "rank": 86, "pace": 299000000000, "time": 2903.6}}, "weekday": "wednesday", "livingplace": "Cornaux"}, "mer. 30.05.2012": {"year": 2012, "day": 30, "month": 5, "categories": {"HS1": {"distance": 11, "rank": 56, "pace": 276000000000, "time": 3097.7}}, "weekday": "wednesday", "livingplace": "Villeret"}}, "location": "Neuch\u00e2tel"}, "20km de Lausanne": {"latitude": 46.5196535, "longitude": 6.6322734, "race": "20km de Lausanne", "date": {"sam. 25.04.2009": {"year": 2009, "day": 25, "month": 4, "categories": {"20-H20": {"distance": 20, "rank": 156, "pace": 291000000000, "time": 5824.6}}, "weekday": "saturday", "livingplace": "Partner Up"}}, "location": "Lausanne"}, "BCN Tour Couvet": {"latitude": 47.0624261, "longitude": 6.9175754, "race": "BCN Tour Couvet", "date": {"mer. 02.05.2012": {"year": 2012, "day": 2, "month": 5, "categories": {"HS1": {"distance": 11, "rank": 51, "pace": 268000000000, "time": 2988.9}}, "weekday": "wednesday", "livingplace": "Villeret"}}, "location": "Ch\u00e9zard-St-Martin"}, "BCN Tour Cornaux": {"latitude": 46.9668714, "longitude": 6.8589727, "race": "BCN Tour Cornaux", "date": {"mer. 25.04.2012": {"year": 2012, "day": 25, "month": 4, "categories": {"HS1": {"distance": 11, "rank": 42, "pace": 280000000000, "time": 3085.7}}, "weekday": "wednesday", "livingplace": "Villeret"}}, "location": "Colombier NE"}, "Kerzerslauf": {"latitude": 46.97488999999999, "longitude": 7.1954365, "race": "Kerzerslauf", "date": {"sam. 19.03.2005": {"year": 2005, "day": 19, "month": 3, "categories": {"M20": {"distance": 15, "rank": 129, "pace": 241000000000, "time": 3623.1}}, "weekday": "saturday", "livingplace": "Cressier"}}, "location": "Kerzers"}}, "birth": 1980}