{"name": "Rein Steve", "sex": "M", "races": {"BCN Tour #1 Corcelles": {"latitude": 46.9668714, "longitude": 6.8589727, "race": "BCN Tour #1 Corcelles", "date": {"mer. 24.04.2013": {"year": 2013, "day": 24, "month": 4, "categories": {"HS1": {"distance": 10, "rank": 45, "pace": 258000000000, "time": 2533.4}}, "weekday": "wednesday", "livingplace": "Les Pontins"}}, "location": "Colombier NE"}, "Morat-Fribourg": {"latitude": 46.92922110000001, "longitude": 7.120184, "race": "Morat-Fribourg", "date": {"sam. 05.10.2013": {"year": 2013, "day": 5, "month": 10, "categories": {"17-M20": {"distance": 17, "rank": 152, "pace": 243000000000, "time": 4251.8}}, "weekday": "saturday", "livingplace": "Les Pontins"}, "sam. 01.10.2011": {"year": 2011, "day": 1, "month": 10, "categories": {"17-M20": {"distance": 17, "rank": 1073, "pace": 308000000000, "time": 5289.8}}, "weekday": "saturday", "livingplace": "Les Pontins"}, "sam. 06.10.2012": {"year": 2012, "day": 6, "month": 10, "categories": {"17-M20": {"distance": 17, "rank": 279, "pace": 261000000000, "time": 4563.9}}, "weekday": "saturday", "livingplace": "Les Pontins"}}, "location": "Murten"}, "BCN Tour La Br\u00e9vine": {"latitude": 46.999113, "longitude": 6.733554799999999, "race": "BCN Tour La Br\u00e9vine", "date": {"mer. 04.05.2011": {"year": 2011, "day": 4, "month": 5, "categories": {"HE": {"distance": 10, "rank": 99, "pace": 295000000000, "time": 2958.6}}, "weekday": "wednesday", "livingplace": "Les Pontins"}}, "location": "Les Ponts-de-Martel"}, "BCN Tour Fontaine Cernier": {"latitude": 47.0624261, "longitude": 6.9175754, "race": "BCN Tour Fontaine Cernier", "date": {"mer. 27.04.2011": {"year": 2011, "day": 27, "month": 4, "categories": {"HE": {"distance": 10, "rank": 121, "pace": 287000000000, "time": 2964.9}}, "weekday": "wednesday", "livingplace": "Les Pontins"}}, "location": "Ch\u00e9zard-St-Martin"}, "La Trotteuse-Tissot, La Chaux-de-Fonds": {"latitude": 47.1034892, "longitude": 6.832783800000001, "race": "La Trotteuse-Tissot, La Chaux-de-Fonds", "date": {"sam. 17.12.2011": {"year": 2011, "day": 17, "month": 12, "categories": {"GC-H20": {"distance": 8, "rank": 29, "pace": 274000000000, "time": 2199.3}}, "weekday": "saturday", "livingplace": "Les Pontins"}, "sam. 08.12.2012": {"year": 2012, "day": 8, "month": 12, "categories": {"GC-H30": {"distance": 8, "rank": 28, "pace": 264000000000, "time": 2114.4}}, "weekday": "saturday", "livingplace": "Les Pontins"}}, "location": "La Chaux-de-Fonds"}, "Sierre-Zinal, Sierre": {"latitude": 46.29413110000001, "longitude": 7.533536199999999, "race": "Sierre-Zinal, Sierre", "date": {"dim. 10.08.2014": {"year": 2014, "day": 10, "month": 8, "categories": {"ElitesHo": {"distance": 31, "rank": 100, "pace": 388000000000, "time": 12056.0}}, "weekday": "sunday", "livingplace": "Saint imier"}}, "location": "Sierre"}, "20km de Lausanne": {"latitude": 46.5196535, "longitude": 6.6322734, "race": "20km de Lausanne", "date": {"sam. 27.04.2013": {"year": 2013, "day": 27, "month": 4, "categories": {"10-H30": {"distance": 10, "rank": 53, "pace": 237000000000, "time": 2373.9}}, "weekday": "saturday", "livingplace": "Les Pontins"}}, "location": "Lausanne"}, "BCN Tour Couvet": {"latitude": 47.0624261, "longitude": 6.9175754, "race": "BCN Tour Couvet", "date": {"mer. 02.05.2012": {"year": 2012, "day": 2, "month": 5, "categories": {"HS1": {"distance": 11, "rank": 46, "pace": 263000000000, "time": 2941.0}}, "weekday": "wednesday", "livingplace": "Les Pontins"}}, "location": "Ch\u00e9zard-St-Martin"}, "BCN Tour Auvernier": {"latitude": 46.9668714, "longitude": 6.8589727, "race": "BCN Tour Auvernier", "date": {"mer. 20.04.2011": {"year": 2011, "day": 20, "month": 4, "categories": {"HE": {"distance": 11, "rank": 115, "pace": 312000000000, "time": 3373.2}}, "weekday": "wednesday", "livingplace": "Les Pontins"}}, "location": "Colombier NE"}, "BCN Tour #4 Fleurier": {"latitude": 47.1034892, "longitude": 6.832783800000001, "race": "BCN Tour #4 Fleurier", "date": {"mer. 15.05.2013": {"year": 2013, "day": 15, "month": 5, "categories": {"HS1": {"distance": 9, "rank": 28, "pace": 250000000000, "time": 2168.9}}, "weekday": "wednesday", "livingplace": "Les Pontins"}}, "location": "La Chaux-de-Fonds"}, "BCN Tour Cornaux": {"latitude": 46.9668714, "longitude": 6.8589727, "race": "BCN Tour Cornaux", "date": {"mer. 25.04.2012": {"year": 2012, "day": 25, "month": 4, "categories": {"HS1": {"distance": 11, "rank": 44, "pace": 281000000000, "time": 3098.3}}, "weekday": "wednesday", "livingplace": "Les Pontins"}}, "location": "Colombier NE"}, "BCN Tour La Chaux-de-Fonds": {"latitude": 47.1034892, "longitude": 6.832783800000001, "race": "BCN Tour La Chaux-de-Fonds", "date": {"mer. 23.05.2012": {"year": 2012, "day": 23, "month": 5, "categories": {"HS1": {"distance": 11, "rank": 53, "pace": 260000000000, "time": 2814.1}}, "weekday": "wednesday", "livingplace": "Les Pontins"}, "mer. 11.05.2011": {"year": 2011, "day": 11, "month": 5, "categories": {"HE": {"distance": 11, "rank": 103, "pace": 338000000000, "time": 3620.3}}, "weekday": "wednesday", "livingplace": "Les Pontins"}}, "location": "La Chaux-de-Fonds"}, "BCN Tour #6 Neuch\u00e2tel": {"latitude": 46.9899874, "longitude": 6.9292732, "race": "BCN Tour #6 Neuch\u00e2tel", "date": {"mer. 29.05.2013": {"year": 2013, "day": 29, "month": 5, "categories": {"HS1": {"distance": 11, "rank": 25, "pace": 253000000000, "time": 2788.6}}, "weekday": "wednesday", "livingplace": "Les Pontins"}}, "location": "Neuch\u00e2tel"}, "BCN Tour Les Ponts-de-Martel": {"latitude": 46.999113, "longitude": 6.733554799999999, "race": "BCN Tour Les Ponts-de-Martel", "date": {"mer. 09.05.2012": {"year": 2012, "day": 9, "month": 5, "categories": {"HS1": {"distance": 10, "rank": 41, "pace": 256000000000, "time": 2642.4}}, "weekday": "wednesday", "livingplace": "Les Pontins"}}, "location": "Les Ponts-de-Martel"}, "BCN Tour Neuch\u00e2tel": {"latitude": 46.9899874, "longitude": 6.9292732, "race": "BCN Tour Neuch\u00e2tel", "date": {"mer. 26.05.2010": {"year": 2010, "day": 26, "month": 5, "categories": {"HE": {"distance": 10, "rank": 109, "pace": 329000000000, "time": 3198.1}}, "weekday": "wednesday", "livingplace": "St Imier"}, "mer. 30.05.2012": {"year": 2012, "day": 30, "month": 5, "categories": {"HS1": {"distance": 11, "rank": 50, "pace": 273000000000, "time": 3059.7}}, "weekday": "wednesday", "livingplace": "Les Pontins"}, "mer. 25.05.2011": {"year": 2011, "day": 25, "month": 5, "categories": {"HE": {"distance": 11, "rank": 124, "pace": 306000000000, "time": 3490.3}}, "weekday": "wednesday", "livingplace": "Les Pontins"}}, "location": "Neuch\u00e2tel"}, "Lausanne Marathon": {"latitude": 46.5196535, "longitude": 6.6322734, "race": "Lausanne Marathon", "date": {"dim. 30.10.2011": {"year": 2011, "day": 30, "month": 10, "categories": {"10-H1": {"distance": 10, "rank": 139, "pace": 273000000000, "time": 2732.9}}, "weekday": "sunday", "livingplace": "Les Pontins"}}, "location": "Lausanne"}, "BCN Tour #5 Colombier": {"latitude": 46.9262933, "longitude": 6.6324944, "race": "BCN Tour #5 Colombier", "date": {"mer. 22.05.2013": {"year": 2013, "day": 22, "month": 5, "categories": {"HS1": {"distance": 11, "rank": 33, "pace": 230000000000, "time": 2423.0}}, "weekday": "wednesday", "livingplace": "Les Pontins"}}, "location": "Couvet"}, "BCN Tour #2 La Chaux-de-Fonds": {"latitude": 47.0624261, "longitude": 6.9175754, "race": "BCN Tour #2 La Chaux-de-Fonds", "date": {"mer. 01.05.2013": {"year": 2013, "day": 1, "month": 5, "categories": {"HS1": {"distance": 11, "rank": 48, "pace": 252000000000, "time": 2702.5}}, "weekday": "wednesday", "livingplace": "Les Pontins"}}, "location": "Ch\u00e9zard-St-Martin"}, "BCN Tour Colombier": {"latitude": 47.1034892, "longitude": 6.832783800000001, "race": "BCN Tour Colombier", "date": {"mer. 16.05.2012": {"year": 2012, "day": 16, "month": 5, "categories": {"HS1": {"distance": 11, "rank": 51, "pace": 257000000000, "time": 2780.7}}, "weekday": "wednesday", "livingplace": "Les Pontins"}}, "location": "La Chaux-de-Fonds"}, "BCN Tour #3 Dombresson": {"latitude": 46.999113, "longitude": 6.733554799999999, "race": "BCN Tour #3 Dombresson", "date": {"mer. 08.05.2013": {"year": 2013, "day": 8, "month": 5, "categories": {"HS1": {"distance": 10, "rank": 37, "pace": 249000000000, "time": 2465.5}}, "weekday": "wednesday", "livingplace": "Les Pontins"}}, "location": "Les Ponts-de-Martel"}}, "birth": 1982}