{"name": "Resin Julien", "sex": "M", "races": {"Tour du Chablais #1 Roche": {"latitude": 46.2957462, "longitude": 6.9916269, "race": "Tour du Chablais #1 Roche", "date": {"mer. 07.04.2010": {"year": 2010, "day": 7, "month": 4, "categories": {"M-M20": {"distance": 9, "rank": 229, "pace": 379000000000, "time": 3400.8}}, "weekday": "wednesday", "livingplace": "Noville"}}, "location": "Ollon VD"}, "Tour du Chablais #6 Mouthey": {"latitude": 46.3190253, "longitude": 6.970566, "race": "Tour du Chablais #6 Mouthey", "date": {"mer. 12.05.2010": {"year": 2010, "day": 12, "month": 5, "categories": {"M-M20": {"distance": 9, "rank": 195, "pace": 302000000000, "time": 2785.8}}, "weekday": "wednesday", "livingplace": "Noville"}}, "location": "Aigle"}, "Tour du Chablais #4 Yvorne": {"latitude": NaN, "longitude": NaN, "race": "Tour du Chablais #4 Yvorne", "date": {"mer. 28.04.2010": {"year": 2010, "day": 28, "month": 4, "categories": {"M-M20": {"distance": 8, "rank": 191, "pace": 351000000000, "time": 2909.3}}, "weekday": "wednesday", "livingplace": "Noville"}}, "location": "Les Mosses"}, "Tour du Chablais #3 Bex": {"latitude": 46.1782231, "longitude": 7.0223787, "race": "Tour du Chablais #3 Bex", "date": {"mer. 21.04.2010": {"year": 2010, "day": 21, "month": 4, "categories": {"M-M20": {"distance": 10, "rank": 183, "pace": 327000000000, "time": 3272.4}}, "weekday": "wednesday", "livingplace": "Noville"}}, "location": "Evionnaz"}, "Tour du Chablais #5 Leysin": {"latitude": 46.3603257, "longitude": 6.931504599999999, "race": "Tour du Chablais #5 Leysin", "date": {"mer. 05.05.2010": {"year": 2010, "day": 5, "month": 5, "categories": {"M-M20": {"distance": 8, "rank": 134, "pace": 345000000000, "time": 2923.3}}, "weekday": "wednesday", "livingplace": "Noville"}}, "location": "Roche VD"}, "Tour du Chablais #2 St-Gingolph": {"latitude": 46.3835529, "longitude": 6.854975199999999, "race": "Tour du Chablais #2 St-Gingolph", "date": {"mer. 14.04.2010": {"year": 2010, "day": 14, "month": 4, "categories": {"M-M20": {"distance": 8, "rank": 175, "pace": 385000000000, "time": 3217.3}}, "weekday": "wednesday", "livingplace": "Noville"}}, "location": "Bouveret"}}, "birth": 1987}