{"name": "Richert Lasse", "sex": "M", "races": {"Luzerner Stadtlauf": {"latitude": 47.05016819999999, "longitude": 8.3093072, "race": "Luzerner Stadtlauf", "date": {"sam. 25.04.2015": {"year": 2015, "day": 25, "month": 4, "categories": {"K-16": {"distance": 2, "rank": 5, "pace": 219000000000, "time": 461.3}}, "weekday": "saturday", "livingplace": "Thurnen"}}, "location": "Luzern"}, "IWB Basel Marathon": {"latitude": 47.5595986, "longitude": 7.5885761, "race": "IWB Basel Marathon", "date": {"dim. 23.09.2012": {"year": 2012, "day": 23, "month": 9, "categories": {"K-7-MANN": {"distance": 7, "rank": 48, "pace": 272000000000, "time": 1937.5}}, "weekday": "sunday", "livingplace": "Sissach"}}, "location": "Basel"}, "Basler Stadtlauf": {"latitude": 47.5595986, "longitude": 7.5885761, "race": "Basler Stadtlauf", "date": {"sam. 29.11.2014": {"year": 2014, "day": 29, "month": 11, "categories": {"U12m": {"distance": 1, "rank": 3, "pace": 200000000000, "time": 200.4}}, "weekday": "saturday", "livingplace": "Thurnen"}, "sam. 30.11.2013": {"year": 2013, "day": 30, "month": 11, "categories": {"U12m": {"distance": 1, "rank": 14, "pace": 216000000000, "time": 216.1}}, "weekday": "saturday", "livingplace": "Thurnen"}, "sam. 24.11.2012": {"year": 2012, "day": 24, "month": 11, "categories": {"U10m": {"distance": 2, "rank": 9, "pace": 143000000000, "time": 229.0}}, "weekday": "saturday", "livingplace": "Sissach"}}, "location": "Basel"}, "Liestaler Stadtlauf": {"latitude": 47.4866143, "longitude": 7.7334272, "race": "Liestaler Stadtlauf", "date": {"mer. 26.08.2015": {"year": 2015, "day": 26, "month": 8, "categories": {"S2M": {"distance": 1, "rank": 1, "pace": 170000000000, "time": 221.8}}, "weekday": "wednesday", "livingplace": "Thurnen"}}, "location": "Liestal"}, "Augusta Raurica Lauf, Augst BL": {"latitude": NaN, "longitude": NaN, "race": "Augusta Raurica Lauf, Augst BL", "date": {"dim. 09.11.2014": {"year": 2014, "day": 9, "month": 11, "categories": {"5-JunM": {"distance": 6, "rank": 6, "pace": 249000000000, "time": 1371.5}}, "weekday": "sunday", "livingplace": "Thurnen"}}, "location": "Augst BL"}, "Kerzerslauf": {"latitude": 46.97488999999999, "longitude": 7.1954365, "race": "Kerzerslauf", "date": {"sam. 21.03.2015": {"year": 2015, "day": 21, "month": 3, "categories": {"M2-U14M": {"distance": 1, "rank": 6, "pace": 202000000000, "time": 282.8}}, "weekday": "saturday", "livingplace": "Thurnen"}}, "location": "Kerzers"}, "Z\u00fcrcher Silvesterlauf, Z\u00fcrich": {"latitude": 47.3768866, "longitude": 8.541694, "race": "Z\u00fcrcher Silvesterlauf, Z\u00fcrich", "date": {"dim. 14.12.2014": {"year": 2014, "day": 14, "month": 12, "categories": {"U12M": {"distance": 1, "rank": 10, "pace": 235000000000, "time": 376.4}}, "weekday": "sunday", "livingplace": "Thurnen"}}, "location": "Z\u00fcrich"}}, "birth": 2003}