{"name": "Riechsteiner Rolf", "sex": "M", "races": {"ASICS Bremgarter Reusslauf": {"latitude": 47.34917739999999, "longitude": 8.3397905, "race": "ASICS Bremgarter Reusslauf", "date": {"sam. 23.02.2008": {"year": 2008, "day": 23, "month": 2, "categories": {"M30": {"distance": 11, "rank": 342, "pace": 354000000000, "time": 3894.7}}, "weekday": "saturday", "livingplace": "Bern"}}, "location": "Bremgarten AG"}, "Morat-Fribourg": {"latitude": 46.92922110000001, "longitude": 7.120184, "race": "Morat-Fribourg", "date": {"sam. 06.10.2007": {"year": 2007, "day": 6, "month": 10, "categories": {"C/M20": {"distance": 17, "rank": 1725, "pace": 390000000000, "time": 6696.4}}, "weekday": "saturday", "livingplace": "Bern"}}, "location": "Murten"}, "Kerzerslauf": {"latitude": 46.97488999999999, "longitude": 7.1954365, "race": "Kerzerslauf", "date": {"sam. 17.03.2007": {"year": 2007, "day": 17, "month": 3, "categories": {"M35": {"distance": 15, "rank": 451, "pace": 358000000000, "time": 5371.9}}, "weekday": "saturday", "livingplace": "Bern"}}, "location": "Kerzers"}, "Bieler Lauftage, Biel Bienne": {"latitude": 47.1367785, "longitude": 7.2467909, "race": "Bieler Lauftage, Biel Bienne", "date": {"ven. 15.06.2007": {"year": 2007, "day": 15, "month": 6, "categories": {"B/M35": {"distance": 15, "rank": 10, "pace": 363000000000, "time": 5275.7}}, "weekday": "friday", "livingplace": "Bern"}}, "location": "Biel/Bienne"}, "Int Greifenseelauf, Uster": {"latitude": 47.3482747, "longitude": 8.717873899999999, "race": "Int Greifenseelauf, Uster", "date": {"sam. 22.09.2007": {"year": 2007, "day": 22, "month": 9, "categories": {"H/M35": {"distance": 21, "rank": 1048, "pace": 405000000000, "time": 8554.6}}, "weekday": "saturday", "livingplace": "Bern"}}, "location": "Uster"}}, "birth": 1972}