{"name": "Rigaux Rodolphe", "sex": "M", "races": {"Tour du Chablais #1 Roche": {"latitude": 46.2957462, "longitude": 6.9916269, "race": "Tour du Chablais #1 Roche", "date": {"mer. 07.04.2010": {"year": 2010, "day": 7, "month": 4, "categories": {"M-M40": {"distance": 9, "rank": 72, "pace": 262000000000, "time": 2346.6}}, "weekday": "wednesday", "livingplace": "Maxilly sur Leman"}, "mer. 03.04.2013": {"year": 2013, "day": 3, "month": 4, "categories": {"M-M40": {"distance": 9, "rank": 90, "pace": 285000000000, "time": 2526.1}}, "weekday": "wednesday", "livingplace": "Maxilly sur Leman"}}, "location": "Ollon VD"}, "Tour du Chablais #2 Rennaz": {"latitude": 46.3835529, "longitude": 6.854975199999999, "race": "Tour du Chablais #2 Rennaz", "date": {"mer. 04.05.2011": {"year": 2011, "day": 4, "month": 5, "categories": {"M-M40": {"distance": 9, "rank": 65, "pace": 261000000000, "time": 2440.5}}, "weekday": "wednesday", "livingplace": "Maxilly sur Leman"}}, "location": "Bouveret"}, "Tour du Chablais #3 Le Bouveret": {"latitude": 46.1782231, "longitude": 7.0223787, "race": "Tour du Chablais #3 Le Bouveret", "date": {"mer. 11.05.2011": {"year": 2011, "day": 11, "month": 5, "categories": {"M-M40": {"distance": 10, "rank": 64, "pace": 264000000000, "time": 2643.2}}, "weekday": "wednesday", "livingplace": "Maxilly sur Leman"}}, "location": "Evionnaz"}, "Tour du Chablais #6 Monthey": {"latitude": 46.3190253, "longitude": 6.970566, "race": "Tour du Chablais #6 Monthey", "date": {"mer. 08.05.2013": {"year": 2013, "day": 8, "month": 5, "categories": {"M-M40": {"distance": 9, "rank": 79, "pace": 276000000000, "time": 2574.5}}, "weekday": "wednesday", "livingplace": "Maxilly sur Leman"}}, "location": "Aigle"}, "Tour du Chablais #1 Lavey": {"latitude": 46.2957462, "longitude": 6.9916269, "race": "Tour du Chablais #1 Lavey", "date": {"mer. 27.04.2011": {"year": 2011, "day": 27, "month": 4, "categories": {"M-M40": {"distance": 9, "rank": 66, "pace": 268000000000, "time": 2419.3}}, "weekday": "wednesday", "livingplace": "Maxilly sur Leman"}}, "location": "Ollon VD"}, "Tour du Chablais #5 Morgins": {"latitude": 46.3603257, "longitude": 6.931504599999999, "race": "Tour du Chablais #5 Morgins", "date": {"mer. 01.05.2013": {"year": 2013, "day": 1, "month": 5, "categories": {"M-M40": {"distance": 8, "rank": 73, "pace": 297000000000, "time": 2263.5}}, "weekday": "wednesday", "livingplace": "Maxilly sur Leman"}}, "location": "Roche VD"}, "Tour du Chablais #5 Leysin": {"latitude": 46.3603257, "longitude": 6.931504599999999, "race": "Tour du Chablais #5 Leysin", "date": {"mer. 05.05.2010": {"year": 2010, "day": 5, "month": 5, "categories": {"M-M40": {"distance": 8, "rank": 40, "pace": 274000000000, "time": 2318.2}}, "weekday": "wednesday", "livingplace": "Maxilly sur Leman"}}, "location": "Roche VD"}, "Tour du Chablais #5 Bex": {"latitude": 46.3603257, "longitude": 6.931504599999999, "race": "Tour du Chablais #5 Bex", "date": {"mer. 09.05.2012": {"year": 2012, "day": 9, "month": 5, "categories": {"M-M40": {"distance": 9, "rank": 62, "pace": 270000000000, "time": 2396.0}}, "weekday": "wednesday", "livingplace": "Maxilly sur Leman"}}, "location": "Roche VD"}, "Tour du Chablais #4 Champ\u00e9ry": {"latitude": NaN, "longitude": NaN, "race": "Tour du Chablais #4 Champ\u00e9ry", "date": {"mer. 02.05.2012": {"year": 2012, "day": 2, "month": 5, "categories": {"M-M40": {"distance": 8, "rank": 77, "pace": 280000000000, "time": 2330.5}}, "weekday": "wednesday", "livingplace": "Maxilly sur Leman"}}, "location": "Les Mosses"}, "Tour du Chablais #5 Les Mosses": {"latitude": 46.3603257, "longitude": 6.931504599999999, "race": "Tour du Chablais #5 Les Mosses", "date": {"mer. 25.05.2011": {"year": 2011, "day": 25, "month": 5, "categories": {"M-M40": {"distance": 8, "rank": 37, "pace": 277000000000, "time": 2217.6}}, "weekday": "wednesday", "livingplace": "Maxilly sur Leman"}}, "location": "Roche VD"}, "Lausanne Marathon": {"latitude": 46.5196535, "longitude": 6.6322734, "race": "Lausanne Marathon", "date": {"dim. 27.10.2013": {"year": 2013, "day": 27, "month": 10, "categories": {"42-H3": {"distance": 42, "rank": 213, "pace": 325000000000, "time": 13745.4}}, "weekday": "sunday", "livingplace": "Maxilly sur Leman"}}, "location": "Lausanne"}, "Tour du Chablais #6 Aigle": {"latitude": 46.3190253, "longitude": 6.970566, "race": "Tour du Chablais #6 Aigle", "date": {"mer. 01.06.2011": {"year": 2011, "day": 1, "month": 6, "categories": {"M-M40": {"distance": 10, "rank": 39, "pace": 250000000000, "time": 2556.8}}, "weekday": "wednesday", "livingplace": "Maxilly sur Leman"}}, "location": "Aigle"}, "Tour du Chablais #3 Bex": {"latitude": 46.1782231, "longitude": 7.0223787, "race": "Tour du Chablais #3 Bex", "date": {"mer. 21.04.2010": {"year": 2010, "day": 21, "month": 4, "categories": {"M-M40": {"distance": 10, "rank": 65, "pace": 268000000000, "time": 2689.4}}, "weekday": "wednesday", "livingplace": "Maxilly sur Leman"}}, "location": "Evionnaz"}, "Tour du Chablais #3 Collombey-Muraz": {"latitude": 46.1782231, "longitude": 7.0223787, "race": "Tour du Chablais #3 Collombey-Muraz", "date": {"mer. 25.04.2012": {"year": 2012, "day": 25, "month": 4, "categories": {"M-M40": {"distance": 9, "rank": 67, "pace": 271000000000, "time": 2438.3}}, "weekday": "wednesday", "livingplace": "Maxilly sur Leman"}}, "location": "Evionnaz"}, "Tour du Chablais #1 Martigny": {"latitude": 46.2957462, "longitude": 6.9916269, "race": "Tour du Chablais #1 Martigny", "date": {"mer. 23.04.2014": {"year": 2014, "day": 23, "month": 4, "categories": {"M-M40": {"distance": 9, "rank": 82, "pace": 286000000000, "time": 2439.4}}, "weekday": "wednesday", "livingplace": "Maxilly sur Leman"}}, "location": "Ollon VD"}, "Tour du Chablais #4 St  Maurice": {"latitude": NaN, "longitude": NaN, "race": "Tour du Chablais #4 St  Maurice", "date": {"mer. 24.04.2013": {"year": 2013, "day": 24, "month": 4, "categories": {"M-M40": {"distance": 10, "rank": 87, "pace": 287000000000, "time": 2875.2}}, "weekday": "wednesday", "livingplace": "Maxilly sur Leman"}}, "location": "Les Mosses"}, "Tour du Chablais #4 Morgins": {"latitude": NaN, "longitude": NaN, "race": "Tour du Chablais #4 Morgins", "date": {"mer. 18.05.2011": {"year": 2011, "day": 18, "month": 5, "categories": {"M-M40": {"distance": 8, "rank": 58, "pace": 279000000000, "time": 2334.7}}, "weekday": "wednesday", "livingplace": "Maxilly sur Leman"}}, "location": "Les Mosses"}, "Tour du Chablais #6 Mouthey": {"latitude": 46.3190253, "longitude": 6.970566, "race": "Tour du Chablais #6 Mouthey", "date": {"mer. 12.05.2010": {"year": 2010, "day": 12, "month": 5, "categories": {"M-M40": {"distance": 9, "rank": 49, "pace": 248000000000, "time": 2287.3}}, "weekday": "wednesday", "livingplace": "Maxilly sur Leman"}}, "location": "Aigle"}, "Tour du Chablais #2 Yvorne": {"latitude": 46.3835529, "longitude": 6.854975199999999, "race": "Tour du Chablais #2 Yvorne", "date": {"mer. 10.04.2013": {"year": 2013, "day": 10, "month": 4, "categories": {"M-M40": {"distance": 8, "rank": 87, "pace": 316000000000, "time": 2530.3}}, "weekday": "wednesday", "livingplace": "Maxilly sur Leman"}}, "location": "Bouveret"}, "Tour du Chablais #2 St-Gingolph": {"latitude": 46.3835529, "longitude": 6.854975199999999, "race": "Tour du Chablais #2 St-Gingolph", "date": {"mer. 14.04.2010": {"year": 2010, "day": 14, "month": 4, "categories": {"M-M40": {"distance": 8, "rank": 72, "pace": 284000000000, "time": 2378.2}}, "weekday": "wednesday", "livingplace": "Maxilly sur Leman"}}, "location": "Bouveret"}, "Tour du Chablais #4 Yvorne": {"latitude": NaN, "longitude": NaN, "race": "Tour du Chablais #4 Yvorne", "date": {"mer. 28.04.2010": {"year": 2010, "day": 28, "month": 4, "categories": {"M-M40": {"distance": 8, "rank": 60, "pace": 272000000000, "time": 2260.4}}, "weekday": "wednesday", "livingplace": "Maxilly sur Leman"}}, "location": "Les Mosses"}, "Tour du Chablais #2 Bex": {"latitude": 46.3835529, "longitude": 6.854975199999999, "race": "Tour du Chablais #2 Bex", "date": {"mer. 18.04.2012": {"year": 2012, "day": 18, "month": 4, "categories": {"M-M40": {"distance": 8, "rank": 87, "pace": 282000000000, "time": 2259.6}}, "weekday": "wednesday", "livingplace": "Maxilly sur Leman"}}, "location": "Bouveret"}, "Tour du Chablais #6 Montreux": {"latitude": 46.3190253, "longitude": 6.970566, "race": "Tour du Chablais #6 Montreux", "date": {"mer. 16.05.2012": {"year": 2012, "day": 16, "month": 5, "categories": {"M-M40": {"distance": 9, "rank": 71, "pace": 265000000000, "time": 2460.2}}, "weekday": "wednesday", "livingplace": "Maxilly sur Leman"}}, "location": "Aigle"}}, "birth": 1966}