{"name": "Ringgenberg Nadine", "sex": "F", "races": {"Groupe E Tour Fribourg #4, Siviriez": {"latitude": 46.6585092, "longitude": 6.877722, "race": "Groupe E Tour Fribourg #4, Siviriez", "date": {"mer. 10.09.2014": {"year": 2014, "day": 10, "month": 9, "categories": {"D-Dam1": {"distance": 11, "rank": 4, "pace": 307000000000, "time": 3319.9}}, "weekday": "wednesday", "livingplace": "Radelfingen b. Aarberg"}}, "location": "Siviriez"}, "Morat-Fribourg": {"latitude": 46.92922110000001, "longitude": 7.120184, "race": "Morat-Fribourg", "date": {"sam. 01.10.2011": {"year": 2011, "day": 1, "month": 10, "categories": {"17-W20": {"distance": 17, "rank": 58, "pace": 297000000000, "time": 5105.3}}, "weekday": "saturday", "livingplace": "Murten"}, "sam. 06.10.2012": {"year": 2012, "day": 6, "month": 10, "categories": {"17-W20": {"distance": 17, "rank": 62, "pace": 295000000000, "time": 5152.8}}, "weekday": "saturday", "livingplace": "Schupfen"}}, "location": "Murten"}, "Groupe E Tour Fribourg #2, Charmey": {"latitude": 46.6175845, "longitude": 7.1654493, "race": "Groupe E Tour Fribourg #2, Charmey", "date": {"mer. 27.08.2014": {"year": 2014, "day": 27, "month": 8, "categories": {"D-Dam1": {"distance": 10, "rank": 5, "pace": 309000000000, "time": 2989.6}}, "weekday": "wednesday", "livingplace": "Radelfingen b. Aarberg"}}, "location": "Charmey (Gruy\u00e8re)"}, "Groupe E Tour Fribourg #3, Kerzers": {"latitude": 46.97488999999999, "longitude": 7.1954365, "race": "Groupe E Tour Fribourg #3, Kerzers", "date": {"mer. 03.09.2014": {"year": 2014, "day": 3, "month": 9, "categories": {"D-Dam1": {"distance": 10, "rank": 5, "pace": 271000000000, "time": 2760.4}}, "weekday": "wednesday", "livingplace": "Radelfingen b. Aarberg"}}, "location": "Kerzers"}, "Groupe E Tour Fribourg #5, Givisiez": {"latitude": 46.8128615, "longitude": 7.131657799999999, "race": "Groupe E Tour Fribourg #5, Givisiez", "date": {"mer. 17.09.2014": {"year": 2014, "day": 17, "month": 9, "categories": {"D-Dam1": {"distance": 10, "rank": 5, "pace": 278000000000, "time": 2861.2}}, "weekday": "wednesday", "livingplace": "Radelfingen b. Aarberg"}}, "location": "Givisiez"}, "Kerzerslauf": {"latitude": 46.97488999999999, "longitude": 7.1954365, "race": "Kerzerslauf", "date": {"sam. 17.03.2012": {"year": 2012, "day": 17, "month": 3, "categories": {"15-F20": {"distance": 15, "rank": 93, "pace": 294000000000, "time": 4414.8}}, "weekday": "saturday", "livingplace": "Murten"}, "sam. 15.03.2014": {"year": 2014, "day": 15, "month": 3, "categories": {"15-F20": {"distance": 15, "rank": 60, "pace": 280000000000, "time": 4206.0}}, "weekday": "saturday", "livingplace": "Schupfen"}}, "location": "Kerzers"}}, "birth": 1986}