{"name": "Ringli Stefan", "sex": "M", "races": {"Groupe E Tour Fribourg #1 Gurmels": {"latitude": 46.81832, "longitude": 6.977279999999999, "race": "Groupe E Tour Fribourg #1 Gurmels", "date": {"mer. 29.08.2012": {"year": 2012, "day": 29, "month": 8, "categories": {"HS2": {"distance": 8, "rank": 8, "pace": 276000000000, "time": 2323.1}}, "weekday": "wednesday", "livingplace": "Avenches"}}, "location": "Cousset"}, "Morat-Fribourg": {"latitude": 46.92922110000001, "longitude": 7.120184, "race": "Morat-Fribourg", "date": {"sam. 05.10.2013": {"year": 2013, "day": 5, "month": 10, "categories": {"17-M45": {"distance": 17, "rank": 58, "pace": 258000000000, "time": 4502.3}}, "weekday": "saturday", "livingplace": "Avenches"}, "sam. 03.10.2009": {"year": 2009, "day": 3, "month": 10, "categories": {"C-M40": {"distance": 17, "rank": 261, "pace": 288000000000, "time": 4948.1}}, "weekday": "saturday", "livingplace": "Avenches"}, "sam. 03.10.2015": {"year": 2015, "day": 3, "month": 10, "categories": {"17-M45": {"distance": 17, "rank": 83, "pace": 274000000000, "time": 4714.5}}, "weekday": "saturday", "livingplace": "Avenches"}, "sam. 06.10.2012": {"year": 2012, "day": 6, "month": 10, "categories": {"17-M40": {"distance": 17, "rank": 100, "pace": 263000000000, "time": 4597.1}}, "weekday": "saturday", "livingplace": "Avenches"}, "sam. 04.10.2014": {"year": 2014, "day": 4, "month": 10, "categories": {"17-M45": {"distance": 17, "rank": 64, "pace": 263000000000, "time": 4519.1}}, "weekday": "saturday", "livingplace": "Avenches"}}, "location": "Murten"}, "Groupe E Tour Fribourg #3 Estavayer-le-Lac": {"latitude": 46.97488999999999, "longitude": 7.1954365, "race": "Groupe E Tour Fribourg #3 Estavayer-le-Lac", "date": {"mer. 12.09.2012": {"year": 2012, "day": 12, "month": 9, "categories": {"HS2": {"distance": 10, "rank": 5, "pace": 238000000000, "time": 2351.9}}, "weekday": "wednesday", "livingplace": "Avenches"}}, "location": "Kerzers"}, "Groupe E Tour Fribourg #4 Montagny": {"latitude": 46.6585092, "longitude": 6.877722, "race": "Groupe E Tour Fribourg #4 Montagny", "date": {"mer. 11.09.2013": {"year": 2013, "day": 11, "month": 9, "categories": {"HS2": {"distance": 10, "rank": 14, "pace": 256000000000, "time": 2514.2}}, "weekday": "wednesday", "livingplace": "Avenches"}}, "location": "Siviriez"}, "Groupe E Tour Fribourg #5 Fribourg": {"latitude": 46.8128615, "longitude": 7.131657799999999, "race": "Groupe E Tour Fribourg #5 Fribourg", "date": {"mer. 18.09.2013": {"year": 2013, "day": 18, "month": 9, "categories": {"HS2": {"distance": 10, "rank": 14, "pace": 256000000000, "time": 2562.6}}, "weekday": "wednesday", "livingplace": "Avenches"}}, "location": "Givisiez"}, "Groupe E Tour Fribourg #3, Kerzers": {"latitude": 46.97488999999999, "longitude": 7.1954365, "race": "Groupe E Tour Fribourg #3, Kerzers", "date": {"mer. 03.09.2014": {"year": 2014, "day": 3, "month": 9, "categories": {"H-Sen2": {"distance": 10, "rank": 18, "pace": 259000000000, "time": 2643.2}}, "weekday": "wednesday", "livingplace": "Avenches"}}, "location": "Kerzers"}, "Groupe E Tour Fribourg #1, Cousset": {"latitude": 46.81832, "longitude": 6.977279999999999, "race": "Groupe E Tour Fribourg #1, Cousset", "date": {"mer. 20.08.2014": {"year": 2014, "day": 20, "month": 8, "categories": {"H-Sen2": {"distance": 9, "rank": 16, "pace": 263000000000, "time": 2475.0}}, "weekday": "wednesday", "livingplace": "Avenches"}}, "location": "Cousset"}, "Groupe E Tour Fribourg #4, Siviriez": {"latitude": 46.6585092, "longitude": 6.877722, "race": "Groupe E Tour Fribourg #4, Siviriez", "date": {"mer. 10.09.2014": {"year": 2014, "day": 10, "month": 9, "categories": {"H-Sen2": {"distance": 11, "rank": 18, "pace": 314000000000, "time": 3394.7}}, "weekday": "wednesday", "livingplace": "Avenches"}}, "location": "Siviriez"}, "Groupe E Tour Fribourg #2, Charmey": {"latitude": 46.6175845, "longitude": 7.1654493, "race": "Groupe E Tour Fribourg #2, Charmey", "date": {"mer. 27.08.2014": {"year": 2014, "day": 27, "month": 8, "categories": {"H-Sen2": {"distance": 10, "rank": 16, "pace": 293000000000, "time": 2831.8}}, "weekday": "wednesday", "livingplace": "Avenches"}}, "location": "Charmey (Gruy\u00e8re)"}, "Groupe E Tour Fribourg #2 Kerzers": {"latitude": 46.6175845, "longitude": 7.1654493, "race": "Groupe E Tour Fribourg #2 Kerzers", "date": {"mer. 28.08.2013": {"year": 2013, "day": 28, "month": 8, "categories": {"HS2": {"distance": 12, "rank": 13, "pace": 264000000000, "time": 3136.0}}, "weekday": "wednesday", "livingplace": "Avenches"}}, "location": "Charmey (Gruy\u00e8re)"}, "Groupe E Tour Fribourg #3 Charmey": {"latitude": 46.97488999999999, "longitude": 7.1954365, "race": "Groupe E Tour Fribourg #3 Charmey", "date": {"mer. 04.09.2013": {"year": 2013, "day": 4, "month": 9, "categories": {"HS2": {"distance": 11, "rank": 19, "pace": 287000000000, "time": 3121.0}}, "weekday": "wednesday", "livingplace": "Avenches"}}, "location": "Kerzers"}, "Groupe E Tour Fribourg #1 Siviriez": {"latitude": 46.81832, "longitude": 6.977279999999999, "race": "Groupe E Tour Fribourg #1 Siviriez", "date": {"mer. 21.08.2013": {"year": 2013, "day": 21, "month": 8, "categories": {"HS2": {"distance": 10, "rank": 15, "pace": 273000000000, "time": 2677.0}}, "weekday": "wednesday", "livingplace": "Avenches"}}, "location": "Cousset"}, "Groupe E Tour Fribourg #5, Givisiez": {"latitude": 46.8128615, "longitude": 7.131657799999999, "race": "Groupe E Tour Fribourg #5, Givisiez", "date": {"mer. 17.09.2014": {"year": 2014, "day": 17, "month": 9, "categories": {"H-Sen2": {"distance": 10, "rank": 19, "pace": 278000000000, "time": 2856.2}}, "weekday": "wednesday", "livingplace": "Avenches"}}, "location": "Givisiez"}, "Groupe E Tour Fribourg #2 Plafayon": {"latitude": 46.6175845, "longitude": 7.1654493, "race": "Groupe E Tour Fribourg #2 Plafayon", "date": {"mer. 05.09.2012": {"year": 2012, "day": 5, "month": 9, "categories": {"HS2": {"distance": 9, "rank": 8, "pace": 244000000000, "time": 2287.0}}, "weekday": "wednesday", "livingplace": "Avenches"}}, "location": "Charmey (Gruy\u00e8re)"}}, "birth": 1968}