{"name": "Robert Christophe", "sex": "M", "races": {"BCN Tour #3 Dombresson": {"latitude": 46.999113, "longitude": 6.733554799999999, "race": "BCN Tour #3 Dombresson", "date": {"mer. 08.05.2013": {"year": 2013, "day": 8, "month": 5, "categories": {"HE": {"distance": 10, "rank": 170, "pace": 286000000000, "time": 2837.3}}, "weekday": "wednesday", "livingplace": "Noiraigue"}}, "location": "Les Ponts-de-Martel"}, "Morat-Fribourg": {"latitude": 46.92922110000001, "longitude": 7.120184, "race": "Morat-Fribourg", "date": {"sam. 04.10.2014": {"year": 2014, "day": 4, "month": 10, "categories": {"8-JoggM": {"distance": 9, "rank": 147, "pace": 324000000000, "time": 2819.0}}, "weekday": "saturday", "livingplace": "Noiraigue"}}, "location": "Murten"}, "BCN Tour #6 Neuch\u00e2tel": {"latitude": 46.9899874, "longitude": 6.9292732, "race": "BCN Tour #6 Neuch\u00e2tel", "date": {"mer. 29.05.2013": {"year": 2013, "day": 29, "month": 5, "categories": {"HE": {"distance": 11, "rank": 192, "pace": 309000000000, "time": 3408.3}}, "weekday": "wednesday", "livingplace": "Noiraigue"}}, "location": "Neuch\u00e2tel"}, "BCN Tour #5 Colombier": {"latitude": 46.9262933, "longitude": 6.6324944, "race": "BCN Tour #5 Colombier", "date": {"mer. 22.05.2013": {"year": 2013, "day": 22, "month": 5, "categories": {"HE": {"distance": 11, "rank": 231, "pace": 291000000000, "time": 3063.5}}, "weekday": "wednesday", "livingplace": "Noiraigue"}}, "location": "Couvet"}, "BCN Tour #1 Corcelles": {"latitude": 46.9668714, "longitude": 6.8589727, "race": "BCN Tour #1 Corcelles", "date": {"mer. 24.04.2013": {"year": 2013, "day": 24, "month": 4, "categories": {"HE": {"distance": 10, "rank": 166, "pace": 298000000000, "time": 2930.0}}, "weekday": "wednesday", "livingplace": "Noiraigue"}}, "location": "Colombier NE"}, "Kerzerslauf": {"latitude": 46.97488999999999, "longitude": 7.1954365, "race": "Kerzerslauf", "date": {"sam. 21.03.2015": {"year": 2015, "day": 21, "month": 3, "categories": {"15-M20": {"distance": 15, "rank": 554, "pace": 334000000000, "time": 5012.1}}, "weekday": "saturday", "livingplace": "Noiraigue"}, "sam. 16.03.2013": {"year": 2013, "day": 16, "month": 3, "categories": {"15-M20": {"distance": 15, "rank": 479, "pace": 325000000000, "time": 4888.2}}, "weekday": "saturday", "livingplace": "Noiraigue"}}, "location": "Kerzers"}, "BCN Tour #4 Fleurier": {"latitude": 47.1034892, "longitude": 6.832783800000001, "race": "BCN Tour #4 Fleurier", "date": {"mer. 15.05.2013": {"year": 2013, "day": 15, "month": 5, "categories": {"HE": {"distance": 9, "rank": 191, "pace": 300000000000, "time": 2595.7}}, "weekday": "wednesday", "livingplace": "Noiraigue"}}, "location": "La Chaux-de-Fonds"}, "BCN Tour #2 La Chaux-de-Fonds": {"latitude": 47.0624261, "longitude": 6.9175754, "race": "BCN Tour #2 La Chaux-de-Fonds", "date": {"mer. 01.05.2013": {"year": 2013, "day": 1, "month": 5, "categories": {"HE": {"distance": 11, "rank": 199, "pace": 295000000000, "time": 3165.8}}, "weekday": "wednesday", "livingplace": "Noiraigue"}}, "location": "Ch\u00e9zard-St-Martin"}}, "birth": 1989}