{"name": "Robert S\u00e9bastien", "sex": "M", "races": {"BCN Tour M\u00f4tier": {"latitude": 46.9262933, "longitude": 6.6324944, "race": "BCN Tour M\u00f4tier", "date": {"mer. 19.05.2010": {"year": 2010, "day": 19, "month": 5, "categories": {"KG3": {"distance": 4, "rank": 38, "pace": 316000000000, "time": 1201.6}}, "weekday": "wednesday", "livingplace": "Bole"}}, "location": "Couvet"}, "BCN Tour #6 Neuch\u00e2tel": {"latitude": 46.9899874, "longitude": 6.9292732, "race": "BCN Tour #6 Neuch\u00e2tel", "date": {"mer. 29.05.2013": {"year": 2013, "day": 29, "month": 5, "categories": {"HJ": {"distance": 11, "rank": 96, "pace": 395000000000, "time": 4353.2}}, "weekday": "wednesday", "livingplace": "Bole"}}, "location": "Neuch\u00e2tel"}, "BCN Tour Ponts-de-Martel": {"latitude": 47.0624261, "longitude": 6.9175754, "race": "BCN Tour Ponts-de-Martel", "date": {"mer. 28.04.2010": {"year": 2010, "day": 28, "month": 4, "categories": {"KG3": {"distance": 4, "rank": 39, "pace": 266000000000, "time": 1120.8}}, "weekday": "wednesday", "livingplace": "Bole"}}, "location": "Ch\u00e9zard-St-Martin"}, "BCN Tour Le Landeron": {"latitude": 46.9668714, "longitude": 6.8589727, "race": "BCN Tour Le Landeron", "date": {"mer. 22.04.2009": {"year": 2009, "day": 22, "month": 4, "categories": {"KG3": {"distance": 4, "rank": 39, "pace": 309000000000, "time": 1237.0}}, "weekday": "wednesday", "livingplace": "Bole"}}, "location": "Colombier NE"}, "BCN Tour #5 Colombier": {"latitude": 46.9262933, "longitude": 6.6324944, "race": "BCN Tour #5 Colombier", "date": {"mer. 22.05.2013": {"year": 2013, "day": 22, "month": 5, "categories": {"HJ": {"distance": 11, "rank": 108, "pace": 338000000000, "time": 3554.5}}, "weekday": "wednesday", "livingplace": "Bole"}}, "location": "Couvet"}, "BCN Tour Le Locle": {"latitude": 46.999113, "longitude": 6.733554799999999, "race": "BCN Tour Le Locle", "date": {"mer. 05.05.2010": {"year": 2010, "day": 5, "month": 5, "categories": {"KG3": {"distance": 4, "rank": 30, "pace": 314000000000, "time": 1162.8}}, "weekday": "wednesday", "livingplace": "Bole"}}, "location": "Les Ponts-de-Martel"}, "BCN Tour Neuch\u00e2tel": {"latitude": 46.9899874, "longitude": 6.9292732, "race": "BCN Tour Neuch\u00e2tel", "date": {"mer. 26.05.2010": {"year": 2010, "day": 26, "month": 5, "categories": {"KG3": {"distance": 3, "rank": 44, "pace": 241000000000, "time": 820.8}}, "weekday": "wednesday", "livingplace": "Bole"}}, "location": "Neuch\u00e2tel"}, "BCN Tour La Chaux-de-fonds": {"latitude": 47.1034892, "longitude": 6.832783800000001, "race": "BCN Tour La Chaux-de-fonds", "date": {"mer. 12.05.2010": {"year": 2010, "day": 12, "month": 5, "categories": {"KG3": {"distance": 4, "rank": 38, "pace": 285000000000, "time": 1112.9}}, "weekday": "wednesday", "livingplace": "Bole"}}, "location": "La Chaux-de-Fonds"}, "BCN Tour Colombier": {"latitude": 46.9668714, "longitude": 6.8589727, "race": "BCN Tour Colombier", "date": {"mer. 23.04.2008": {"year": 2008, "day": 23, "month": 4, "categories": {"KG2": {"distance": 2, "rank": 33, "pace": 327000000000, "time": 654.5}}, "weekday": "wednesday", "livingplace": "Bole"}, "mer. 21.04.2010": {"year": 2010, "day": 21, "month": 4, "categories": {"KG3": {"distance": 4, "rank": 39, "pace": 311000000000, "time": 1247.6}}, "weekday": "wednesday", "livingplace": "Bole"}}, "location": "Colombier NE"}, "Kerzerslauf": {"latitude": 46.97488999999999, "longitude": 7.1954365, "race": "Kerzerslauf", "date": {"sam. 21.03.2015": {"year": 2015, "day": 21, "month": 3, "categories": {"15-U20M": {"distance": 15, "rank": 26, "pace": 334000000000, "time": 5012.8}}, "weekday": "saturday", "livingplace": "Bole"}}, "location": "Kerzers"}}, "birth": 1997}