{"name": "Rochat Deborah", "sex": "F", "races": {"Tour du Pays de Vaud #2 - Genolier": {"latitude": 46.5955273, "longitude": 6.7702883, "race": "Tour du Pays de Vaud #2 - Genolier", "date": {"mer. 15.08.2012": {"year": 2012, "day": 15, "month": 8, "categories": {"D-Jun": {"distance": 9, "rank": 3, "pace": 321000000000, "time": 2728.7}}, "weekday": "wednesday", "livingplace": "Les Bioux"}, "mer. 17.08.2011": {"year": 2011, "day": 17, "month": 8, "categories": {"D-Jun": {"distance": 9, "rank": 6, "pace": 321000000000, "time": 2736.4}}, "weekday": "wednesday", "livingplace": "Les Bioux"}}, "location": "M\u00e9zi\u00e8res VD"}, "Tour du Pays de Vaud #4, La Sarraz": {"latitude": 46.7088129, "longitude": 6.5707689, "race": "Tour du Pays de Vaud #4, La Sarraz", "date": {"mer. 03.09.2014": {"year": 2014, "day": 3, "month": 9, "categories": {"D-Dam": {"distance": 9, "rank": 40, "pace": 351000000000, "time": 2989.7}}, "weekday": "wednesday", "livingplace": "Les Bioux"}}, "location": "Chavornay"}, "Tour du pays de Vaud #6 - St  Prex": {"latitude": 46.4829113, "longitude": 6.458343500000001, "race": "Tour du pays de Vaud #6 - St  Prex", "date": {"mer. 14.09.2011": {"year": 2011, "day": 14, "month": 9, "categories": {"D-Jun": {"distance": 9, "rank": 11, "pace": 324000000000, "time": 2787.6}}, "weekday": "wednesday", "livingplace": "Les Bioux"}}, "location": "St-Prex"}, "Tour du Pays de Vaud #2 - Mezi\u00e8res": {"latitude": 46.5955273, "longitude": 6.7702883, "race": "Tour du Pays de Vaud #2 - Mezi\u00e8res", "date": {"mer. 21.08.2013": {"year": 2013, "day": 21, "month": 8, "categories": {"D-Jun": {"distance": 8, "rank": 5, "pace": 367000000000, "time": 2980.5}}, "weekday": "wednesday", "livingplace": "Les Bioux"}}, "location": "M\u00e9zi\u00e8res VD"}, "Tour du Pays de Vaud #2, Mezi\u00e8res": {"latitude": 46.5955273, "longitude": 6.7702883, "race": "Tour du Pays de Vaud #2, Mezi\u00e8res", "date": {"mer. 20.08.2014": {"year": 2014, "day": 20, "month": 8, "categories": {"D-Dam": {"distance": 8, "rank": 35, "pace": 385000000000, "time": 3122.0}}, "weekday": "wednesday", "livingplace": "Les Bioux"}}, "location": "M\u00e9zi\u00e8res VD"}, "Tour du pays de Vaud #1 - Mezi\u00e8res": {"latitude": 46.7784736, "longitude": 6.641183, "race": "Tour du pays de Vaud #1 - Mezi\u00e8res", "date": {"mer. 10.08.2011": {"year": 2011, "day": 10, "month": 8, "categories": {"D-Jun": {"distance": 9, "rank": 9, "pace": 310000000000, "time": 2636.3}}, "weekday": "wednesday", "livingplace": "Les Bioux"}}, "location": "Yverdon-les-Bains"}, "Tour du Pays de Vaud #3 - Mezi\u00e8res": {"latitude": 46.7784736, "longitude": 6.641183, "race": "Tour du Pays de Vaud #3 - Mezi\u00e8res", "date": {"mer. 22.08.2012": {"year": 2012, "day": 22, "month": 8, "categories": {"D-Jun": {"distance": 8, "rank": 6, "pace": 386000000000, "time": 3244.0}}, "weekday": "wednesday", "livingplace": "Les Bioux"}}, "location": "Yverdon-les-Bains"}, "20km de Lausanne": {"latitude": 46.5196535, "longitude": 6.6322734, "race": "20km de Lausanne", "date": {"sam. 26.04.2014": {"year": 2014, "day": 26, "month": 4, "categories": {"10-F20": {"distance": 10, "rank": 658, "pace": 367000000000, "time": 3677.2}}, "weekday": "saturday", "livingplace": "Club"}}, "location": "Lausanne"}, "Tour du Pays de Vaud #4 - La Sarraz": {"latitude": 46.7088129, "longitude": 6.5707689, "race": "Tour du Pays de Vaud #4 - La Sarraz", "date": {"mer. 29.08.2012": {"year": 2012, "day": 29, "month": 8, "categories": {"D-Jun": {"distance": 9, "rank": 3, "pace": 307000000000, "time": 2615.5}}, "weekday": "wednesday", "livingplace": "Les Bioux"}, "mer. 04.09.2013": {"year": 2013, "day": 4, "month": 9, "categories": {"D-Jun": {"distance": 9, "rank": 8, "pace": 346000000000, "time": 2944.0}}, "weekday": "wednesday", "livingplace": "Les Bioux"}}, "location": "Chavornay"}, "Tour du Pays de Vaud #3, Chavornay": {"latitude": 46.7784736, "longitude": 6.641183, "race": "Tour du Pays de Vaud #3, Chavornay", "date": {"mer. 27.08.2014": {"year": 2014, "day": 27, "month": 8, "categories": {"D-Dam": {"distance": 9, "rank": 31, "pace": 374000000000, "time": 3224.1}}, "weekday": "wednesday", "livingplace": "Les Bioux"}}, "location": "Yverdon-les-Bains"}}, "birth": 1994}