{"name": "Rochat Marcus", "sex": "M", "races": {"Groupe E Tour Fribourg #4, Siviriez": {"latitude": 46.6585092, "longitude": 6.877722, "race": "Groupe E Tour Fribourg #4, Siviriez", "date": {"mer. 10.09.2014": {"year": 2014, "day": 10, "month": 9, "categories": {"EcolA-M": {"distance": 2, "rank": 1, "pace": 206000000000, "time": 391.4}}, "weekday": "wednesday", "livingplace": "Rochefort"}}, "location": "Siviriez"}, "Groupe E Tour Fribourg #3, Kerzers": {"latitude": 46.97488999999999, "longitude": 7.1954365, "race": "Groupe E Tour Fribourg #3, Kerzers", "date": {"mer. 03.09.2014": {"year": 2014, "day": 3, "month": 9, "categories": {"EcolA-M": {"distance": 2, "rank": 1, "pace": 234000000000, "time": 514.8}}, "weekday": "wednesday", "livingplace": "Rochefort"}}, "location": "Kerzers"}, "Groupe E Tour Fribourg #5, Givisiez": {"latitude": 46.8128615, "longitude": 7.131657799999999, "race": "Groupe E Tour Fribourg #5, Givisiez", "date": {"mer. 17.09.2014": {"year": 2014, "day": 17, "month": 9, "categories": {"EcolA-M": {"distance": 3, "rank": 1, "pace": 197000000000, "time": 494.4}}, "weekday": "wednesday", "livingplace": "Rochefort"}}, "location": "Givisiez"}, "Groupe E Tour Fribourg #1, Cousset": {"latitude": 46.81832, "longitude": 6.977279999999999, "race": "Groupe E Tour Fribourg #1, Cousset", "date": {"mer. 20.08.2014": {"year": 2014, "day": 20, "month": 8, "categories": {"EcolA-M": {"distance": 2, "rank": 2, "pace": 216000000000, "time": 498.9}}, "weekday": "wednesday", "livingplace": "Rochefort"}}, "location": "Cousset"}, "Groupe E Tour Fribourg #2, Charmey": {"latitude": 46.6175845, "longitude": 7.1654493, "race": "Groupe E Tour Fribourg #2, Charmey", "date": {"mer. 27.08.2014": {"year": 2014, "day": 27, "month": 8, "categories": {"EcolA-M": {"distance": 2, "rank": 1, "pace": 211000000000, "time": 443.1}}, "weekday": "wednesday", "livingplace": "Rochefort"}}, "location": "Charmey (Gruy\u00e8re)"}}, "birth": 2001}