{"name": "Rochat Vincent", "sex": "M", "races": {"Int  Bieler Cross, Biel-Bienne": {"latitude": 47.1367785, "longitude": 7.2467909, "race": "Int  Bieler Cross, Biel-Bienne", "date": {"dim. 09.11.2014": {"year": 2014, "day": 9, "month": 11, "categories": {"M30": {"distance": 8, "rank": 9, "pace": 251000000000, "time": 2008.7}}, "weekday": "sunday", "livingplace": "Club"}}, "location": "Biel/Bienne"}, "Morat-Fribourg": {"latitude": 46.92922110000001, "longitude": 7.120184, "race": "Morat-Fribourg", "date": {"sam. 05.10.2013": {"year": 2013, "day": 5, "month": 10, "categories": {"17-M20": {"distance": 17, "rank": 245, "pace": 252000000000, "time": 4413.3}}, "weekday": "saturday", "livingplace": "Crans Montana"}, "sam. 06.10.2012": {"year": 2012, "day": 6, "month": 10, "categories": {"17-M20": {"distance": 17, "rank": 231, "pace": 257000000000, "time": 4496.4}}, "weekday": "saturday", "livingplace": "Montana"}}, "location": "Murten"}, "Corrida Bulloise, Bulle": {"latitude": 46.6154512, "longitude": 7.057726799999999, "race": "Corrida Bulloise, Bulle", "date": {"sam. 15.11.2014": {"year": 2014, "day": 15, "month": 11, "categories": {"8-M20": {"distance": 8, "rank": 47, "pace": 240000000000, "time": 1960.5}}, "weekday": "saturday", "livingplace": "Crans Montana"}}, "location": "Bulle"}, "Lausanne Marathon": {"latitude": 46.5196535, "longitude": 6.6322734, "race": "Lausanne Marathon", "date": {"dim. 30.10.2011": {"year": 2011, "day": 30, "month": 10, "categories": {"21-H2": {"distance": 21, "rank": 66, "pace": 250000000000, "time": 5281.3}}, "weekday": "sunday", "livingplace": "Montana"}, "dim. 27.10.2013": {"year": 2013, "day": 27, "month": 10, "categories": {"21-H2": {"distance": 21, "rank": 25, "pace": 243000000000, "time": 5144.2}}, "weekday": "sunday", "livingplace": "Crans Montana"}, "dim. 28.10.2012": {"year": 2012, "day": 28, "month": 10, "categories": {"21-H2": {"distance": 21, "rank": 37, "pace": 241000000000, "time": 5102.7}}, "weekday": "sunday", "livingplace": "Montana"}}, "location": "Lausanne"}, "Sierre-Zinal, Sierre": {"latitude": 46.29413110000001, "longitude": 7.533536199999999, "race": "Sierre-Zinal, Sierre", "date": {"dim. 11.08.2013": {"year": 2013, "day": 11, "month": 8, "categories": {"Elites": {"distance": 31, "rank": 138, "pace": 444000000000, "time": 13790.0}}, "weekday": "sunday", "livingplace": "Crans Montana"}}, "location": "Sierre"}, "20km de Lausanne": {"latitude": 46.5196535, "longitude": 6.6322734, "race": "20km de Lausanne", "date": {"sam. 25.04.2015": {"year": 2015, "day": 25, "month": 4, "categories": {"10-H30": {"distance": 10, "rank": 25, "pace": 234000000000, "time": 2347.5}}, "weekday": "saturday", "livingplace": "Club"}}, "location": "Lausanne"}}, "birth": 1980}