{"name": "Rochat Jean-Pierre", "sex": "M", "races": {"Tour du Chablais #1 Roche": {"latitude": 46.2957462, "longitude": 6.9916269, "race": "Tour du Chablais #1 Roche", "date": {"mer. 07.04.2010": {"year": 2010, "day": 7, "month": 4, "categories": {"M-M60": {"distance": 9, "rank": 38, "pace": 352000000000, "time": 3157.7}}, "weekday": "wednesday", "livingplace": "Jongny"}}, "location": "Ollon VD"}, "Morat-Fribourg": {"latitude": 46.92922110000001, "longitude": 7.120184, "race": "Morat-Fribourg", "date": {"dim. 07.10.2001": {"year": 2001, "day": 7, "month": 10, "categories": {"M50": {"distance": 17, "rank": 96, "pace": 283000000000, "time": 4863.1}}, "weekday": "sunday", "livingplace": "Jongny"}}, "location": "Murten"}, "Tour du Chablais #3 Bex": {"latitude": 46.1782231, "longitude": 7.0223787, "race": "Tour du Chablais #3 Bex", "date": {"mer. 21.04.2010": {"year": 2010, "day": 21, "month": 4, "categories": {"M-M60": {"distance": 10, "rank": 38, "pace": 360000000000, "time": 3605.3}}, "weekday": "wednesday", "livingplace": "Jongny"}}, "location": "Evionnaz"}, "Tour du Chablais #5 Leysin": {"latitude": 46.3603257, "longitude": 6.931504599999999, "race": "Tour du Chablais #5 Leysin", "date": {"mer. 05.05.2010": {"year": 2010, "day": 5, "month": 5, "categories": {"M-M60": {"distance": 8, "rank": 30, "pace": 385000000000, "time": 3254.7}}, "weekday": "wednesday", "livingplace": "Jongny"}}, "location": "Roche VD"}, "Kerzerslauf": {"latitude": 46.97488999999999, "longitude": 7.1954365, "race": "Kerzerslauf", "date": {"sam. 17.03.2001": {"year": 2001, "day": 17, "month": 3, "categories": {"M50": {"distance": 15, "rank": 272, "pace": 356000000000, "time": 5354.6}}, "weekday": "saturday", "livingplace": "Jongny"}}, "location": "Kerzers"}, "Tour du Chablais #2 St-Gingolph": {"latitude": 46.3835529, "longitude": 6.854975199999999, "race": "Tour du Chablais #2 St-Gingolph", "date": {"mer. 14.04.2010": {"year": 2010, "day": 14, "month": 4, "categories": {"M-M60": {"distance": 8, "rank": 36, "pace": 379000000000, "time": 3169.1}}, "weekday": "wednesday", "livingplace": "Jongny"}}, "location": "Bouveret"}}, "birth": 1950}