{"name": "Rochat Dominique", "sex": "M", "races": {"Tour du Pays de Vaud etape 5 - La Sarraz": {"latitude": 46.5993131, "longitude": 6.539251200000001, "race": "Tour du Pays de Vaud etape 5 - La Sarraz", "date": {"mer. 09.09.2009": {"year": 2009, "day": 9, "month": 9, "categories": {"HS2": {"distance": 9, "rank": 148, "pace": 342000000000, "time": 2874.9}}, "weekday": "wednesday", "livingplace": "Le Vaud"}}, "location": "Penthaz"}, "Tour du Pays de Vaud #2 - Genolier": {"latitude": 46.5955273, "longitude": 6.7702883, "race": "Tour du Pays de Vaud #2 - Genolier", "date": {"mer. 18.08.2010": {"year": 2010, "day": 18, "month": 8, "categories": {"HSen2": {"distance": 8, "rank": 137, "pace": 327000000000, "time": 2653.9}}, "weekday": "wednesday", "livingplace": "Le Vaud"}}, "location": "M\u00e9zi\u00e8res VD"}, "Tour du Pays de Vaud #4, La Sarraz": {"latitude": 46.7088129, "longitude": 6.5707689, "race": "Tour du Pays de Vaud #4, La Sarraz", "date": {"mer. 03.09.2014": {"year": 2014, "day": 3, "month": 9, "categories": {"H-Sen2": {"distance": 9, "rank": 126, "pace": 336000000000, "time": 2858.6}}, "weekday": "wednesday", "livingplace": "Les Bioux"}}, "location": "Chavornay"}, "Morat-Fribourg": {"latitude": 46.92922110000001, "longitude": 7.120184, "race": "Morat-Fribourg", "date": {"dim. 05.10.2003": {"year": 2003, "day": 5, "month": 10, "categories": {"M20": {"distance": 17, "rank": 1695, "pace": 329000000000, "time": 5663.7}}, "weekday": "sunday", "livingplace": "Le Vaud"}, "dim. 06.10.2002": {"year": 2002, "day": 6, "month": 10, "categories": {"M20": {"distance": 17, "rank": 1597, "pace": 317000000000, "time": 5452.3}}, "weekday": "sunday", "livingplace": "Le Vaud"}}, "location": "Murten"}, "Tour du Pays de Vaud etape 2 - Genolier": {"latitude": 46.5955273, "longitude": 6.7702883, "race": "Tour du Pays de Vaud etape 2 - Genolier", "date": {"mer. 19.08.2009": {"year": 2009, "day": 19, "month": 8, "categories": {"HSen2": {"distance": 8, "rank": 154, "pace": 366000000000, "time": 2971.7}}, "weekday": "wednesday", "livingplace": "Le Vaud"}}, "location": "M\u00e9zi\u00e8res VD"}, "Tour du Pays de Vaud #2 - Mezi\u00e8res": {"latitude": 46.5955273, "longitude": 6.7702883, "race": "Tour du Pays de Vaud #2 - Mezi\u00e8res", "date": {"mer. 21.08.2013": {"year": 2013, "day": 21, "month": 8, "categories": {"H-Sen2": {"distance": 8, "rank": 149, "pace": 369000000000, "time": 2994.8}}, "weekday": "wednesday", "livingplace": "Les Bioux"}}, "location": "M\u00e9zi\u00e8res VD"}, "Tour du Pays de Vaud #4 - La Sarraz": {"latitude": 46.7088129, "longitude": 6.5707689, "race": "Tour du Pays de Vaud #4 - La Sarraz", "date": {"mer. 04.09.2013": {"year": 2013, "day": 4, "month": 9, "categories": {"H-Sen2": {"distance": 9, "rank": 173, "pace": 350000000000, "time": 2980.8}}, "weekday": "wednesday", "livingplace": "Les Bioux"}}, "location": "Chavornay"}, "Tour du Pays de Vaud #3, Chavornay": {"latitude": 46.7784736, "longitude": 6.641183, "race": "Tour du Pays de Vaud #3, Chavornay", "date": {"mer. 27.08.2014": {"year": 2014, "day": 27, "month": 8, "categories": {"H-Sen2": {"distance": 9, "rank": 136, "pace": 360000000000, "time": 3100.2}}, "weekday": "wednesday", "livingplace": "Les Bioux"}}, "location": "Yverdon-les-Bains"}}, "birth": 1969}