{"name": "R\u00f6ck Franziska", "sex": "F", "races": {"Schweizer Frauenlauf Bern": {"latitude": 46.9479739, "longitude": 7.4474468, "race": "Schweizer Frauenlauf Bern", "date": {"dim. 10.06.2007": {"year": 2007, "day": 10, "month": 6, "categories": {"10/W35": {"distance": 10, "rank": 144, "pace": 316000000000, "time": 3166.5}}, "weekday": "sunday", "livingplace": "Moriken"}, "dim. 11.06.2006": {"year": 2006, "day": 11, "month": 6, "categories": {"10-W35": {"distance": 10, "rank": 145, "pace": 315000000000, "time": 3153.3}}, "weekday": "sunday", "livingplace": "Moriken"}}, "location": "Bern"}, "Lucerne Marathon, Luzern": {"latitude": 47.05016819999999, "longitude": 8.3093072, "race": "Lucerne Marathon, Luzern", "date": {"dim. 31.10.2010": {"year": 2010, "day": 31, "month": 10, "categories": {"H-F40": {"distance": 21, "rank": 341, "pace": 354000000000, "time": 7475.8}}, "weekday": "sunday", "livingplace": "Moriken"}}, "location": "Luzern"}, "Z\u00fcrich Marathon, Teamrun und Cityrun": {"latitude": 47.3768866, "longitude": 8.541694, "race": "Z\u00fcrich Marathon, Teamrun und Cityrun", "date": {"dim. 09.04.2006": {"year": 2006, "day": 9, "month": 4, "categories": {"W30": {"distance": 42, "rank": 198, "pace": 343000000000, "time": 14511.8}}, "weekday": "sunday", "livingplace": "Moriken"}, "dim. 03.04.2005": {"year": 2005, "day": 3, "month": 4, "categories": {"W30": {"distance": 42, "rank": 242, "pace": 356000000000, "time": 15056.8}}, "weekday": "sunday", "livingplace": "Moriken"}}, "location": "Z\u00fcrich"}, "ASICS Bremgarter Reusslauf": {"latitude": 47.34917739999999, "longitude": 8.3397905, "race": "ASICS Bremgarter Reusslauf", "date": {"sam. 25.02.2006": {"year": 2006, "day": 25, "month": 2, "categories": {"F30": {"distance": 11, "rank": 72, "pace": 308000000000, "time": 3240.4}}, "weekday": "saturday", "livingplace": "Moriken"}}, "location": "Bremgarten AG"}, "Int Greifenseelauf, Uster": {"latitude": 47.3482747, "longitude": 8.717873899999999, "race": "Int Greifenseelauf, Uster", "date": {"sam. 22.09.2007": {"year": 2007, "day": 22, "month": 9, "categories": {"K/W35": {"distance": 21, "rank": 199, "pace": 345000000000, "time": 7292.4}}, "weekday": "saturday", "livingplace": "Moriken"}, "sam. 18.09.2004": {"year": 2004, "day": 18, "month": 9, "categories": {"H/W35": {"distance": 21, "rank": 147, "pace": 325000000000, "time": 6865.2}}, "weekday": "saturday", "livingplace": "Moriken"}}, "location": "Uster"}}, "birth": 1968}