{"name": "Roelli Josef", "sex": "M", "races": {"Morat-Fribourg": {"latitude": 46.92922110000001, "longitude": 7.120184, "race": "Morat-Fribourg", "date": {"sam. 04.10.2014": {"year": 2014, "day": 4, "month": 10, "categories": {"17-M50": {"distance": 17, "rank": 3, "pace": 238000000000, "time": 4101.8}}, "weekday": "saturday", "livingplace": "Muntelier"}}, "location": "Murten"}, "La Trotteuse-Tissot, La Chaux-de-Fonds": {"latitude": 47.1034892, "longitude": 6.832783800000001, "race": "La Trotteuse-Tissot, La Chaux-de-Fonds", "date": {"sam. 12.12.2015": {"year": 2015, "day": 12, "month": 12, "categories": {"GC-H50": {"distance": 8, "rank": 4, "pace": 224000000000, "time": 1796.0}}, "weekday": "saturday", "livingplace": "Cloros Team"}, "sam. 13.12.2014": {"year": 2014, "day": 13, "month": 12, "categories": {"GC-H50": {"distance": 8, "rank": 3, "pace": 222000000000, "time": 1776.9}}, "weekday": "saturday", "livingplace": "Muntelier"}}, "location": "La Chaux-de-Fonds"}, "BCN Tour Neuch\u00e2tel": {"latitude": 46.9899874, "longitude": 6.9292732, "race": "BCN Tour Neuch\u00e2tel", "date": {"mer. 26.05.2010": {"year": 2010, "day": 26, "month": 5, "categories": {"HS2": {"distance": 10, "rank": 5, "pace": 238000000000, "time": 2313.5}}, "weekday": "wednesday", "livingplace": "Muntelier"}}, "location": "Neuch\u00e2tel"}, "BCN Tour Le Locle": {"latitude": 46.999113, "longitude": 6.733554799999999, "race": "BCN Tour Le Locle", "date": {"mer. 05.05.2010": {"year": 2010, "day": 5, "month": 5, "categories": {"HS2": {"distance": 11, "rank": 8, "pace": 234000000000, "time": 2552.2}}, "weekday": "wednesday", "livingplace": "Muntelier"}}, "location": "Les Ponts-de-Martel"}, "BCN Tour La Chaux-de-fonds": {"latitude": 47.1034892, "longitude": 6.832783800000001, "race": "BCN Tour La Chaux-de-fonds", "date": {"mer. 12.05.2010": {"year": 2010, "day": 12, "month": 5, "categories": {"HS2": {"distance": 11, "rank": 9, "pace": 283000000000, "time": 3036.0}}, "weekday": "wednesday", "livingplace": "Muntelier"}}, "location": "La Chaux-de-Fonds"}, "BCN Tour Colombier": {"latitude": 46.9668714, "longitude": 6.8589727, "race": "BCN Tour Colombier", "date": {"mer. 21.04.2010": {"year": 2010, "day": 21, "month": 4, "categories": {"HS2": {"distance": 10, "rank": 8, "pace": 250000000000, "time": 2509.0}}, "weekday": "wednesday", "livingplace": "Muntelier"}}, "location": "Colombier NE"}, "Kerzerslauf": {"latitude": 46.97488999999999, "longitude": 7.1954365, "race": "Kerzerslauf", "date": {"sam. 21.03.2015": {"year": 2015, "day": 21, "month": 3, "categories": {"15-M50": {"distance": 15, "rank": 5, "pace": 226000000000, "time": 3394.5}}, "weekday": "saturday", "livingplace": "Muntelier"}}, "location": "Kerzers"}}, "birth": 1963}