{"name": "Rogova Mehmet", "sex": "M", "races": {"Tour du Chablais #1 Roche": {"latitude": 46.2957462, "longitude": 6.9916269, "race": "Tour du Chablais #1 Roche", "date": {"mer. 07.04.2010": {"year": 2010, "day": 7, "month": 4, "categories": {"M-M20": {"distance": 9, "rank": 139, "pace": 279000000000, "time": 2499.4}}, "weekday": "wednesday", "livingplace": "Vouvry"}}, "location": "Ollon VD"}, "Tour du Chablais #6 Mouthey": {"latitude": 46.3190253, "longitude": 6.970566, "race": "Tour du Chablais #6 Mouthey", "date": {"mer. 12.05.2010": {"year": 2010, "day": 12, "month": 5, "categories": {"M-M20": {"distance": 9, "rank": 112, "pace": 264000000000, "time": 2431.6}}, "weekday": "wednesday", "livingplace": "Vouvry"}}, "location": "Aigle"}, "Tour du Chablais #4 Yvorne": {"latitude": NaN, "longitude": NaN, "race": "Tour du Chablais #4 Yvorne", "date": {"mer. 28.04.2010": {"year": 2010, "day": 28, "month": 4, "categories": {"M-M20": {"distance": 8, "rank": 125, "pace": 299000000000, "time": 2476.0}}, "weekday": "wednesday", "livingplace": "Vouvry"}}, "location": "Les Mosses"}, "Tour du Chablais #3 Bex": {"latitude": 46.1782231, "longitude": 7.0223787, "race": "Tour du Chablais #3 Bex", "date": {"mer. 21.04.2010": {"year": 2010, "day": 21, "month": 4, "categories": {"M-M20": {"distance": 10, "rank": 127, "pace": 290000000000, "time": 2909.2}}, "weekday": "wednesday", "livingplace": "Vouvry"}}, "location": "Evionnaz"}, "Tour du Chablais #5 Leysin": {"latitude": 46.3603257, "longitude": 6.931504599999999, "race": "Tour du Chablais #5 Leysin", "date": {"mer. 05.05.2010": {"year": 2010, "day": 5, "month": 5, "categories": {"M-M20": {"distance": 8, "rank": 113, "pace": 315000000000, "time": 2668.5}}, "weekday": "wednesday", "livingplace": "Vouvry"}}, "location": "Roche VD"}, "Tour du Chablais #2 St-Gingolph": {"latitude": 46.3835529, "longitude": 6.854975199999999, "race": "Tour du Chablais #2 St-Gingolph", "date": {"mer. 14.04.2010": {"year": 2010, "day": 14, "month": 4, "categories": {"M-M20": {"distance": 8, "rank": 95, "pace": 294000000000, "time": 2455.9}}, "weekday": "wednesday", "livingplace": "Vouvry"}}, "location": "Bouveret"}}, "birth": 1987}