{"name": "Rohner Frederic", "sex": "M", "races": {"Tour du pays de Vaud #1 \u2013 St  Prex": {"latitude": 46.7784736, "longitude": 6.641183, "race": "Tour du pays de Vaud #1 \u2013 St  Prex", "date": {"mer. 11.08.2010": {"year": 2010, "day": 11, "month": 8, "categories": {"Hom": {"distance": 8, "rank": 52, "pace": 307000000000, "time": 2581.1}}, "weekday": "wednesday", "livingplace": "Sullens"}}, "location": "Yverdon-les-Bains"}, "Tour du Pays de Vaud #2 - Genolier": {"latitude": 46.5955273, "longitude": 6.7702883, "race": "Tour du Pays de Vaud #2 - Genolier", "date": {"mer. 15.08.2012": {"year": 2012, "day": 15, "month": 8, "categories": {"H-Sen1": {"distance": 9, "rank": 72, "pace": 280000000000, "time": 2382.7}}, "weekday": "wednesday", "livingplace": "La Sarraz"}, "mer. 17.08.2011": {"year": 2011, "day": 17, "month": 8, "categories": {"H-Sen1": {"distance": 9, "rank": 56, "pace": 276000000000, "time": 2346.2}}, "weekday": "wednesday", "livingplace": "La Sarraz"}}, "location": "M\u00e9zi\u00e8res VD"}, "Lausanne Marathon": {"latitude": 46.5196535, "longitude": 6.6322734, "race": "Lausanne Marathon", "date": {"dim. 30.10.2011": {"year": 2011, "day": 30, "month": 10, "categories": {"21-H2": {"distance": 21, "rank": 238, "pace": 280000000000, "time": 5911.4}}, "weekday": "sunday", "livingplace": "La Sarraz"}}, "location": "Lausanne"}, "Tour du pays de Vaud #1 - Penthaz": {"latitude": 46.5993131, "longitude": 6.539251200000001, "race": "Tour du pays de Vaud #1 - Penthaz", "date": {"mer. 08.08.2012": {"year": 2012, "day": 8, "month": 8, "categories": {"H-Sen1": {"distance": 9, "rank": 49, "pace": 271000000000, "time": 2318.2}}, "weekday": "wednesday", "livingplace": "La Sarraz"}}, "location": "Penthaz"}, "Morat-Fribourg": {"latitude": 46.92922110000001, "longitude": 7.120184, "race": "Morat-Fribourg", "date": {"sam. 02.10.2010": {"year": 2010, "day": 2, "month": 10, "categories": {"17-M20": {"distance": 17, "rank": 1379, "pace": 330000000000, "time": 5669.0}}, "weekday": "saturday", "livingplace": "Sullens"}, "sam. 01.10.2011": {"year": 2011, "day": 1, "month": 10, "categories": {"17-M20": {"distance": 17, "rank": 981, "pace": 303000000000, "time": 5217.6}}, "weekday": "saturday", "livingplace": "La Sarraz"}, "sam. 06.10.2012": {"year": 2012, "day": 6, "month": 10, "categories": {"17-M20": {"distance": 17, "rank": 853, "pace": 294000000000, "time": 5133.7}}, "weekday": "saturday", "livingplace": "La Sarraz"}}, "location": "Murten"}, "Tour du pays de Vaud #1 - Mezi\u00e8res": {"latitude": 46.7784736, "longitude": 6.641183, "race": "Tour du pays de Vaud #1 - Mezi\u00e8res", "date": {"mer. 10.08.2011": {"year": 2011, "day": 10, "month": 8, "categories": {"H-Sen1": {"distance": 9, "rank": 62, "pace": 275000000000, "time": 2338.3}}, "weekday": "wednesday", "livingplace": "La Sarraz"}}, "location": "Yverdon-les-Bains"}, "Tour du pays de Vaud #5 - Penthaz": {"latitude": 46.5993131, "longitude": 6.539251200000001, "race": "Tour du pays de Vaud #5 - Penthaz", "date": {"mer. 07.09.2011": {"year": 2011, "day": 7, "month": 9, "categories": {"H-Sen1": {"distance": 8, "rank": 56, "pace": 301000000000, "time": 2518.5}}, "weekday": "wednesday", "livingplace": "La Sarraz"}}, "location": "Penthaz"}, "Tour du Pays de Vaud #5 - La Sarraz": {"latitude": 46.5993131, "longitude": 6.539251200000001, "race": "Tour du Pays de Vaud #5 - La Sarraz", "date": {"mer. 08.09.2010": {"year": 2010, "day": 8, "month": 9, "categories": {"Hom": {"distance": 9, "rank": 56, "pace": 302000000000, "time": 2752.0}}, "weekday": "wednesday", "livingplace": "Sullens"}}, "location": "Penthaz"}, "Tour du Pays de Vaud #4 - La Sarraz": {"latitude": 46.7088129, "longitude": 6.5707689, "race": "Tour du Pays de Vaud #4 - La Sarraz", "date": {"mer. 29.08.2012": {"year": 2012, "day": 29, "month": 8, "categories": {"H-Sen1": {"distance": 9, "rank": 83, "pace": 276000000000, "time": 2347.7}}, "weekday": "wednesday", "livingplace": "La Sarraz"}}, "location": "Chavornay"}, "20km de Lausanne": {"latitude": 46.5196535, "longitude": 6.6322734, "race": "20km de Lausanne", "date": {"sam. 30.04.2011": {"year": 2011, "day": 30, "month": 4, "categories": {"10-H30": {"distance": 10, "rank": 126, "pace": 267000000000, "time": 2676.3}}, "weekday": "saturday", "livingplace": "La Sarraz"}, "sam. 28.04.2012": {"year": 2012, "day": 28, "month": 4, "categories": {"20-H30": {"distance": 20, "rank": 363, "pace": 303000000000, "time": 6073.1}}, "weekday": "saturday", "livingplace": "La Sarraz"}, "sam. 26.04.2014": {"year": 2014, "day": 26, "month": 4, "categories": {"20-H30": {"distance": 20, "rank": 572, "pace": 314000000000, "time": 6282.5}}, "weekday": "saturday", "livingplace": "La Sarraz"}}, "location": "Lausanne"}}, "birth": 1981}