{"name": "Rohrbach Maria", "sex": "F", "races": {"Bl\u00fcemlisalp-Lauf, Reichenbach": {"latitude": 46.6254387, "longitude": 7.6940529, "race": "Bl\u00fcemlisalp-Lauf, Reichenbach", "date": {"dim. 31.05.2009": {"year": 2009, "day": 31, "month": 5, "categories": {"TeamF": {"distance": 16, "rank": 3, "pace": 373000000000, "time": 6008.9}}, "weekday": "sunday", "livingplace": "Heimberg"}}, "location": "Reichenbach im Kandertal"}, "Thuner Stadtlauf, Thun": {"latitude": 46.7579868, "longitude": 7.6279881, "race": "Thuner Stadtlauf, Thun", "date": {"dim. 27.08.2006": {"year": 2006, "day": 27, "month": 8, "categories": {"W20": {"distance": 10, "rank": 13, "pace": 280000000000, "time": 2804.6}}, "weekday": "sunday", "livingplace": "Lanzenhausern"}, "dim. 26.08.2007": {"year": 2007, "day": 26, "month": 8, "categories": {"10/W20": {"distance": 10, "rank": 7, "pace": 264000000000, "time": 2649.2}}, "weekday": "sunday", "livingplace": "Lanzenhausern"}}, "location": "Thun"}, "Schweizer Frauenlauf Bern": {"latitude": 46.9479739, "longitude": 7.4474468, "race": "Schweizer Frauenlauf Bern", "date": {"dim. 10.06.2012": {"year": 2012, "day": 10, "month": 6, "categories": {"5-W20": {"distance": 5, "rank": 453, "pace": 339000000000, "time": 1697.9}}, "weekday": "sunday", "livingplace": "Heimberg"}, "dim. 10.06.2007": {"year": 2007, "day": 10, "month": 6, "categories": {"10/W20": {"distance": 10, "rank": 80, "pace": 295000000000, "time": 2950.7}}, "weekday": "sunday", "livingplace": "Lanzenhausern"}, "dim. 11.06.2006": {"year": 2006, "day": 11, "month": 6, "categories": {"5-W20": {"distance": 5, "rank": 57, "pace": 279000000000, "time": 1398.0}}, "weekday": "sunday", "livingplace": "Lanzenhausern"}}, "location": "Bern"}, "Steinh\u00f6lzlilauf, Liebefeld": {"latitude": 46.933331, "longitude": 7.416668, "race": "Steinh\u00f6lzlilauf, Liebefeld", "date": {"dim. 07.12.2008": {"year": 2008, "day": 7, "month": 12, "categories": {"HauptF": {"distance": 11, "rank": 8, "pace": 287000000000, "time": 3017.9}}, "weekday": "sunday", "livingplace": "Langgasse"}, "dim. 02.12.2007": {"year": 2007, "day": 2, "month": 12, "categories": {"HauptF": {"distance": 11, "rank": 2, "pace": 272000000000, "time": 2856.7}}, "weekday": "sunday", "livingplace": "Bern"}}, "location": "Liebefeld"}, "Gurtenclassic, Wabern": {"latitude": 46.92901639999999, "longitude": 7.448973199999999, "race": "Gurtenclassic, Wabern", "date": {"dim. 05.11.2006": {"year": 2006, "day": 5, "month": 11, "categories": {"KW20": {"distance": 8, "rank": 24, "pace": 348000000000, "time": 2925.0}}, "weekday": "sunday", "livingplace": "Lanzenhausern"}}, "location": "Wabern"}, "Z\u00fcrcher Silvesterlauf, Z\u00fcrich": {"latitude": 47.3768866, "longitude": 8.541694, "race": "Z\u00fcrcher Silvesterlauf, Z\u00fcrich", "date": {"dim. 16.12.2007": {"year": 2007, "day": 16, "month": 12, "categories": {"DaHK-8": {"distance": 9, "rank": 29, "pace": 263000000000, "time": 2269.8}}, "weekday": "sunday", "livingplace": "Lanzenhausern"}}, "location": "Z\u00fcrich"}, "Kerzerslauf": {"latitude": 46.97488999999999, "longitude": 7.1954365, "race": "Kerzerslauf", "date": {"sam. 17.03.2007": {"year": 2007, "day": 17, "month": 3, "categories": {"F20": {"distance": 15, "rank": 79, "pace": 287000000000, "time": 4314.6}}, "weekday": "saturday", "livingplace": "Lanzenhausern"}}, "location": "Kerzers"}}, "birth": 1984}