{"name": "Rol\u00e0o Jo\u00e0o", "sex": "M", "races": {"Tour du Pays de Vaud etape 5 - La Sarraz": {"latitude": 46.5993131, "longitude": 6.539251200000001, "race": "Tour du Pays de Vaud etape 5 - La Sarraz", "date": {"mer. 10.09.2008": {"year": 2008, "day": 10, "month": 9, "categories": {"HomSen2": {"distance": 9, "rank": 30, "pace": 241000000000, "time": 2074.5}}, "weekday": "wednesday", "livingplace": "Montcherand"}}, "location": "Penthaz"}, "Tour du pays de Vaud #1 \u2013 St  Prex": {"latitude": 46.7784736, "longitude": 6.641183, "race": "Tour du pays de Vaud #1 \u2013 St  Prex", "date": {"mer. 11.08.2010": {"year": 2010, "day": 11, "month": 8, "categories": {"HSen2": {"distance": 8, "rank": 33, "pace": 271000000000, "time": 2280.5}}, "weekday": "wednesday", "livingplace": "Montcherand"}}, "location": "Yverdon-les-Bains"}, "Tour du Pays de Vaud printanier #1 Moudon": {"latitude": 46.3832683, "longitude": 6.2347852, "race": "Tour du Pays de Vaud printanier #1 Moudon", "date": {"mer. 04.06.2014": {"year": 2014, "day": 4, "month": 6, "categories": {"H-Sen3": {"distance": 8, "rank": 6, "pace": 267000000000, "time": 2247.6}}, "weekday": "wednesday", "livingplace": "Montcherand"}}, "location": "Nyon"}, "Tour du pays de Vaud #6 - St  Prex": {"latitude": 46.4829113, "longitude": 6.458343500000001, "race": "Tour du pays de Vaud #6 - St  Prex", "date": {"mer. 14.09.2011": {"year": 2011, "day": 14, "month": 9, "categories": {"H-Sen2": {"distance": 9, "rank": 44, "pace": 256000000000, "time": 2201.8}}, "weekday": "wednesday", "livingplace": "Montcherand"}}, "location": "St-Prex"}, "Tour du Pays de Vaud #2, Mezi\u00e8res": {"latitude": 46.5955273, "longitude": 6.7702883, "race": "Tour du Pays de Vaud #2, Mezi\u00e8res", "date": {"mer. 20.08.2014": {"year": 2014, "day": 20, "month": 8, "categories": {"H-Sen3": {"distance": 8, "rank": 15, "pace": 286000000000, "time": 2322.9}}, "weekday": "wednesday", "livingplace": "Montcherand"}}, "location": "M\u00e9zi\u00e8res VD"}, "Tour du Pays de Vaud printanier #1 Chavornay": {"latitude": 46.3832683, "longitude": 6.2347852, "race": "Tour du Pays de Vaud printanier #1 Chavornay", "date": {"mer. 30.05.2012": {"year": 2012, "day": 30, "month": 5, "categories": {"H-Sen3": {"distance": 9, "rank": 7, "pace": 266000000000, "time": 2383.9}}, "weekday": "wednesday", "livingplace": "Montcherand"}}, "location": "Nyon"}, "Tour du pays de Vaud #1 - Mezi\u00e8res": {"latitude": 46.7784736, "longitude": 6.641183, "race": "Tour du pays de Vaud #1 - Mezi\u00e8res", "date": {"mer. 10.08.2011": {"year": 2011, "day": 10, "month": 8, "categories": {"H-Sen2": {"distance": 9, "rank": 37, "pace": 251000000000, "time": 2141.8}}, "weekday": "wednesday", "livingplace": "Montcherand"}}, "location": "Yverdon-les-Bains"}, "Tour du Pays de Vaud #3 - Mezi\u00e8res": {"latitude": 46.7784736, "longitude": 6.641183, "race": "Tour du Pays de Vaud #3 - Mezi\u00e8res", "date": {"mer. 22.08.2012": {"year": 2012, "day": 22, "month": 8, "categories": {"H-Sen3": {"distance": 8, "rank": 15, "pace": 274000000000, "time": 2303.7}}, "weekday": "wednesday", "livingplace": "Montcherand"}}, "location": "Yverdon-les-Bains"}, "Tour du Pays de Vaud etape 1 - Le Mont sur Lausanne": {"latitude": 46.7784736, "longitude": 6.641183, "race": "Tour du Pays de Vaud etape 1 - Le Mont sur Lausanne", "date": {"mer. 15.08.2007": {"year": 2007, "day": 15, "month": 8, "categories": {"HS2": {"distance": 8, "rank": 37, "pace": 257000000000, "time": 2138.6}}, "weekday": "wednesday", "livingplace": "Montcherand"}, "mer. 12.08.2009": {"year": 2009, "day": 12, "month": 8, "categories": {"HS2": {"distance": 9, "rank": 35, "pace": 269000000000, "time": 2510.2}}, "weekday": "wednesday", "livingplace": "Montcherand"}}, "location": "Yverdon-les-Bains"}, "Tour du pays de Vaud #1 - Penthaz": {"latitude": 46.5993131, "longitude": 6.539251200000001, "race": "Tour du pays de Vaud #1 - Penthaz", "date": {"mer. 14.08.2013": {"year": 2013, "day": 14, "month": 8, "categories": {"H-Sen3": {"distance": 9, "rank": 9, "pace": 256000000000, "time": 2185.1}}, "weekday": "wednesday", "livingplace": "Montcherand"}}, "location": "Penthaz"}, "Tour du Pays de Vaud #3 - Chavornay": {"latitude": 46.7784736, "longitude": 6.641183, "race": "Tour du Pays de Vaud #3 - Chavornay", "date": {"mer. 28.08.2013": {"year": 2013, "day": 28, "month": 8, "categories": {"H-Sen3": {"distance": 9, "rank": 11, "pace": 253000000000, "time": 2252.8}}, "weekday": "wednesday", "livingplace": "Montcherand"}}, "location": "Yverdon-les-Bains"}, "Tour du Pays de Vaud #3, Chavornay": {"latitude": 46.7784736, "longitude": 6.641183, "race": "Tour du Pays de Vaud #3, Chavornay", "date": {"mer. 27.08.2014": {"year": 2014, "day": 27, "month": 8, "categories": {"H-Sen3": {"distance": 9, "rank": 8, "pace": 268000000000, "time": 2306.4}}, "weekday": "wednesday", "livingplace": "Montcherand"}}, "location": "Yverdon-les-Bains"}, "Tour du Pays de Vaud #2 - Genolier": {"latitude": 46.5955273, "longitude": 6.7702883, "race": "Tour du Pays de Vaud #2 - Genolier", "date": {"mer. 15.08.2012": {"year": 2012, "day": 15, "month": 8, "categories": {"H-Sen3": {"distance": 9, "rank": 16, "pace": 256000000000, "time": 2179.7}}, "weekday": "wednesday", "livingplace": "Montcherand"}, "mer. 18.08.2010": {"year": 2010, "day": 18, "month": 8, "categories": {"HSen2": {"distance": 8, "rank": 35, "pace": 265000000000, "time": 2146.6}}, "weekday": "wednesday", "livingplace": "Montcherand"}}, "location": "M\u00e9zi\u00e8res VD"}, "Tour du Pays de Vaud #4, La Sarraz": {"latitude": 46.7088129, "longitude": 6.5707689, "race": "Tour du Pays de Vaud #4, La Sarraz", "date": {"mer. 03.09.2014": {"year": 2014, "day": 3, "month": 9, "categories": {"H-Sen3": {"distance": 9, "rank": 12, "pace": 259000000000, "time": 2203.6}}, "weekday": "wednesday", "livingplace": "Montcherand"}}, "location": "Chavornay"}, "Tour du Pays de Vaud printanier #3 - Yens": {"latitude": 46.7829756, "longitude": 6.5728678, "race": "Tour du Pays de Vaud printanier #3 - Yens", "date": {"mer. 12.06.2013": {"year": 2013, "day": 12, "month": 6, "categories": {"H-Sen3": {"distance": 9, "rank": 8, "pace": 262000000000, "time": 2384.2}}, "weekday": "wednesday", "livingplace": "Montcherand"}}, "location": "Champvent"}, "Tour du Pays de Vaud #2 - Mezi\u00e8res": {"latitude": 46.5955273, "longitude": 6.7702883, "race": "Tour du Pays de Vaud #2 - Mezi\u00e8res", "date": {"mer. 21.08.2013": {"year": 2013, "day": 21, "month": 8, "categories": {"H-Sen3": {"distance": 8, "rank": 8, "pace": 272000000000, "time": 2208.4}}, "weekday": "wednesday", "livingplace": "Montcherand"}}, "location": "M\u00e9zi\u00e8res VD"}, "Tour du Pays de Vaud etape 2 - Genolier": {"latitude": 46.5955273, "longitude": 6.7702883, "race": "Tour du Pays de Vaud etape 2 - Genolier", "date": {"mer. 20.08.2008": {"year": 2008, "day": 20, "month": 8, "categories": {"HomSen2": {"distance": 8, "rank": 26, "pace": 248000000000, "time": 2059.8}}, "weekday": "wednesday", "livingplace": "Montcherand"}, "mer. 19.08.2009": {"year": 2009, "day": 19, "month": 8, "categories": {"HSen2": {"distance": 8, "rank": 44, "pace": 273000000000, "time": 2216.1}}, "weekday": "wednesday", "livingplace": "Montcherand"}}, "location": "M\u00e9zi\u00e8res VD"}, "Tour du Pays de Vaud etape 3 - Aubonne": {"latitude": 46.7829756, "longitude": 6.5728678, "race": "Tour du Pays de Vaud etape 3 - Aubonne", "date": {"mer. 27.08.2008": {"year": 2008, "day": 27, "month": 8, "categories": {"HomSen2": {"distance": 8, "rank": 32, "pace": 267000000000, "time": 2083.1}}, "weekday": "wednesday", "livingplace": "Montcherand"}, "mer. 29.08.2007": {"year": 2007, "day": 29, "month": 8, "categories": {"HS2": {"distance": 8, "rank": 29, "pace": 258000000000, "time": 2091.2}}, "weekday": "wednesday", "livingplace": "Montcherand"}}, "location": "Champvent"}, "Tour du Pays de Vaud #4 - La Sarraz": {"latitude": 46.7088129, "longitude": 6.5707689, "race": "Tour du Pays de Vaud #4 - La Sarraz", "date": {"mer. 29.08.2012": {"year": 2012, "day": 29, "month": 8, "categories": {"H-Sen3": {"distance": 9, "rank": 18, "pace": 252000000000, "time": 2150.4}}, "weekday": "wednesday", "livingplace": "Montcherand"}, "mer. 04.09.2013": {"year": 2013, "day": 4, "month": 9, "categories": {"H-Sen3": {"distance": 9, "rank": 10, "pace": 257000000000, "time": 2192.4}}, "weekday": "wednesday", "livingplace": "Montcherand"}}, "location": "Chavornay"}, "Tour du Pays de Vaud printanier #2 Yverdon-les-Bains": {"latitude": 46.6698891, "longitude": 6.7975224, "race": "Tour du Pays de Vaud printanier #2 Yverdon-les-Bains", "date": {"mer. 11.06.2014": {"year": 2014, "day": 11, "month": 6, "categories": {"H-Sen3": {"distance": 9, "rank": 9, "pace": 288000000000, "time": 2628.6}}, "weekday": "wednesday", "livingplace": "Montcherand"}, "mer. 05.06.2013": {"year": 2013, "day": 5, "month": 6, "categories": {"H-Sen3": {"distance": 9, "rank": 10, "pace": 271000000000, "time": 2469.2}}, "weekday": "wednesday", "livingplace": "Montcherand"}}, "location": "Moudon"}, "Tour du Pays de Vaud printanier #2 Yens": {"latitude": 46.6698891, "longitude": 6.7975224, "race": "Tour du Pays de Vaud printanier #2 Yens", "date": {"mer. 06.06.2012": {"year": 2012, "day": 6, "month": 6, "categories": {"H-Sen3": {"distance": 9, "rank": 8, "pace": 262000000000, "time": 2389.2}}, "weekday": "wednesday", "livingplace": "Montcherand"}}, "location": "Moudon"}}, "birth": 1962}