{"name": "Rossier Alain", "sex": "M", "races": {"Lausanne Marathon": {"latitude": 46.5196535, "longitude": 6.6322734, "race": "Lausanne Marathon", "date": {"dim. 26.10.2014": {"year": 2014, "day": 26, "month": 10, "categories": {"10-H30": {"distance": 10, "rank": 65, "pace": 237000000000, "time": 2377.4}}, "weekday": "sunday", "livingplace": "Moudon"}}, "location": "Lausanne"}, "Tour du Pays de Vaud printanier #2 Yverdon-les-Bains": {"latitude": 46.6698891, "longitude": 6.7975224, "race": "Tour du Pays de Vaud printanier #2 Yverdon-les-Bains", "date": {"mer. 11.06.2014": {"year": 2014, "day": 11, "month": 6, "categories": {"H-Sen1": {"distance": 9, "rank": 15, "pace": 268000000000, "time": 2446.1}}, "weekday": "wednesday", "livingplace": "Moudon"}}, "location": "Moudon"}, "Tour du Pays de Vaud printanier #1 Moudon": {"latitude": 46.3832683, "longitude": 6.2347852, "race": "Tour du Pays de Vaud printanier #1 Moudon", "date": {"mer. 04.06.2014": {"year": 2014, "day": 4, "month": 6, "categories": {"H-Sen1": {"distance": 8, "rank": 33, "pace": 262000000000, "time": 2206.5}}, "weekday": "wednesday", "livingplace": "Moudon"}}, "location": "Nyon"}, "Morat-Fribourg": {"latitude": 46.92922110000001, "longitude": 7.120184, "race": "Morat-Fribourg", "date": {"sam. 05.10.2013": {"year": 2013, "day": 5, "month": 10, "categories": {"17-M20": {"distance": 17, "rank": 364, "pace": 262000000000, "time": 4587.4}}, "weekday": "saturday", "livingplace": "Moudon"}, "sam. 03.10.2015": {"year": 2015, "day": 3, "month": 10, "categories": {"17-M20": {"distance": 17, "rank": 538, "pace": 278000000000, "time": 4789.5}}, "weekday": "saturday", "livingplace": "Moudon"}, "sam. 06.10.2012": {"year": 2012, "day": 6, "month": 10, "categories": {"17-M20": {"distance": 17, "rank": 1325, "pace": 319000000000, "time": 5579.4}}, "weekday": "saturday", "livingplace": "Moudon"}, "sam. 04.10.2014": {"year": 2014, "day": 4, "month": 10, "categories": {"17-M20": {"distance": 17, "rank": 333, "pace": 265000000000, "time": 4561.0}}, "weekday": "saturday", "livingplace": "Moudon"}}, "location": "Murten"}, "Tour du Pays de Vaud #2, Mezi\u00e8res": {"latitude": 46.5955273, "longitude": 6.7702883, "race": "Tour du Pays de Vaud #2, Mezi\u00e8res", "date": {"mer. 20.08.2014": {"year": 2014, "day": 20, "month": 8, "categories": {"H-Sen1": {"distance": 8, "rank": 45, "pace": 283000000000, "time": 2295.5}}, "weekday": "wednesday", "livingplace": "Moudon"}}, "location": "M\u00e9zi\u00e8res VD"}, "Tour du Pays de Vaud #2 - Mezi\u00e8res": {"latitude": 46.5955273, "longitude": 6.7702883, "race": "Tour du Pays de Vaud #2 - Mezi\u00e8res", "date": {"mer. 21.08.2013": {"year": 2013, "day": 21, "month": 8, "categories": {"H-Hom": {"distance": 8, "rank": 36, "pace": 280000000000, "time": 2274.4}}, "weekday": "wednesday", "livingplace": "Moudon"}}, "location": "M\u00e9zi\u00e8res VD"}, "Tour du Pays de Vaud #3 - Mezi\u00e8res": {"latitude": 46.7784736, "longitude": 6.641183, "race": "Tour du Pays de Vaud #3 - Mezi\u00e8res", "date": {"mer. 22.08.2012": {"year": 2012, "day": 22, "month": 8, "categories": {"H-Hom": {"distance": 8, "rank": 43, "pace": 291000000000, "time": 2452.7}}, "weekday": "wednesday", "livingplace": "Moudon"}}, "location": "Yverdon-les-Bains"}, "20km de Lausanne": {"latitude": 46.5196535, "longitude": 6.6322734, "race": "20km de Lausanne", "date": {"sam. 30.04.2011": {"year": 2011, "day": 30, "month": 4, "categories": {"10-H20": {"distance": 10, "rank": 69, "pace": 259000000000, "time": 2591.4}}, "weekday": "saturday", "livingplace": "Club"}, "sam. 27.04.2013": {"year": 2013, "day": 27, "month": 4, "categories": {"10-H20": {"distance": 10, "rank": 84, "pace": 250000000000, "time": 2506.2}}, "weekday": "saturday", "livingplace": "Moudon"}, "sam. 28.04.2012": {"year": 2012, "day": 28, "month": 4, "categories": {"10-H20": {"distance": 10, "rank": 153, "pace": 274000000000, "time": 2749.6}}, "weekday": "saturday", "livingplace": "Moudon"}, "sam. 26.04.2014": {"year": 2014, "day": 26, "month": 4, "categories": {"20-H30": {"distance": 20, "rank": 318, "pace": 284000000000, "time": 5681.8}}, "weekday": "saturday", "livingplace": "Moudon"}}, "location": "Lausanne"}, "Tour du Pays de Vaud #3 - Chavornay": {"latitude": 46.7784736, "longitude": 6.641183, "race": "Tour du Pays de Vaud #3 - Chavornay", "date": {"mer. 28.08.2013": {"year": 2013, "day": 28, "month": 8, "categories": {"H-Hom": {"distance": 9, "rank": 84, "pace": 306000000000, "time": 2727.1}}, "weekday": "wednesday", "livingplace": "Moudon"}}, "location": "Yverdon-les-Bains"}, "Tour du pays de Vaud #1 - Penthaz": {"latitude": 46.5993131, "longitude": 6.539251200000001, "race": "Tour du pays de Vaud #1 - Penthaz", "date": {"mer. 14.08.2013": {"year": 2013, "day": 14, "month": 8, "categories": {"H-Hom": {"distance": 9, "rank": 65, "pace": 294000000000, "time": 2513.9}}, "weekday": "wednesday", "livingplace": "Moudon"}}, "location": "Penthaz"}}, "birth": 1984}