{"name": "Rossi Laurence", "sex": "F", "races": {"Morat-Fribourg": {"latitude": 46.92922110000001, "longitude": 7.120184, "race": "Morat-Fribourg", "date": {"sam. 01.10.2011": {"year": 2011, "day": 1, "month": 10, "categories": {"17-W50": {"distance": 17, "rank": 61, "pace": 346000000000, "time": 5952.8}}, "weekday": "saturday", "livingplace": "Payerne"}}, "location": "Murten"}, "Tour du Pays de Vaud #3, Chavornay": {"latitude": 46.7784736, "longitude": 6.641183, "race": "Tour du Pays de Vaud #3, Chavornay", "date": {"mer. 27.08.2014": {"year": 2014, "day": 27, "month": 8, "categories": {"D-Sen3": {"distance": 9, "rank": 16, "pace": 347000000000, "time": 2991.0}}, "weekday": "wednesday", "livingplace": "Payerne"}}, "location": "Yverdon-les-Bains"}, "Tour du Pays de Vaud printanier #1 Moudon": {"latitude": 46.3832683, "longitude": 6.2347852, "race": "Tour du Pays de Vaud printanier #1 Moudon", "date": {"mer. 29.05.2013": {"year": 2013, "day": 29, "month": 5, "categories": {"D-Sen3": {"distance": 8, "rank": 11, "pace": 350000000000, "time": 2997.0}}, "weekday": "wednesday", "livingplace": "Payerne"}}, "location": "Nyon"}, "20km de Lausanne": {"latitude": 46.5196535, "longitude": 6.6322734, "race": "20km de Lausanne", "date": {"sam. 28.04.2007": {"year": 2007, "day": 28, "month": 4, "categories": {"20F45": {"distance": 20, "rank": 18, "pace": 308000000000, "time": 6162.6}}, "weekday": "saturday", "livingplace": "Payerne"}}, "location": "Lausanne"}, "Aletsch-Halbmarathon, Bettmeralp": {"latitude": NaN, "longitude": NaN, "race": "Aletsch-Halbmarathon, Bettmeralp", "date": {"dim. 24.06.2007": {"year": 2007, "day": 24, "month": 6, "categories": {"F45": {"distance": 21, "rank": 26, "pace": 490000000000, "time": 10296.8}}, "weekday": "sunday", "livingplace": "Payerne"}, "dim. 29.06.2014": {"year": 2014, "day": 29, "month": 6, "categories": {"F55": {"distance": 13, "rank": 18, "pace": 458000000000, "time": 6098.5}}, "weekday": "sunday", "livingplace": "Sporting Club Broyard"}}, "location": "Bettmeralp"}, "Kerzerslauf": {"latitude": 46.97488999999999, "longitude": 7.1954365, "race": "Kerzerslauf", "date": {"sam. 18.03.2006": {"year": 2006, "day": 18, "month": 3, "categories": {"F45": {"distance": 15, "rank": 62, "pace": 321000000000, "time": 4825.9}}, "weekday": "saturday", "livingplace": "Corcelles Payerne"}}, "location": "Kerzers"}, "10km de Payerne": {"latitude": 46.8220266, "longitude": 6.9405663, "race": "10km de Payerne", "date": {"sam. 28.03.2009": {"year": 2009, "day": 28, "month": 3, "categories": {"W50": {"distance": 10, "rank": 4, "pace": 288000000000, "time": 2889.1}}, "weekday": "saturday", "livingplace": "Payerne"}}, "location": "Payerne"}}, "birth": 1958}