{"name": "Rosselet Benjamin", "sex": "M", "races": {"D\u00e9fi Val-de-Travers, Couvet": {"latitude": 46.9262933, "longitude": 6.6324944, "race": "D\u00e9fi Val-de-Travers, Couvet", "date": {"sam. 20.06.2009": {"year": 2009, "day": 20, "month": 6, "categories": {"GB": {"distance": 3, "rank": 2, "pace": 235000000000, "time": 601.6}}, "weekday": "saturday", "livingplace": "La Chatagne"}}, "location": "Couvet"}, "BCN Tour Fontaine Cernier": {"latitude": 47.0624261, "longitude": 6.9175754, "race": "BCN Tour Fontaine Cernier", "date": {"mer. 27.04.2011": {"year": 2011, "day": 27, "month": 4, "categories": {"KG3": {"distance": 3, "rank": 4, "pace": 262000000000, "time": 786.7}}, "weekday": "wednesday", "livingplace": "La Chatagne"}}, "location": "Ch\u00e9zard-St-Martin"}, "BCN Tour Le Landeron": {"latitude": 46.9668714, "longitude": 6.8589727, "race": "BCN Tour Le Landeron", "date": {"mer. 22.04.2009": {"year": 2009, "day": 22, "month": 4, "categories": {"KG2": {"distance": 2, "rank": 4, "pace": 238000000000, "time": 477.3}}, "weekday": "wednesday", "livingplace": "La Brevine"}}, "location": "Colombier NE"}, "BCN Tour Auvernier": {"latitude": 46.9668714, "longitude": 6.8589727, "race": "BCN Tour Auvernier", "date": {"mer. 20.04.2011": {"year": 2011, "day": 20, "month": 4, "categories": {"KG3": {"distance": 2, "rank": 6, "pace": 222000000000, "time": 523.1}}, "weekday": "wednesday", "livingplace": "La Chatagne"}}, "location": "Colombier NE"}, "BCN Tour #4 Fleurier": {"latitude": 47.1034892, "longitude": 6.832783800000001, "race": "BCN Tour #4 Fleurier", "date": {"mer. 15.05.2013": {"year": 2013, "day": 15, "month": 5, "categories": {"HJ": {"distance": 9, "rank": 30, "pace": 279000000000, "time": 2417.9}}, "weekday": "wednesday", "livingplace": "La Brevine"}}, "location": "La Chaux-de-Fonds"}, "BCN Tour Cornaux": {"latitude": 46.9668714, "longitude": 6.8589727, "race": "BCN Tour Cornaux", "date": {"mer. 25.04.2012": {"year": 2012, "day": 25, "month": 4, "categories": {"KG4": {"distance": 3, "rank": 15, "pace": 238000000000, "time": 668.1}}, "weekday": "wednesday", "livingplace": "La Chatagne"}}, "location": "Colombier NE"}, "BCN Tour La Chaux-de-Fonds": {"latitude": 47.1034892, "longitude": 6.832783800000001, "race": "BCN Tour La Chaux-de-Fonds", "date": {"mer. 11.05.2011": {"year": 2011, "day": 11, "month": 5, "categories": {"KG3": {"distance": 4, "rank": 5, "pace": 182000000000, "time": 713.4}}, "weekday": "wednesday", "livingplace": "La Chatagne"}}, "location": "La Chaux-de-Fonds"}, "BCN Tour #6 Neuch\u00e2tel": {"latitude": 46.9899874, "longitude": 6.9292732, "race": "BCN Tour #6 Neuch\u00e2tel", "date": {"mer. 29.05.2013": {"year": 2013, "day": 29, "month": 5, "categories": {"KG4": {"distance": 2, "rank": 7, "pace": 197000000000, "time": 435.1}}, "weekday": "wednesday", "livingplace": "La Brevine"}}, "location": "Neuch\u00e2tel"}, "BCN Tour La Br\u00e9vine": {"latitude": 46.999113, "longitude": 6.733554799999999, "race": "BCN Tour La Br\u00e9vine", "date": {"mer. 04.05.2011": {"year": 2011, "day": 4, "month": 5, "categories": {"KG3": {"distance": 4, "rank": 5, "pace": 243000000000, "time": 924.8}}, "weekday": "wednesday", "livingplace": "La Chatagne"}}, "location": "Les Ponts-de-Martel"}, "BCN Tour Neuch\u00e2tel": {"latitude": 46.9899874, "longitude": 6.9292732, "race": "BCN Tour Neuch\u00e2tel", "date": {"mer. 26.05.2010": {"year": 2010, "day": 26, "month": 5, "categories": {"KG3": {"distance": 3, "rank": 17, "pace": 211000000000, "time": 720.6}}, "weekday": "wednesday", "livingplace": "La Brevine"}, "mer. 25.05.2011": {"year": 2011, "day": 25, "month": 5, "categories": {"KG3": {"distance": 4, "rank": 4, "pace": 231000000000, "time": 837.8}}, "weekday": "wednesday", "livingplace": "La Chatagne"}}, "location": "Neuch\u00e2tel"}, "BCN Tour Les Ponts de Martel": {"latitude": 46.9262933, "longitude": 6.6324944, "race": "BCN Tour Les Ponts de Martel", "date": {"mer. 18.05.2011": {"year": 2011, "day": 18, "month": 5, "categories": {"KG3": {"distance": 4, "rank": 5, "pace": 232000000000, "time": 905.8}}, "weekday": "wednesday", "livingplace": "La Chatagne"}}, "location": "Couvet"}, "BCN Tour Boudry": {"latitude": 46.9668714, "longitude": 6.8589727, "race": "BCN Tour Boudry", "date": {"mer. 26.04.2006": {"year": 2006, "day": 26, "month": 4, "categories": {"KG1": {"distance": 2, "rank": 11, "pace": 296000000000, "time": 563.9}}, "weekday": "wednesday", "livingplace": "La Brevine"}}, "location": "Colombier NE"}, "BCN Tour #2 La Chaux-de-Fonds": {"latitude": 47.0624261, "longitude": 6.9175754, "race": "BCN Tour #2 La Chaux-de-Fonds", "date": {"mer. 01.05.2013": {"year": 2013, "day": 1, "month": 5, "categories": {"HJ": {"distance": 11, "rank": 51, "pace": 303000000000, "time": 3243.9}}, "weekday": "wednesday", "livingplace": "La Brevine"}}, "location": "Ch\u00e9zard-St-Martin"}, "BCN Tour La Chaux-de-fonds": {"latitude": 47.1034892, "longitude": 6.832783800000001, "race": "BCN Tour La Chaux-de-fonds", "date": {"mer. 12.05.2010": {"year": 2010, "day": 12, "month": 5, "categories": {"KG3": {"distance": 4, "rank": 20, "pace": 254000000000, "time": 994.2}}, "weekday": "wednesday", "livingplace": "La Brevine"}}, "location": "La Chaux-de-Fonds"}, "BCN Tour Colombier": {"latitude": 46.9668714, "longitude": 6.8589727, "race": "BCN Tour Colombier", "date": {"mer. 16.05.2012": {"year": 2012, "day": 16, "month": 5, "categories": {"HJ": {"distance": 11, "rank": 62, "pace": 311000000000, "time": 3360.1}}, "weekday": "wednesday", "livingplace": "La Chatagne"}, "mer. 23.04.2008": {"year": 2008, "day": 23, "month": 4, "categories": {"KG2": {"distance": 2, "rank": 15, "pace": 287000000000, "time": 575.2}}, "weekday": "wednesday", "livingplace": "La Brevine"}, "mer. 21.04.2010": {"year": 2010, "day": 21, "month": 4, "categories": {"KG3": {"distance": 4, "rank": 19, "pace": 273000000000, "time": 1094.8}}, "weekday": "wednesday", "livingplace": "La Brevine"}}, "location": "Colombier NE"}}, "birth": 1998}