{"name": "Rosswog Thomas", "sex": "M", "races": {"Kerzerslauf": {"latitude": 46.97488999999999, "longitude": 7.1954365, "race": "Kerzerslauf", "date": {"sam. 15.03.2014": {"year": 2014, "day": 15, "month": 3, "categories": {"15-M45": {"distance": 15, "rank": 32, "pace": 234000000000, "time": 3518.3}}, "weekday": "saturday", "livingplace": "Rheinfelden"}}, "location": "Kerzers"}, "Gippinger Stauseelauf": {"latitude": 47.5810513, "longitude": 8.2152586, "race": "Gippinger Stauseelauf", "date": {"mer. 31.12.2003": {"year": 2003, "day": 31, "month": 12, "categories": {"M30": {"distance": 8, "rank": 29, "pace": 218000000000, "time": 1639.9}}, "weekday": "wednesday", "livingplace": "Rheinfelden"}}, "location": "Leuggern"}, "ASICS Bremgarter Reusslauf": {"latitude": 47.34917739999999, "longitude": 8.3397905, "race": "ASICS Bremgarter Reusslauf", "date": {"sam. 22.02.2014": {"year": 2014, "day": 22, "month": 2, "categories": {"11-M40": {"distance": 11, "rank": 34, "pace": 225000000000, "time": 2482.8}}, "weekday": "saturday", "livingplace": "Rheinfelden"}}, "location": "Bremgarten AG"}, "Birslauf Basel": {"latitude": 47.5595986, "longitude": 7.5885761, "race": "Birslauf Basel", "date": {"sam. 24.03.2007": {"year": 2007, "day": 24, "month": 3, "categories": {"M\u00e4nner": {"distance": 10, "rank": 35, "pace": 227000000000, "time": 2273.1}}, "weekday": "saturday", "livingplace": "Rheinfelden"}}, "location": "Basel"}, "Birslauf (Herbst), Basel": {"latitude": 47.5595986, "longitude": 7.5885761, "race": "Birslauf (Herbst), Basel", "date": {"sam. 26.08.2006": {"year": 2006, "day": 26, "month": 8, "categories": {"M\u00e4nner": {"distance": 10, "rank": 20, "pace": 230000000000, "time": 2309.1}}, "weekday": "saturday", "livingplace": "Rheinfelden"}}, "location": "Basel"}, "Hallwilerseelauf, Beinwil am See": {"latitude": NaN, "longitude": NaN, "race": "Hallwilerseelauf, Beinwil am See", "date": {"sam. 16.10.2010": {"year": 2010, "day": 16, "month": 10, "categories": {"10-Mann": {"distance": 10, "rank": 43, "pace": 226000000000, "time": 2268.4}}, "weekday": "saturday", "livingplace": "Rheinfelden"}}, "location": "Beinwil am See"}, "Dreil\u00e4nder-Lauf, Basel": {"latitude": 47.5595986, "longitude": 7.5885761, "race": "Dreil\u00e4nder-Lauf, Basel", "date": {"dim. 20.05.2007": {"year": 2007, "day": 20, "month": 5, "categories": {"10M30": {"distance": 10, "rank": 2, "pace": 230000000000, "time": 2306.5}}, "weekday": "sunday", "livingplace": "Rheinfelden"}, "dim. 20.05.2012": {"year": 2012, "day": 20, "month": 5, "categories": {"21M40": {"distance": 21, "rank": 19, "pace": 258000000000, "time": 5453.0}}, "weekday": "sunday", "livingplace": "Rheinfelden"}, "dim. 22.05.2011": {"year": 2011, "day": 22, "month": 5, "categories": {"10M40": {"distance": 10, "rank": 3, "pace": 233000000000, "time": 2360.8}}, "weekday": "sunday", "livingplace": "Rheinfelden"}}, "location": "Basel"}, "Basler Marathon-Tage": {"latitude": 47.5595986, "longitude": 7.5885761, "race": "Basler Marathon-Tage", "date": {"sam. 27.10.2007": {"year": 2007, "day": 27, "month": 10, "categories": {"M/M30": {"distance": 42, "rank": 4, "pace": 254000000000, "time": 10746.1}}, "weekday": "saturday", "livingplace": "Rheinfelden"}}, "location": "Basel"}, "Gempenlauf, Dornach": {"latitude": 47.4790491, "longitude": 7.6170412, "race": "Gempenlauf, Dornach", "date": {"mer. 06.06.2012": {"year": 2012, "day": 6, "month": 6, "categories": {"M40": {"distance": 8, "rank": 20, "pace": 289000000000, "time": 2255.1}}, "weekday": "wednesday", "livingplace": "Rheinfelden"}, "mer. 29.05.2013": {"year": 2013, "day": 29, "month": 5, "categories": {"M40": {"distance": 8, "rank": 12, "pace": 281000000000, "time": 2196.2}}, "weekday": "wednesday", "livingplace": "Rheinfelden"}}, "location": "Dornach"}}, "birth": 1969}