{"name": "R\u00f6thlisberger Gianluca", "sex": "M", "races": {"Lausanne Marathon": {"latitude": 46.5196535, "longitude": 6.6322734, "race": "Lausanne Marathon", "date": {"dim. 31.10.2010": {"year": 2010, "day": 31, "month": 10, "categories": {"42-H1": {"distance": 42, "rank": 88, "pace": 349000000000, "time": 14762.6}}, "weekday": "sunday", "livingplace": "Biel/Bienne"}}, "location": "Lausanne"}, "SwissCityMarathon - Lucerne, Luzern": {"latitude": 47.05016819999999, "longitude": 8.3093072, "race": "SwissCityMarathon - Lucerne, Luzern", "date": {"dim. 27.10.2013": {"year": 2013, "day": 27, "month": 10, "categories": {"H-M20": {"distance": 21, "rank": 192, "pace": 280000000000, "time": 5920.4}}, "weekday": "sunday", "livingplace": "Biel/Bienne"}}, "location": "Luzern"}, "Morat-Fribourg": {"latitude": 46.92922110000001, "longitude": 7.120184, "race": "Morat-Fribourg", "date": {"sam. 04.10.2008": {"year": 2008, "day": 4, "month": 10, "categories": {"C-M20": {"distance": 17, "rank": 640, "pace": 284000000000, "time": 4889.7}}, "weekday": "saturday", "livingplace": "Biel/Bienne"}}, "location": "Murten"}, "Kerzerslauf": {"latitude": 46.97488999999999, "longitude": 7.1954365, "race": "Kerzerslauf", "date": {"sam. 15.03.2008": {"year": 2008, "day": 15, "month": 3, "categories": {"15/M20": {"distance": 15, "rank": 311, "pace": 278000000000, "time": 4180.9}}, "weekday": "saturday", "livingplace": "Biel/Bienne"}}, "location": "Kerzers"}, "Corrida Bulloise, Bulle": {"latitude": 46.6154512, "longitude": 7.057726799999999, "race": "Corrida Bulloise, Bulle", "date": {"sam. 15.11.2008": {"year": 2008, "day": 15, "month": 11, "categories": {"M20": {"distance": 8, "rank": 159, "pace": 265000000000, "time": 2125.2}}, "weekday": "saturday", "livingplace": "Biel/Bienne"}}, "location": "Bulle"}}, "birth": 1985}