{"name": "Rotzetter Marc", "sex": "M", "races": {"Groupe E Tour Fribourg #4, Siviriez": {"latitude": 46.6585092, "longitude": 6.877722, "race": "Groupe E Tour Fribourg #4, Siviriez", "date": {"mer. 10.09.2014": {"year": 2014, "day": 10, "month": 9, "categories": {"Cad-M": {"distance": 2, "rank": 3, "pace": 205000000000, "time": 390.7}}, "weekday": "wednesday", "livingplace": "Rechthalten"}}, "location": "Siviriez"}, "Morat-Fribourg": {"latitude": 46.92922110000001, "longitude": 7.120184, "race": "Morat-Fribourg", "date": {"sam. 05.10.2013": {"year": 2013, "day": 5, "month": 10, "categories": {"EcolMA": {"distance": 3, "rank": 9, "pace": 203000000000, "time": 570.1}}, "weekday": "saturday", "livingplace": "Rechthalten"}, "sam. 03.10.2015": {"year": 2015, "day": 3, "month": 10, "categories": {"CadMB": {"distance": 3, "rank": 1, "pace": 190000000000, "time": 665.9}}, "weekday": "saturday", "livingplace": "Rechthalten"}, "sam. 04.10.2014": {"year": 2014, "day": 4, "month": 10, "categories": {"CadMB": {"distance": 3, "rank": 3, "pace": 194000000000, "time": 679.2}}, "weekday": "saturday", "livingplace": "Rechthalten"}}, "location": "Murten"}, "Corrida Bulloise, Bulle": {"latitude": 46.6154512, "longitude": 7.057726799999999, "race": "Corrida Bulloise, Bulle", "date": {"sam. 15.11.2014": {"year": 2014, "day": 15, "month": 11, "categories": {"Cad-U16": {"distance": 3, "rank": 8, "pace": 217000000000, "time": 686.3}}, "weekday": "saturday", "livingplace": "Rechthalten"}, "sam. 21.11.2015": {"year": 2015, "day": 21, "month": 11, "categories": {"Cad-U16": {"distance": 3, "rank": 8, "pace": 220000000000, "time": 695.7}}, "weekday": "saturday", "livingplace": "Rechthalten"}}, "location": "Bulle"}, "Groupe E Tour Fribourg #2, Charmey": {"latitude": 46.6175845, "longitude": 7.1654493, "race": "Groupe E Tour Fribourg #2, Charmey", "date": {"mer. 27.08.2014": {"year": 2014, "day": 27, "month": 8, "categories": {"Cad-M": {"distance": 2, "rank": 3, "pace": 207000000000, "time": 435.5}}, "weekday": "wednesday", "livingplace": "Rechthalten"}}, "location": "Charmey (Gruy\u00e8re)"}, "Montreux - Les Rochers de Naye": {"latitude": 46.4312213, "longitude": 6.9106799, "race": "Montreux - Les Rochers de Naye", "date": {"dim. 06.07.2014": {"year": 2014, "day": 6, "month": 7, "categories": {"C-HJun": {"distance": 10, "rank": 9, "pace": 416000000000, "time": 3954.6}}, "weekday": "sunday", "livingplace": "Rechthalten"}, "dim. 05.07.2015": {"year": 2015, "day": 5, "month": 7, "categories": {"C-HJun": {"distance": 10, "rank": 4, "pace": 419000000000, "time": 3984.4}}, "weekday": "sunday", "livingplace": "Rechthalten"}}, "location": "Montreux"}, "Groupe E Tour Fribourg #3, Kerzers": {"latitude": 46.97488999999999, "longitude": 7.1954365, "race": "Groupe E Tour Fribourg #3, Kerzers", "date": {"mer. 03.09.2014": {"year": 2014, "day": 3, "month": 9, "categories": {"Cad-M": {"distance": 2, "rank": 3, "pace": 227000000000, "time": 500.7}}, "weekday": "wednesday", "livingplace": "Rechthalten"}}, "location": "Kerzers"}, "Course de l'Avent, Fribourg": {"latitude": 46.8064773, "longitude": 7.161971899999999, "race": "Course de l'Avent, Fribourg", "date": {"dim. 23.11.2014": {"year": 2014, "day": 23, "month": 11, "categories": {"Ados-M2": {"distance": 2, "rank": 2, "pace": 203000000000, "time": 488.9}}, "weekday": "sunday", "livingplace": "Rechthalten"}, "dim. 24.11.2013": {"year": 2013, "day": 24, "month": 11, "categories": {"Ados-M2": {"distance": 2, "rank": 1, "pace": 227000000000, "time": 545.3}}, "weekday": "sunday", "livingplace": "Rechthalten"}}, "location": "Fribourg"}, "Groupe E Tour Fribourg #5, Givisiez": {"latitude": 46.8128615, "longitude": 7.131657799999999, "race": "Groupe E Tour Fribourg #5, Givisiez", "date": {"mer. 17.09.2014": {"year": 2014, "day": 17, "month": 9, "categories": {"Cad-M": {"distance": 3, "rank": 2, "pace": 195000000000, "time": 488.0}}, "weekday": "wednesday", "livingplace": "Rechthalten"}}, "location": "Givisiez"}, "Kerzerslauf": {"latitude": 46.97488999999999, "longitude": 7.1954365, "race": "Kerzerslauf", "date": {"sam. 15.03.2014": {"year": 2014, "day": 15, "month": 3, "categories": {"15-U16M": {"distance": 15, "rank": 2, "pace": 253000000000, "time": 3801.9}}, "weekday": "saturday", "livingplace": "Rechthalten"}}, "location": "Kerzers"}, "Groupe E Tour Fribourg #1, Cousset": {"latitude": 46.81832, "longitude": 6.977279999999999, "race": "Groupe E Tour Fribourg #1, Cousset", "date": {"mer. 20.08.2014": {"year": 2014, "day": 20, "month": 8, "categories": {"Cad-M": {"distance": 2, "rank": 3, "pace": 199000000000, "time": 457.9}}, "weekday": "wednesday", "livingplace": "Rechthalten"}}, "location": "Cousset"}}, "birth": 2000}