{"name": "Rouault Philippe", "sex": "M", "races": {"BCN Tour La Chaux-de-Fonds": {"latitude": 47.1034892, "longitude": 6.832783800000001, "race": "BCN Tour La Chaux-de-Fonds", "date": {"mer. 11.05.2011": {"year": 2011, "day": 11, "month": 5, "categories": {"HS2": {"distance": 11, "rank": 197, "pace": 368000000000, "time": 3944.1}}, "weekday": "wednesday", "livingplace": "Les Brenets"}}, "location": "La Chaux-de-Fonds"}, "La Trotteuse-Tissot, La Chaux-de-Fonds": {"latitude": 47.1034892, "longitude": 6.832783800000001, "race": "La Trotteuse-Tissot, La Chaux-de-Fonds", "date": {"sam. 12.12.2015": {"year": 2015, "day": 12, "month": 12, "categories": {"GC-H50": {"distance": 8, "rank": 108, "pace": 326000000000, "time": 2612.5}}, "weekday": "saturday", "livingplace": "Les Brenets"}, "sam. 13.12.2014": {"year": 2014, "day": 13, "month": 12, "categories": {"GC-H50": {"distance": 8, "rank": 89, "pace": 326000000000, "time": 2611.0}}, "weekday": "saturday", "livingplace": "Les Brenets"}}, "location": "La Chaux-de-Fonds"}, "BCN Tour La Br\u00e9vine": {"latitude": 46.999113, "longitude": 6.733554799999999, "race": "BCN Tour La Br\u00e9vine", "date": {"mer. 04.05.2011": {"year": 2011, "day": 4, "month": 5, "categories": {"HS2": {"distance": 10, "rank": 179, "pace": 319000000000, "time": 3194.2}}, "weekday": "wednesday", "livingplace": "Les Brenets"}}, "location": "Les Ponts-de-Martel"}, "BCN Tour Neuch\u00e2tel": {"latitude": 46.9899874, "longitude": 6.9292732, "race": "BCN Tour Neuch\u00e2tel", "date": {"mer. 25.05.2011": {"year": 2011, "day": 25, "month": 5, "categories": {"HS2": {"distance": 11, "rank": 196, "pace": 333000000000, "time": 3798.8}}, "weekday": "wednesday", "livingplace": "Les Brenets"}}, "location": "Neuch\u00e2tel"}, "BCN Tour Les Ponts de Martel": {"latitude": 46.9262933, "longitude": 6.6324944, "race": "BCN Tour Les Ponts de Martel", "date": {"mer. 18.05.2011": {"year": 2011, "day": 18, "month": 5, "categories": {"HS2": {"distance": 13, "rank": 204, "pace": 331000000000, "time": 4247.1}}, "weekday": "wednesday", "livingplace": "Les Brenets"}}, "location": "Couvet"}, "BCN Tour Auvernier": {"latitude": 46.9668714, "longitude": 6.8589727, "race": "BCN Tour Auvernier", "date": {"mer. 20.04.2011": {"year": 2011, "day": 20, "month": 4, "categories": {"HS2": {"distance": 11, "rank": 199, "pace": 335000000000, "time": 3623.7}}, "weekday": "wednesday", "livingplace": "Les Brenets"}}, "location": "Colombier NE"}}, "birth": 1964}