{"name": "Rou\u00e8che St\u00e9phane", "sex": "M", "races": {"BCN Tour M\u00f4tier": {"latitude": 46.9262933, "longitude": 6.6324944, "race": "BCN Tour M\u00f4tier", "date": {"mer. 19.05.2010": {"year": 2010, "day": 19, "month": 5, "categories": {"HS2": {"distance": 10, "rank": 7, "pace": 227000000000, "time": 2248.4}}, "weekday": "wednesday", "livingplace": "Diesse"}}, "location": "Couvet"}, "La Trotteuse-Tissot, La Chaux-de-Fonds": {"latitude": 47.1034892, "longitude": 6.832783800000001, "race": "La Trotteuse-Tissot, La Chaux-de-Fonds", "date": {"sam. 12.12.2015": {"year": 2015, "day": 12, "month": 12, "categories": {"GC-H40": {"distance": 8, "rank": 10, "pace": 231000000000, "time": 1852.0}}, "weekday": "saturday", "livingplace": "La Sportive"}, "sam. 18.12.2010": {"year": 2010, "day": 18, "month": 12, "categories": {"GC-H40": {"distance": 8, "rank": 5, "pace": 236000000000, "time": 1894.2}}, "weekday": "saturday", "livingplace": "Diesse"}, "sam. 17.12.2011": {"year": 2011, "day": 17, "month": 12, "categories": {"GC-H40": {"distance": 8, "rank": 7, "pace": 229000000000, "time": 1833.8}}, "weekday": "saturday", "livingplace": "Diesse"}, "sam. 08.12.2012": {"year": 2012, "day": 8, "month": 12, "categories": {"GC-H40": {"distance": 8, "rank": 11, "pace": 247000000000, "time": 1976.9}}, "weekday": "saturday", "livingplace": "Diesse"}, "sam. 14.12.2013": {"year": 2013, "day": 14, "month": 12, "categories": {"GC-H40": {"distance": 8, "rank": 9, "pace": 229000000000, "time": 1839.5}}, "weekday": "saturday", "livingplace": "Diesse"}}, "location": "La Chaux-de-Fonds"}, "BCN Tour Fontaine Cernier": {"latitude": 47.0624261, "longitude": 6.9175754, "race": "BCN Tour Fontaine Cernier", "date": {"mer. 27.04.2011": {"year": 2011, "day": 27, "month": 4, "categories": {"HS2": {"distance": 10, "rank": 14, "pace": 228000000000, "time": 2356.4}}, "weekday": "wednesday", "livingplace": "Diesse"}}, "location": "Ch\u00e9zard-St-Martin"}, "BCN Tour #5 Colombier": {"latitude": 46.9262933, "longitude": 6.6324944, "race": "BCN Tour #5 Colombier", "date": {"mer. 22.05.2013": {"year": 2013, "day": 22, "month": 5, "categories": {"HS2": {"distance": 11, "rank": 108, "pace": 266000000000, "time": 2794.5}}, "weekday": "wednesday", "livingplace": "Diesse"}}, "location": "Couvet"}, "Groupe E Tour Fribourg #4 Montagny": {"latitude": 46.6585092, "longitude": 6.877722, "race": "Groupe E Tour Fribourg #4 Montagny", "date": {"mer. 11.09.2013": {"year": 2013, "day": 11, "month": 9, "categories": {"HS2": {"distance": 10, "rank": 7, "pace": 232000000000, "time": 2279.4}}, "weekday": "wednesday", "livingplace": "Diesse"}}, "location": "Siviriez"}, "BCN Tour Le Locle": {"latitude": 46.999113, "longitude": 6.733554799999999, "race": "BCN Tour Le Locle", "date": {"mer. 05.05.2010": {"year": 2010, "day": 5, "month": 5, "categories": {"HS2": {"distance": 11, "rank": 9, "pace": 235000000000, "time": 2564.3}}, "weekday": "wednesday", "livingplace": "Diesse"}}, "location": "Les Ponts-de-Martel"}, "BCN Tour #1 Corcelles": {"latitude": 46.9668714, "longitude": 6.8589727, "race": "BCN Tour #1 Corcelles", "date": {"mer. 24.04.2013": {"year": 2013, "day": 24, "month": 4, "categories": {"HS2": {"distance": 10, "rank": 21, "pace": 239000000000, "time": 2349.9}}, "weekday": "wednesday", "livingplace": "Diesse"}}, "location": "Colombier NE"}, "BCN Tour Auvernier": {"latitude": 46.9668714, "longitude": 6.8589727, "race": "BCN Tour Auvernier", "date": {"mer. 20.04.2011": {"year": 2011, "day": 20, "month": 4, "categories": {"HS2": {"distance": 11, "rank": 16, "pace": 244000000000, "time": 2635.7}}, "weekday": "wednesday", "livingplace": "Diesse"}}, "location": "Colombier NE"}, "BCN Tour #4 Fleurier": {"latitude": 47.1034892, "longitude": 6.832783800000001, "race": "BCN Tour #4 Fleurier", "date": {"mer. 15.05.2013": {"year": 2013, "day": 15, "month": 5, "categories": {"HS2": {"distance": 9, "rank": 20, "pace": 237000000000, "time": 2056.8}}, "weekday": "wednesday", "livingplace": "Diesse"}}, "location": "La Chaux-de-Fonds"}, "BCN Tour Cornaux": {"latitude": 46.9668714, "longitude": 6.8589727, "race": "BCN Tour Cornaux", "date": {"mer. 25.04.2012": {"year": 2012, "day": 25, "month": 4, "categories": {"HS2": {"distance": 11, "rank": 14, "pace": 252000000000, "time": 2779.1}}, "weekday": "wednesday", "livingplace": "Diesse"}}, "location": "Colombier NE"}, "BCN Tour La Chaux-de-Fonds": {"latitude": 47.1034892, "longitude": 6.832783800000001, "race": "BCN Tour La Chaux-de-Fonds", "date": {"mer. 11.05.2011": {"year": 2011, "day": 11, "month": 5, "categories": {"HS2": {"distance": 11, "rank": 18, "pace": 273000000000, "time": 2927.1}}, "weekday": "wednesday", "livingplace": "Diesse"}}, "location": "La Chaux-de-Fonds"}, "BCN Tour Colombier": {"latitude": 47.1034892, "longitude": 6.832783800000001, "race": "BCN Tour Colombier", "date": {"mer. 16.05.2012": {"year": 2012, "day": 16, "month": 5, "categories": {"HS2": {"distance": 11, "rank": 19, "pace": 238000000000, "time": 2576.4}}, "weekday": "wednesday", "livingplace": "Diesse"}}, "location": "La Chaux-de-Fonds"}, "BCN Tour La Br\u00e9vine": {"latitude": 46.999113, "longitude": 6.733554799999999, "race": "BCN Tour La Br\u00e9vine", "date": {"mer. 04.05.2011": {"year": 2011, "day": 4, "month": 5, "categories": {"HS2": {"distance": 10, "rank": 20, "pace": 245000000000, "time": 2455.0}}, "weekday": "wednesday", "livingplace": "Diesse"}}, "location": "Les Ponts-de-Martel"}, "BCN Tour Ponts-de-Martel": {"latitude": 47.0624261, "longitude": 6.9175754, "race": "BCN Tour Ponts-de-Martel", "date": {"mer. 28.04.2010": {"year": 2010, "day": 28, "month": 4, "categories": {"HS2": {"distance": 11, "rank": 12, "pace": 241000000000, "time": 2706.2}}, "weekday": "wednesday", "livingplace": "Diesse"}}, "location": "Ch\u00e9zard-St-Martin"}, "Morat-Fribourg": {"latitude": 46.92922110000001, "longitude": 7.120184, "race": "Morat-Fribourg", "date": {"sam. 03.10.2015": {"year": 2015, "day": 3, "month": 10, "categories": {"17-M45": {"distance": 17, "rank": 42, "pace": 258000000000, "time": 4430.9}}, "weekday": "saturday", "livingplace": "Diesse"}, "sam. 02.10.2010": {"year": 2010, "day": 2, "month": 10, "categories": {"17-M40": {"distance": 17, "rank": 36, "pace": 246000000000, "time": 4229.8}}, "weekday": "saturday", "livingplace": "Diesse"}, "sam. 05.10.2013": {"year": 2013, "day": 5, "month": 10, "categories": {"17-M45": {"distance": 17, "rank": 18, "pace": 241000000000, "time": 4214.5}}, "weekday": "saturday", "livingplace": "Diesse"}, "sam. 03.10.2009": {"year": 2009, "day": 3, "month": 10, "categories": {"C-M40": {"distance": 17, "rank": 112, "pace": 262000000000, "time": 4512.2}}, "weekday": "saturday", "livingplace": "Diesse"}, "sam. 01.10.2011": {"year": 2011, "day": 1, "month": 10, "categories": {"17-M40": {"distance": 17, "rank": 38, "pace": 243000000000, "time": 4188.0}}, "weekday": "saturday", "livingplace": "Diesse"}, "sam. 04.10.2008": {"year": 2008, "day": 4, "month": 10, "categories": {"C-M40": {"distance": 17, "rank": 30, "pace": 237000000000, "time": 4071.8}}, "weekday": "saturday", "livingplace": "Diesse"}, "sam. 06.10.2007": {"year": 2007, "day": 6, "month": 10, "categories": {"C/M20": {"distance": 17, "rank": 111, "pace": 242000000000, "time": 4158.5}}, "weekday": "saturday", "livingplace": "Colombier"}}, "location": "Murten"}, "BCN Tour #2 La Chaux-de-Fonds": {"latitude": 47.0624261, "longitude": 6.9175754, "race": "BCN Tour #2 La Chaux-de-Fonds", "date": {"mer. 01.05.2013": {"year": 2013, "day": 1, "month": 5, "categories": {"HS2": {"distance": 11, "rank": 25, "pace": 236000000000, "time": 2529.5}}, "weekday": "wednesday", "livingplace": "Diesse"}}, "location": "Ch\u00e9zard-St-Martin"}, "BCN Tour La Chaux-de-fonds": {"latitude": 47.1034892, "longitude": 6.832783800000001, "race": "BCN Tour La Chaux-de-fonds", "date": {"mer. 12.05.2010": {"year": 2010, "day": 12, "month": 5, "categories": {"HS2": {"distance": 11, "rank": 13, "pace": 290000000000, "time": 3110.7}}, "weekday": "wednesday", "livingplace": "Diesse"}}, "location": "La Chaux-de-Fonds"}, "Kerzerslauf": {"latitude": 46.97488999999999, "longitude": 7.1954365, "race": "Kerzerslauf", "date": {"sam. 20.03.2010": {"year": 2010, "day": 20, "month": 3, "categories": {"15-M40": {"distance": 15, "rank": 23, "pace": 227000000000, "time": 3409.2}}, "weekday": "saturday", "livingplace": "Diesse"}, "sam. 21.03.2015": {"year": 2015, "day": 21, "month": 3, "categories": {"15-M45": {"distance": 15, "rank": 31, "pace": 241000000000, "time": 3617.1}}, "weekday": "saturday", "livingplace": "Diesse"}, "sam. 19.03.2011": {"year": 2011, "day": 19, "month": 3, "categories": {"15-M40": {"distance": 15, "rank": 18, "pace": 224000000000, "time": 3366.6}}, "weekday": "saturday", "livingplace": "Diesse"}, "sam. 17.03.2012": {"year": 2012, "day": 17, "month": 3, "categories": {"15-M40": {"distance": 15, "rank": 26, "pace": 231000000000, "time": 3469.0}}, "weekday": "saturday", "livingplace": "Diesse"}, "sam. 16.03.2013": {"year": 2013, "day": 16, "month": 3, "categories": {"15-M45": {"distance": 15, "rank": 21, "pace": 234000000000, "time": 3519.4}}, "weekday": "saturday", "livingplace": "Diesse"}}, "location": "Kerzers"}, "BCN Tour #3 Dombresson": {"latitude": 46.999113, "longitude": 6.733554799999999, "race": "BCN Tour #3 Dombresson", "date": {"mer. 08.05.2013": {"year": 2013, "day": 8, "month": 5, "categories": {"HS2": {"distance": 10, "rank": 23, "pace": 236000000000, "time": 2339.7}}, "weekday": "wednesday", "livingplace": "Diesse"}}, "location": "Les Ponts-de-Martel"}, "BCN Tour #6 Neuch\u00e2tel": {"latitude": 46.9899874, "longitude": 6.9292732, "race": "BCN Tour #6 Neuch\u00e2tel", "date": {"mer. 29.05.2013": {"year": 2013, "day": 29, "month": 5, "categories": {"HS2": {"distance": 11, "rank": 19, "pace": 244000000000, "time": 2687.3}}, "weekday": "wednesday", "livingplace": "Diesse"}}, "location": "Neuch\u00e2tel"}}, "birth": 1968}