{"name": "Rouiller David", "sex": "M", "races": {"Tour du Chablais #1 Roche": {"latitude": 46.2957462, "longitude": 6.9916269, "race": "Tour du Chablais #1 Roche", "date": {"mer. 07.04.2010": {"year": 2010, "day": 7, "month": 4, "categories": {"M-M20": {"distance": 9, "rank": 17, "pace": 218000000000, "time": 1954.1}}, "weekday": "wednesday", "livingplace": "Monthey"}, "mer. 03.04.2013": {"year": 2013, "day": 3, "month": 4, "categories": {"M-M20": {"distance": 9, "rank": 12, "pace": 218000000000, "time": 1933.9}}, "weekday": "wednesday", "livingplace": "Cham"}}, "location": "Ollon VD"}, "Tour du Chablais #2 Rennaz": {"latitude": 46.3835529, "longitude": 6.854975199999999, "race": "Tour du Chablais #2 Rennaz", "date": {"mer. 04.05.2011": {"year": 2011, "day": 4, "month": 5, "categories": {"M-M20": {"distance": 9, "rank": 25, "pace": 226000000000, "time": 2120.0}}, "weekday": "wednesday", "livingplace": "Monthey"}}, "location": "Bouveret"}, "Morat-Fribourg": {"latitude": 46.92922110000001, "longitude": 7.120184, "race": "Morat-Fribourg", "date": {"dim. 05.10.2003": {"year": 2003, "day": 5, "month": 10, "categories": {"M20": {"distance": 17, "rank": 299, "pace": 249000000000, "time": 4291.7}}, "weekday": "sunday", "livingplace": "Lausanne"}, "dim. 07.10.2001": {"year": 2001, "day": 7, "month": 10, "categories": {"M20": {"distance": 17, "rank": 580, "pace": 268000000000, "time": 4616.8}}, "weekday": "sunday", "livingplace": "Lausanne"}, "dim. 06.10.2002": {"year": 2002, "day": 6, "month": 10, "categories": {"M20": {"distance": 17, "rank": 315, "pace": 252000000000, "time": 4327.7}}, "weekday": "sunday", "livingplace": "Lausanne"}}, "location": "Murten"}, "Tour du Chablais #4 Morgins": {"latitude": NaN, "longitude": NaN, "race": "Tour du Chablais #4 Morgins", "date": {"mer. 18.05.2011": {"year": 2011, "day": 18, "month": 5, "categories": {"M-M20": {"distance": 8, "rank": 23, "pace": 236000000000, "time": 1974.9}}, "weekday": "wednesday", "livingplace": "Monthey"}}, "location": "Les Mosses"}, "Tour du Chablais #6 Monthey": {"latitude": 46.3190253, "longitude": 6.970566, "race": "Tour du Chablais #6 Monthey", "date": {"mer. 08.05.2013": {"year": 2013, "day": 8, "month": 5, "categories": {"M-M20": {"distance": 9, "rank": 19, "pace": 221000000000, "time": 2064.1}}, "weekday": "wednesday", "livingplace": "Cham"}}, "location": "Aigle"}, "20km de Lausanne": {"latitude": 46.5196535, "longitude": 6.6322734, "race": "20km de Lausanne", "date": {"sam. 28.04.2007": {"year": 2007, "day": 28, "month": 4, "categories": {"10H30": {"distance": 10, "rank": 30, "pace": 241000000000, "time": 2412.7}}, "weekday": "saturday", "livingplace": "Collombey"}, "sam. 22.04.2006": {"year": 2006, "day": 22, "month": 4, "categories": {"10/H30": {"distance": 10, "rank": 27, "pace": 240000000000, "time": 2406.0}}, "weekday": "saturday", "livingplace": "Collombey"}}, "location": "Lausanne"}, "Tour du Chablais #1 Lavey": {"latitude": 46.2957462, "longitude": 6.9916269, "race": "Tour du Chablais #1 Lavey", "date": {"mer. 27.04.2011": {"year": 2011, "day": 27, "month": 4, "categories": {"M-M20": {"distance": 9, "rank": 26, "pace": 226000000000, "time": 2040.6}}, "weekday": "wednesday", "livingplace": "Monthey"}}, "location": "Ollon VD"}, "Tour du Chablais #2 Yvorne": {"latitude": 46.3835529, "longitude": 6.854975199999999, "race": "Tour du Chablais #2 Yvorne", "date": {"mer. 10.04.2013": {"year": 2013, "day": 10, "month": 4, "categories": {"M-M20": {"distance": 8, "rank": 30, "pace": 245000000000, "time": 1963.7}}, "weekday": "wednesday", "livingplace": "Cham"}}, "location": "Bouveret"}, "Tour du Chablais #5 Leysin": {"latitude": 46.3603257, "longitude": 6.931504599999999, "race": "Tour du Chablais #5 Leysin", "date": {"mer. 05.05.2010": {"year": 2010, "day": 5, "month": 5, "categories": {"M-M20": {"distance": 8, "rank": 13, "pace": 233000000000, "time": 1970.5}}, "weekday": "wednesday", "livingplace": "Monthey"}}, "location": "Roche VD"}, "Tour du Chablais #5 Bex": {"latitude": 46.3603257, "longitude": 6.931504599999999, "race": "Tour du Chablais #5 Bex", "date": {"mer. 09.05.2012": {"year": 2012, "day": 9, "month": 5, "categories": {"M-M20": {"distance": 9, "rank": 19, "pace": 219000000000, "time": 1946.8}}, "weekday": "wednesday", "livingplace": "Cham"}}, "location": "Roche VD"}, "Tour du Chablais #4 Champ\u00e9ry": {"latitude": NaN, "longitude": NaN, "race": "Tour du Chablais #4 Champ\u00e9ry", "date": {"mer. 02.05.2012": {"year": 2012, "day": 2, "month": 5, "categories": {"M-M20": {"distance": 8, "rank": 20, "pace": 220000000000, "time": 1829.6}}, "weekday": "wednesday", "livingplace": "Cham"}}, "location": "Les Mosses"}, "Tour du Chablais #5 Morgins": {"latitude": 46.3603257, "longitude": 6.931504599999999, "race": "Tour du Chablais #5 Morgins", "date": {"mer. 01.05.2013": {"year": 2013, "day": 1, "month": 5, "categories": {"M-M20": {"distance": 8, "rank": 18, "pace": 231000000000, "time": 1759.6}}, "weekday": "wednesday", "livingplace": "Cham"}}, "location": "Roche VD"}, "Tour du Chablais #5 Les Mosses": {"latitude": 46.3603257, "longitude": 6.931504599999999, "race": "Tour du Chablais #5 Les Mosses", "date": {"mer. 25.05.2011": {"year": 2011, "day": 25, "month": 5, "categories": {"M-M20": {"distance": 8, "rank": 15, "pace": 233000000000, "time": 1866.1}}, "weekday": "wednesday", "livingplace": "Monthey"}}, "location": "Roche VD"}, "Groupe E Tour Fribourg #1 Siviriez": {"latitude": 46.81832, "longitude": 6.977279999999999, "race": "Groupe E Tour Fribourg #1 Siviriez", "date": {"mer. 21.08.2013": {"year": 2013, "day": 21, "month": 8, "categories": {"HS1": {"distance": 10, "rank": 9, "pace": 243000000000, "time": 2384.5}}, "weekday": "wednesday", "livingplace": "Cham"}}, "location": "Cousset"}, "Tour du Chablais #6 Aigle": {"latitude": 46.3190253, "longitude": 6.970566, "race": "Tour du Chablais #6 Aigle", "date": {"mer. 01.06.2011": {"year": 2011, "day": 1, "month": 6, "categories": {"M-M20": {"distance": 10, "rank": 21, "pace": 218000000000, "time": 2224.6}}, "weekday": "wednesday", "livingplace": "Monthey"}}, "location": "Aigle"}, "Tour du Chablais #3 Bex": {"latitude": 46.1782231, "longitude": 7.0223787, "race": "Tour du Chablais #3 Bex", "date": {"mer. 21.04.2010": {"year": 2010, "day": 21, "month": 4, "categories": {"M-M20": {"distance": 10, "rank": 17, "pace": 225000000000, "time": 2253.8}}, "weekday": "wednesday", "livingplace": "Monthey"}}, "location": "Evionnaz"}, "Tour du Chablais #3 Collombey-Muraz": {"latitude": 46.1782231, "longitude": 7.0223787, "race": "Tour du Chablais #3 Collombey-Muraz", "date": {"mer. 25.04.2012": {"year": 2012, "day": 25, "month": 4, "categories": {"M-M20": {"distance": 9, "rank": 31, "pace": 224000000000, "time": 2013.6}}, "weekday": "wednesday", "livingplace": "Cham"}}, "location": "Evionnaz"}, "Tour du Chablais #1 Martigny": {"latitude": 46.2957462, "longitude": 6.9916269, "race": "Tour du Chablais #1 Martigny", "date": {"mer. 23.04.2014": {"year": 2014, "day": 23, "month": 4, "categories": {"M-M20": {"distance": 9, "rank": 20, "pace": 218000000000, "time": 1858.6}}, "weekday": "wednesday", "livingplace": "Cham"}}, "location": "Ollon VD"}, "Tour du Chablais #4 St  Maurice": {"latitude": NaN, "longitude": NaN, "race": "Tour du Chablais #4 St  Maurice", "date": {"mer. 24.04.2013": {"year": 2013, "day": 24, "month": 4, "categories": {"M-M20": {"distance": 10, "rank": 66, "pace": 255000000000, "time": 2550.0}}, "weekday": "wednesday", "livingplace": "Cham"}}, "location": "Les Mosses"}, "Course de l'Escalade, Gen\u00e8ve": {"latitude": 46.2043907, "longitude": 6.1431577, "race": "Course de l'Escalade, Gen\u00e8ve", "date": {"sam. 06.12.2003": {"year": 2003, "day": 6, "month": 12, "categories": {"Hommes1": {"distance": 7, "rank": 615, "pace": 291000000000, "time": 2112.4}}, "weekday": "saturday", "livingplace": "Lausanne"}, "sam. 07.12.2002": {"year": 2002, "day": 7, "month": 12, "categories": {"Hommes1": {"distance": 7, "rank": 36, "pace": 222000000000, "time": 1616.6}}, "weekday": "saturday", "livingplace": "Lausanne"}}, "location": "Gen\u00e8ve"}, "Corrida Bulloise, Bulle": {"latitude": 46.6154512, "longitude": 7.057726799999999, "race": "Corrida Bulloise, Bulle", "date": {"sam. 16.11.2013": {"year": 2013, "day": 16, "month": 11, "categories": {"PopHomm": {"distance": 6, "rank": 11, "pace": 222000000000, "time": 1365.9}}, "weekday": "saturday", "livingplace": "Cham"}, "sam. 20.11.2010": {"year": 2010, "day": 20, "month": 11, "categories": {"PH": {"distance": 6, "rank": 8, "pace": 223000000000, "time": 1375.8}}, "weekday": "saturday", "livingplace": "Monthey"}, "sam. 19.11.2011": {"year": 2011, "day": 19, "month": 11, "categories": {"PH": {"distance": 6, "rank": 87, "pace": 260000000000, "time": 1601.7}}, "weekday": "saturday", "livingplace": "Monthey"}, "sam. 21.11.2015": {"year": 2015, "day": 21, "month": 11, "categories": {"Pop-Hom": {"distance": 6, "rank": 22, "pace": 234000000000, "time": 1439.2}}, "weekday": "saturday", "livingplace": "Cham"}}, "location": "Bulle"}, "Sierre-Zinal, Sierre": {"latitude": 46.29413110000001, "longitude": 7.533536199999999, "race": "Sierre-Zinal, Sierre", "date": {"dim. 12.08.2012": {"year": 2012, "day": 12, "month": 8, "categories": {"Elites": {"distance": 31, "rank": 138, "pace": 439000000000, "time": 13613.5}}, "weekday": "sunday", "livingplace": "Cham"}}, "location": "Sierre"}, "Aletsch-Halbmarathon, Bettmeralp": {"latitude": NaN, "longitude": NaN, "race": "Aletsch-Halbmarathon, Bettmeralp", "date": {"dim. 24.06.2012": {"year": 2012, "day": 24, "month": 6, "categories": {"M30": {"distance": 21, "rank": 41, "pace": 353000000000, "time": 7501.8}}, "weekday": "sunday", "livingplace": "Cham"}}, "location": "Bettmeralp"}, "Groupe E Tour Fribourg #1, Cousset": {"latitude": 46.81832, "longitude": 6.977279999999999, "race": "Groupe E Tour Fribourg #1, Cousset", "date": {"mer. 20.08.2014": {"year": 2014, "day": 20, "month": 8, "categories": {"H-Sen1": {"distance": 9, "rank": 8, "pace": 232000000000, "time": 2189.5}}, "weekday": "wednesday", "livingplace": "Cham"}}, "location": "Cousset"}, "Tour du Chablais #6 Mouthey": {"latitude": 46.3190253, "longitude": 6.970566, "race": "Tour du Chablais #6 Mouthey", "date": {"mer. 12.05.2010": {"year": 2010, "day": 12, "month": 5, "categories": {"M-M20": {"distance": 9, "rank": 18, "pace": 211000000000, "time": 1943.9}}, "weekday": "wednesday", "livingplace": "Monthey"}}, "location": "Aigle"}, "Tour du Chablais #1 Montreux": {"latitude": 46.2957462, "longitude": 6.9916269, "race": "Tour du Chablais #1 Montreux", "date": {"mer. 11.04.2012": {"year": 2012, "day": 11, "month": 4, "categories": {"M-M20": {"distance": 8, "rank": 21, "pace": 228000000000, "time": 1735.2}}, "weekday": "wednesday", "livingplace": "Cham"}}, "location": "Ollon VD"}, "Tour du Chablais #3 Bouveret": {"latitude": 46.1782231, "longitude": 7.0223787, "race": "Tour du Chablais #3 Bouveret", "date": {"mer. 17.04.2013": {"year": 2013, "day": 17, "month": 4, "categories": {"M-M20": {"distance": 10, "rank": 22, "pace": 227000000000, "time": 2277.3}}, "weekday": "wednesday", "livingplace": "Cham"}}, "location": "Evionnaz"}, "Groupe E Tour Fribourg #4 Montagny": {"latitude": 46.6585092, "longitude": 6.877722, "race": "Groupe E Tour Fribourg #4 Montagny", "date": {"mer. 11.09.2013": {"year": 2013, "day": 11, "month": 9, "categories": {"HS1": {"distance": 10, "rank": 22, "pace": 247000000000, "time": 2422.3}}, "weekday": "wednesday", "livingplace": "Cham"}}, "location": "Siviriez"}, "Tour du Chablais #3 Le Bouveret": {"latitude": 46.1782231, "longitude": 7.0223787, "race": "Tour du Chablais #3 Le Bouveret", "date": {"mer. 11.05.2011": {"year": 2011, "day": 11, "month": 5, "categories": {"M-M20": {"distance": 10, "rank": 30, "pace": 229000000000, "time": 2291.2}}, "weekday": "wednesday", "livingplace": "Monthey"}}, "location": "Evionnaz"}, "Tour du Chablais #2 St-Gingolph": {"latitude": 46.3835529, "longitude": 6.854975199999999, "race": "Tour du Chablais #2 St-Gingolph", "date": {"mer. 14.04.2010": {"year": 2010, "day": 14, "month": 4, "categories": {"M-M20": {"distance": 8, "rank": 13, "pace": 230000000000, "time": 1922.3}}, "weekday": "wednesday", "livingplace": "Monthey"}}, "location": "Bouveret"}, "Tour du Chablais #4 Yvorne": {"latitude": NaN, "longitude": NaN, "race": "Tour du Chablais #4 Yvorne", "date": {"mer. 28.04.2010": {"year": 2010, "day": 28, "month": 4, "categories": {"M-M20": {"distance": 8, "rank": 12, "pace": 230000000000, "time": 1908.7}}, "weekday": "wednesday", "livingplace": "Monthey"}}, "location": "Les Mosses"}, "Tour du Chablais #2 Bex": {"latitude": 46.3835529, "longitude": 6.854975199999999, "race": "Tour du Chablais #2 Bex", "date": {"mer. 18.04.2012": {"year": 2012, "day": 18, "month": 4, "categories": {"M-M20": {"distance": 8, "rank": 19, "pace": 220000000000, "time": 1764.7}}, "weekday": "wednesday", "livingplace": "Cham"}}, "location": "Bouveret"}, "Tour du Chablais #6 Montreux": {"latitude": 46.3190253, "longitude": 6.970566, "race": "Tour du Chablais #6 Montreux", "date": {"mer. 16.05.2012": {"year": 2012, "day": 16, "month": 5, "categories": {"M-M20": {"distance": 9, "rank": 30, "pace": 225000000000, "time": 2087.6}}, "weekday": "wednesday", "livingplace": "Cham"}}, "location": "Aigle"}}, "birth": 1976}