{"name": "Rouiller St\u00e9phane", "sex": "M", "races": {"Tour du Chablais #2 Rennaz": {"latitude": 46.3835529, "longitude": 6.854975199999999, "race": "Tour du Chablais #2 Rennaz", "date": {"mer. 04.05.2011": {"year": 2011, "day": 4, "month": 5, "categories": {"M-M40": {"distance": 9, "rank": 2, "pace": 202000000000, "time": 1892.3}}, "weekday": "wednesday", "livingplace": "Troistorrents"}}, "location": "Bouveret"}, "Tour du Chablais #5 Les Mosses": {"latitude": 46.3603257, "longitude": 6.931504599999999, "race": "Tour du Chablais #5 Les Mosses", "date": {"mer. 25.05.2011": {"year": 2011, "day": 25, "month": 5, "categories": {"M-M40": {"distance": 8, "rank": 2, "pace": 213000000000, "time": 1707.8}}, "weekday": "wednesday", "livingplace": "Troistorrents"}}, "location": "Roche VD"}, "Tour du Chablais #3 Le Bouveret": {"latitude": 46.1782231, "longitude": 7.0223787, "race": "Tour du Chablais #3 Le Bouveret", "date": {"mer. 11.05.2011": {"year": 2011, "day": 11, "month": 5, "categories": {"M-M40": {"distance": 10, "rank": 3, "pace": 203000000000, "time": 2031.7}}, "weekday": "wednesday", "livingplace": "Troistorrents"}}, "location": "Evionnaz"}, "Sierre-Zinal, Sierre": {"latitude": 46.29413110000001, "longitude": 7.533536199999999, "race": "Sierre-Zinal, Sierre", "date": {"dim. 12.08.2012": {"year": 2012, "day": 12, "month": 8, "categories": {"V\u00e9t_I": {"distance": 31, "rank": 10, "pace": 347000000000, "time": 10764.7}}, "weekday": "sunday", "livingplace": "Troistorrents"}}, "location": "Sierre"}, "Tour du Chablais #4 Morgins": {"latitude": NaN, "longitude": NaN, "race": "Tour du Chablais #4 Morgins", "date": {"mer. 18.05.2011": {"year": 2011, "day": 18, "month": 5, "categories": {"M-M40": {"distance": 8, "rank": 2, "pace": 216000000000, "time": 1806.2}}, "weekday": "wednesday", "livingplace": "Troistorrents"}}, "location": "Les Mosses"}, "Tour du Chablais #6 Aigle": {"latitude": 46.3190253, "longitude": 6.970566, "race": "Tour du Chablais #6 Aigle", "date": {"mer. 01.06.2011": {"year": 2011, "day": 1, "month": 6, "categories": {"M-M40": {"distance": 10, "rank": 2, "pace": 201000000000, "time": 2054.8}}, "weekday": "wednesday", "livingplace": "Troistorrents"}}, "location": "Aigle"}, "20km de Lausanne": {"latitude": 46.5196535, "longitude": 6.6322734, "race": "20km de Lausanne", "date": {"sam. 25.04.2015": {"year": 2015, "day": 25, "month": 4, "categories": {"20-H50": {"distance": 20, "rank": 1, "pace": 212000000000, "time": 4252.6}}, "weekday": "saturday", "livingplace": "Troistorrents"}}, "location": "Lausanne"}, "Tour du Chablais #1 Lavey": {"latitude": 46.2957462, "longitude": 6.9916269, "race": "Tour du Chablais #1 Lavey", "date": {"mer. 27.04.2011": {"year": 2011, "day": 27, "month": 4, "categories": {"M-M40": {"distance": 9, "rank": 2, "pace": 203000000000, "time": 1828.8}}, "weekday": "wednesday", "livingplace": "Troistorrents"}}, "location": "Ollon VD"}, "Kerzerslauf": {"latitude": 46.97488999999999, "longitude": 7.1954365, "race": "Kerzerslauf", "date": {"sam. 21.03.2015": {"year": 2015, "day": 21, "month": 3, "categories": {"15-M50": {"distance": 15, "rank": 1, "pace": 215000000000, "time": 3237.5}}, "weekday": "saturday", "livingplace": "Troistorrents"}}, "location": "Kerzers"}, "Tour du Chablais #2 St-Gingolph": {"latitude": 46.3835529, "longitude": 6.854975199999999, "race": "Tour du Chablais #2 St-Gingolph", "date": {"mer. 14.04.2010": {"year": 2010, "day": 14, "month": 4, "categories": {"M-M40": {"distance": 8, "rank": 1, "pace": 213000000000, "time": 1778.9}}, "weekday": "wednesday", "livingplace": "Troistorrents"}}, "location": "Bouveret"}}, "birth": 1965}