{"name": "Roux Sylvain", "sex": "M", "races": {"BCN Tour La Chaux-de-fonds": {"latitude": 47.1034892, "longitude": 6.832783800000001, "race": "BCN Tour La Chaux-de-fonds", "date": {"mer. 12.05.2010": {"year": 2010, "day": 12, "month": 5, "categories": {"HS1": {"distance": 11, "rank": 29, "pace": 305000000000, "time": 3266.8}}, "weekday": "wednesday", "livingplace": "Jougne"}}, "location": "La Chaux-de-Fonds"}, "BCN Tour Le Locle": {"latitude": 46.999113, "longitude": 6.733554799999999, "race": "BCN Tour Le Locle", "date": {"mer. 05.05.2010": {"year": 2010, "day": 5, "month": 5, "categories": {"HS1": {"distance": 11, "rank": 91, "pace": 291000000000, "time": 3180.9}}, "weekday": "wednesday", "livingplace": "Jougne"}}, "location": "Les Ponts-de-Martel"}, "BCN Tour Neuch\u00e2tel": {"latitude": 46.9899874, "longitude": 6.9292732, "race": "BCN Tour Neuch\u00e2tel", "date": {"mer. 26.05.2010": {"year": 2010, "day": 26, "month": 5, "categories": {"HS1": {"distance": 10, "rank": 41, "pace": 264000000000, "time": 2568.4}}, "weekday": "wednesday", "livingplace": "Jougne"}}, "location": "Neuch\u00e2tel"}, "BCN Tour M\u00f4tier": {"latitude": 46.9262933, "longitude": 6.6324944, "race": "BCN Tour M\u00f4tier", "date": {"mer. 19.05.2010": {"year": 2010, "day": 19, "month": 5, "categories": {"HS1": {"distance": 10, "rank": 36, "pace": 244000000000, "time": 2423.8}}, "weekday": "wednesday", "livingplace": "Jougne"}}, "location": "Couvet"}, "BCN Tour Ponts-de-Martel": {"latitude": 47.0624261, "longitude": 6.9175754, "race": "BCN Tour Ponts-de-Martel", "date": {"mer. 28.04.2010": {"year": 2010, "day": 28, "month": 4, "categories": {"HS1": {"distance": 11, "rank": 32, "pace": 260000000000, "time": 2914.2}}, "weekday": "wednesday", "livingplace": "Jougne"}}, "location": "Ch\u00e9zard-St-Martin"}}, "birth": 1980}