{"name": "Rovinolo Walter", "sex": "M", "races": {"Badener Limmat-Lauf, Baden": {"latitude": 48.5699281, "longitude": 8.5303972, "race": "Badener Limmat-Lauf, Baden", "date": {"sam. 28.03.2015": {"year": 2015, "day": 28, "month": 3, "categories": {"M30": {"distance": 13, "rank": 103, "pace": 302000000000, "time": 3984.5}}, "weekday": "saturday", "livingplace": "Klingnau"}}, "location": "Baden"}, "Stralugano, Lugano": {"latitude": 46.0036778, "longitude": 8.951051999999999, "race": "Stralugano, Lugano", "date": {"dim. 28.09.2014": {"year": 2014, "day": 28, "month": 9, "categories": {"10-M20": {"distance": 10, "rank": 293, "pace": 276000000000, "time": 2762.8}}, "weekday": "sunday", "livingplace": "Klingnau"}}, "location": "Lugano"}, "SwissCityMarathon - Lucerne, Luzern": {"latitude": 47.05016819999999, "longitude": 8.3093072, "race": "SwissCityMarathon - Lucerne, Luzern", "date": {"dim. 25.10.2015": {"year": 2015, "day": 25, "month": 10, "categories": {"H-M35": {"distance": 21, "rank": 312, "pace": 303000000000, "time": 6399.4}}, "weekday": "sunday", "livingplace": "Klingnau"}}, "location": "Luzern"}, "ASICS Bremgarter Reusslauf": {"latitude": 47.34917739999999, "longitude": 8.3397905, "race": "ASICS Bremgarter Reusslauf", "date": {"sam. 28.02.2015": {"year": 2015, "day": 28, "month": 2, "categories": {"11-M30": {"distance": 11, "rank": 272, "pace": 292000000000, "time": 3213.8}}, "weekday": "saturday", "livingplace": "Arrow_ai"}}, "location": "Bremgarten AG"}, "Gippinger Stauseelauf": {"latitude": 47.5810513, "longitude": 8.2152586, "race": "Gippinger Stauseelauf", "date": {"jeu. 31.12.2015": {"year": 2015, "day": 31, "month": 12, "categories": {"7-M30": {"distance": 8, "rank": 53, "pace": 287000000000, "time": 2166.0}}, "weekday": "thursday", "livingplace": "Klingnau"}}, "location": "Leuggern"}, "Lausanne Marathon": {"latitude": 46.5196535, "longitude": 6.6322734, "race": "Lausanne Marathon", "date": {"dim. 26.10.2014": {"year": 2014, "day": 26, "month": 10, "categories": {"10-H30": {"distance": 10, "rank": 291, "pace": 284000000000, "time": 2847.5}}, "weekday": "sunday", "livingplace": "Klingnau"}}, "location": "Lausanne"}, "Winterthur Marathon": {"latitude": 39.8088766, "longitude": -75.6037351, "race": "Winterthur Marathon", "date": {"dim. 31.05.2015": {"year": 2015, "day": 31, "month": 5, "categories": {"HM-M30": {"distance": 21, "rank": 168, "pace": 315000000000, "time": 6632.1}}, "weekday": "sunday", "livingplace": "Arrow_ai"}}, "location": "Winterthur"}}, "birth": 1978}