{"name": "Ruchet S\u00e9bastien", "sex": "M", "races": {"Tour du Chablais #1 Roche": {"latitude": 46.2957462, "longitude": 6.9916269, "race": "Tour du Chablais #1 Roche", "date": {"mer. 07.04.2010": {"year": 2010, "day": 7, "month": 4, "categories": {"M-M20": {"distance": 9, "rank": 126, "pace": 273000000000, "time": 2449.7}}, "weekday": "wednesday", "livingplace": "Veytaux"}, "mer. 03.04.2013": {"year": 2013, "day": 3, "month": 4, "categories": {"M-M40": {"distance": 9, "rank": 79, "pace": 280000000000, "time": 2483.6}}, "weekday": "wednesday", "livingplace": "Veytaux"}}, "location": "Ollon VD"}, "Tour du Chablais #2 Rennaz": {"latitude": 46.3835529, "longitude": 6.854975199999999, "race": "Tour du Chablais #2 Rennaz", "date": {"mer. 04.05.2011": {"year": 2011, "day": 4, "month": 5, "categories": {"M-M20": {"distance": 9, "rank": 108, "pace": 263000000000, "time": 2461.3}}, "weekday": "wednesday", "livingplace": "Veytaux"}}, "location": "Bouveret"}, "Tour du Chablais #3 Le Bouveret": {"latitude": 46.1782231, "longitude": 7.0223787, "race": "Tour du Chablais #3 Le Bouveret", "date": {"mer. 11.05.2011": {"year": 2011, "day": 11, "month": 5, "categories": {"M-M20": {"distance": 10, "rank": 115, "pace": 263000000000, "time": 2631.4}}, "weekday": "wednesday", "livingplace": "Veytaux"}}, "location": "Evionnaz"}, "Tour du Chablais #6 Monthey": {"latitude": 46.3190253, "longitude": 6.970566, "race": "Tour du Chablais #6 Monthey", "date": {"mer. 08.05.2013": {"year": 2013, "day": 8, "month": 5, "categories": {"M-M40": {"distance": 9, "rank": 60, "pace": 263000000000, "time": 2459.9}}, "weekday": "wednesday", "livingplace": "Veytaux"}}, "location": "Aigle"}, "20km de Lausanne": {"latitude": 46.5196535, "longitude": 6.6322734, "race": "20km de Lausanne", "date": {"sam. 30.04.2011": {"year": 2011, "day": 30, "month": 4, "categories": {"10-H30": {"distance": 10, "rank": 132, "pace": 268000000000, "time": 2686.3}}, "weekday": "saturday", "livingplace": "Veytaux"}, "sam. 24.04.2010": {"year": 2010, "day": 24, "month": 4, "categories": {"10-H30": {"distance": 10, "rank": 158, "pace": 280000000000, "time": 2807.0}}, "weekday": "saturday", "livingplace": "Veytaux"}}, "location": "Lausanne"}, "Tour du Chablais #1 Lavey": {"latitude": 46.2957462, "longitude": 6.9916269, "race": "Tour du Chablais #1 Lavey", "date": {"mer. 27.04.2011": {"year": 2011, "day": 27, "month": 4, "categories": {"M-M20": {"distance": 9, "rank": 113, "pace": 269000000000, "time": 2427.1}}, "weekday": "wednesday", "livingplace": "Veytaux"}}, "location": "Ollon VD"}, "Tour du Chablais #2 Yvorne": {"latitude": 46.3835529, "longitude": 6.854975199999999, "race": "Tour du Chablais #2 Yvorne", "date": {"mer. 10.04.2013": {"year": 2013, "day": 10, "month": 4, "categories": {"M-M40": {"distance": 8, "rank": 57, "pace": 296000000000, "time": 2373.4}}, "weekday": "wednesday", "livingplace": "Veytaux"}}, "location": "Bouveret"}, "Tour du Chablais #5 Leysin": {"latitude": 46.3603257, "longitude": 6.931504599999999, "race": "Tour du Chablais #5 Leysin", "date": {"mer. 05.05.2010": {"year": 2010, "day": 5, "month": 5, "categories": {"M-M20": {"distance": 8, "rank": 74, "pace": 289000000000, "time": 2446.3}}, "weekday": "wednesday", "livingplace": "Veytaux"}}, "location": "Roche VD"}, "Tour du Chablais #5 Bex": {"latitude": 46.3603257, "longitude": 6.931504599999999, "race": "Tour du Chablais #5 Bex", "date": {"mer. 09.05.2012": {"year": 2012, "day": 9, "month": 5, "categories": {"M-M40": {"distance": 9, "rank": 49, "pace": 262000000000, "time": 2330.1}}, "weekday": "wednesday", "livingplace": "Veytaux"}}, "location": "Roche VD"}, "Tour du Chablais #4 Champ\u00e9ry": {"latitude": NaN, "longitude": NaN, "race": "Tour du Chablais #4 Champ\u00e9ry", "date": {"mer. 02.05.2012": {"year": 2012, "day": 2, "month": 5, "categories": {"M-M40": {"distance": 8, "rank": 53, "pace": 263000000000, "time": 2183.1}}, "weekday": "wednesday", "livingplace": "Veytaux"}}, "location": "Les Mosses"}, "Tour du Chablais #5 Morgins": {"latitude": 46.3603257, "longitude": 6.931504599999999, "race": "Tour du Chablais #5 Morgins", "date": {"mer. 01.05.2013": {"year": 2013, "day": 1, "month": 5, "categories": {"M-M40": {"distance": 8, "rank": 53, "pace": 285000000000, "time": 2170.0}}, "weekday": "wednesday", "livingplace": "Veytaux"}}, "location": "Roche VD"}, "Tour du Chablais #5 Les Mosses": {"latitude": 46.3603257, "longitude": 6.931504599999999, "race": "Tour du Chablais #5 Les Mosses", "date": {"mer. 25.05.2011": {"year": 2011, "day": 25, "month": 5, "categories": {"M-M20": {"distance": 8, "rank": 105, "pace": 285000000000, "time": 2280.6}}, "weekday": "wednesday", "livingplace": "Veytaux"}}, "location": "Roche VD"}, "Tour du Chablais #6 Aigle": {"latitude": 46.3190253, "longitude": 6.970566, "race": "Tour du Chablais #6 Aigle", "date": {"mer. 01.06.2011": {"year": 2011, "day": 1, "month": 6, "categories": {"M-M20": {"distance": 10, "rank": 116, "pace": 260000000000, "time": 2660.0}}, "weekday": "wednesday", "livingplace": "Veytaux"}}, "location": "Aigle"}, "Tour du Chablais #4 St  Maurice": {"latitude": NaN, "longitude": NaN, "race": "Tour du Chablais #4 St  Maurice", "date": {"mer. 24.04.2013": {"year": 2013, "day": 24, "month": 4, "categories": {"M-M40": {"distance": 10, "rank": 63, "pace": 274000000000, "time": 2742.5}}, "weekday": "wednesday", "livingplace": "Veytaux"}}, "location": "Les Mosses"}, "Tour du Chablais #3 Collombey-Muraz": {"latitude": 46.1782231, "longitude": 7.0223787, "race": "Tour du Chablais #3 Collombey-Muraz", "date": {"mer. 25.04.2012": {"year": 2012, "day": 25, "month": 4, "categories": {"M-M40": {"distance": 9, "rank": 66, "pace": 271000000000, "time": 2436.1}}, "weekday": "wednesday", "livingplace": "Veytaux"}}, "location": "Evionnaz"}, "Tour du Chablais #3 Bex": {"latitude": 46.1782231, "longitude": 7.0223787, "race": "Tour du Chablais #3 Bex", "date": {"mer. 21.04.2010": {"year": 2010, "day": 21, "month": 4, "categories": {"M-M20": {"distance": 10, "rank": 87, "pace": 272000000000, "time": 2723.3}}, "weekday": "wednesday", "livingplace": "Veytaux"}}, "location": "Evionnaz"}, "Tour du Chablais #4 Morgins": {"latitude": NaN, "longitude": NaN, "race": "Tour du Chablais #4 Morgins", "date": {"mer. 18.05.2011": {"year": 2011, "day": 18, "month": 5, "categories": {"M-M20": {"distance": 8, "rank": 103, "pace": 280000000000, "time": 2346.2}}, "weekday": "wednesday", "livingplace": "Veytaux"}}, "location": "Les Mosses"}, "Tour du Chablais #6 Mouthey": {"latitude": 46.3190253, "longitude": 6.970566, "race": "Tour du Chablais #6 Mouthey", "date": {"mer. 12.05.2010": {"year": 2010, "day": 12, "month": 5, "categories": {"M-M20": {"distance": 9, "rank": 174, "pace": 292000000000, "time": 2688.3}}, "weekday": "wednesday", "livingplace": "Veytaux"}}, "location": "Aigle"}, "Tour du Chablais #1 Montreux": {"latitude": 46.2957462, "longitude": 6.9916269, "race": "Tour du Chablais #1 Montreux", "date": {"mer. 11.04.2012": {"year": 2012, "day": 11, "month": 4, "categories": {"M-M40": {"distance": 8, "rank": 65, "pace": 276000000000, "time": 2105.0}}, "weekday": "wednesday", "livingplace": "Veytaux"}}, "location": "Ollon VD"}, "Tour du Chablais #3 Bouveret": {"latitude": 46.1782231, "longitude": 7.0223787, "race": "Tour du Chablais #3 Bouveret", "date": {"mer. 17.04.2013": {"year": 2013, "day": 17, "month": 4, "categories": {"M-M40": {"distance": 10, "rank": 78, "pace": 279000000000, "time": 2793.7}}, "weekday": "wednesday", "livingplace": "Veytaux"}}, "location": "Evionnaz"}, "Montreux - Les Rochers de Naye": {"latitude": 46.4312213, "longitude": 6.9106799, "race": "Montreux - Les Rochers de Naye", "date": {"dim. 10.07.2011": {"year": 2011, "day": 10, "month": 7, "categories": {"M-HElite": {"distance": 19, "rank": 89, "pace": 433000000000, "time": 8144.6}}, "weekday": "sunday", "livingplace": "Veytaux"}, "dim. 07.07.2013": {"year": 2013, "day": 7, "month": 7, "categories": {"M-HV\u00e9t1": {"distance": 19, "rank": 75, "pace": 505000000000, "time": 9506.8}}, "weekday": "sunday", "livingplace": "Veytaux"}, "dim. 06.07.2014": {"year": 2014, "day": 6, "month": 7, "categories": {"M-HV\u00e9t1": {"distance": 19, "rank": 86, "pace": 485000000000, "time": 9136.3}}, "weekday": "sunday", "livingplace": "Veytaux"}, "dim. 08.07.2012": {"year": 2012, "day": 8, "month": 7, "categories": {"M-HV\u00e9t1": {"distance": 19, "rank": 51, "pace": 455000000000, "time": 8568.2}}, "weekday": "sunday", "livingplace": "Veytaux"}}, "location": "Montreux"}, "Tour du Chablais #2 St-Gingolph": {"latitude": 46.3835529, "longitude": 6.854975199999999, "race": "Tour du Chablais #2 St-Gingolph", "date": {"mer. 14.04.2010": {"year": 2010, "day": 14, "month": 4, "categories": {"M-M20": {"distance": 8, "rank": 80, "pace": 284000000000, "time": 2378.9}}, "weekday": "wednesday", "livingplace": "Veytaux"}}, "location": "Bouveret"}, "Tour du Chablais #4 Yvorne": {"latitude": NaN, "longitude": NaN, "race": "Tour du Chablais #4 Yvorne", "date": {"mer. 28.04.2010": {"year": 2010, "day": 28, "month": 4, "categories": {"M-M20": {"distance": 8, "rank": 108, "pace": 290000000000, "time": 2407.9}}, "weekday": "wednesday", "livingplace": "Veytaux"}}, "location": "Les Mosses"}, "Tour du Chablais #2 Bex": {"latitude": 46.3835529, "longitude": 6.854975199999999, "race": "Tour du Chablais #2 Bex", "date": {"mer. 18.04.2012": {"year": 2012, "day": 18, "month": 4, "categories": {"M-M40": {"distance": 8, "rank": 70, "pace": 274000000000, "time": 2195.8}}, "weekday": "wednesday", "livingplace": "Veytaux"}}, "location": "Bouveret"}, "Tour du Chablais #6 Montreux": {"latitude": 46.3190253, "longitude": 6.970566, "race": "Tour du Chablais #6 Montreux", "date": {"mer. 16.05.2012": {"year": 2012, "day": 16, "month": 5, "categories": {"M-M40": {"distance": 9, "rank": 57, "pace": 254000000000, "time": 2349.9}}, "weekday": "wednesday", "livingplace": "Veytaux"}}, "location": "Aigle"}}, "birth": 1972}