{"name": "R\u00fceger Ronald", "sex": "M", "races": {"R\u00fctilauf, R\u00fcti ZH": {"latitude": 47.2566995, "longitude": 8.854421, "race": "R\u00fctilauf, R\u00fcti ZH", "date": {"sam. 24.08.2013": {"year": 2013, "day": 24, "month": 8, "categories": {"C": {"distance": 11, "rank": 59, "pace": 287000000000, "time": 3253.3}}, "weekday": "saturday", "livingplace": "Holzhausern"}}, "location": "R\u00fcti ZH"}, "T\u00fcrlerseelauf Affoltern am Albis": {"latitude": 47.2795081, "longitude": 8.4540083, "race": "T\u00fcrlerseelauf Affoltern am Albis", "date": {"sam. 31.08.2013": {"year": 2013, "day": 31, "month": 8, "categories": {"C": {"distance": 14, "rank": 68, "pace": 288000000000, "time": 4070.8}}, "weekday": "saturday", "livingplace": "Holzhausern"}}, "location": "Affoltern am Albis"}, "Laufsporttag Winterthur": {"latitude": 39.8088766, "longitude": -75.6037351, "race": "Laufsporttag Winterthur", "date": {"sam. 01.03.2014": {"year": 2014, "day": 1, "month": 3, "categories": {"C": {"distance": 11, "rank": 91, "pace": 282000000000, "time": 3109.7}}, "weekday": "saturday", "livingplace": "Holzhausern"}}, "location": "Winterthur"}, "Zumiker-Lauf": {"latitude": NaN, "longitude": NaN, "race": "Zumiker-Lauf", "date": {"sam. 08.06.2013": {"year": 2013, "day": 8, "month": 6, "categories": {"C": {"distance": 11, "rank": 74, "pace": 300000000000, "time": 3367.7}}, "weekday": "saturday", "livingplace": "Holzhausern"}}, "location": "Zumikon"}, "Dietiker Neujahrslauf, Dietikon": {"latitude": 47.4053885, "longitude": 8.39977, "race": "Dietiker Neujahrslauf, Dietikon", "date": {"sam. 10.01.2015": {"year": 2015, "day": 10, "month": 1, "categories": {"C": {"distance": 12, "rank": 121, "pace": 287000000000, "time": 3476.4}}, "weekday": "saturday", "livingplace": "Holzhausern"}, "sam. 11.01.2014": {"year": 2014, "day": 11, "month": 1, "categories": {"C": {"distance": 12, "rank": 122, "pace": 281000000000, "time": 3405.7}}, "weekday": "saturday", "livingplace": "Holzhausern"}}, "location": "Dietikon"}, "Z\u00fcrich Marathon, Teamrun und Cityrun": {"latitude": 47.3768866, "longitude": 8.541694, "race": "Z\u00fcrich Marathon, Teamrun und Cityrun", "date": {"dim. 19.04.2015": {"year": 2015, "day": 19, "month": 4, "categories": {"10-M40": {"distance": 10, "rank": 133, "pace": 289000000000, "time": 2837.9}}, "weekday": "sunday", "livingplace": "Holzhausern"}}, "location": "Z\u00fcrich"}}, "birth": 1973}