{"name": "Ruffieux Alexandre", "sex": "M", "races": {"Lausanne Marathon": {"latitude": 46.5196535, "longitude": 6.6322734, "race": "Lausanne Marathon", "date": {"sam. 24.10.2015": {"year": 2015, "day": 24, "month": 10, "categories": {"10-H30": {"distance": 10, "rank": 173, "pace": 256000000000, "time": 2563.7}}, "weekday": "saturday", "livingplace": "Bern"}, "dim. 26.10.2014": {"year": 2014, "day": 26, "month": 10, "categories": {"10-H30": {"distance": 10, "rank": 280, "pace": 283000000000, "time": 2836.1}}, "weekday": "sunday", "livingplace": "Bern"}, "dim. 27.10.2013": {"year": 2013, "day": 27, "month": 10, "categories": {"10-H2": {"distance": 10, "rank": 383, "pace": 314000000000, "time": 3148.1}}, "weekday": "sunday", "livingplace": "Chatel St Denis"}}, "location": "Lausanne"}, "Les Traine-Savates, Cheseaux-sur-Lausanne": {"latitude": 46.585452, "longitude": 6.6047712, "race": "Les Traine-Savates, Cheseaux-sur-Lausanne", "date": {"sam. 18.04.2015": {"year": 2015, "day": 18, "month": 4, "categories": {"10-M20": {"distance": 10, "rank": 116, "pace": 266000000000, "time": 2742.4}}, "weekday": "saturday", "livingplace": "Bern"}}, "location": "Cheseaux-sur-Lausanne"}, "Course de l'Escalade, Gen\u00e8ve": {"latitude": 46.2043907, "longitude": 6.1431577, "race": "Course de l'Escalade, Gen\u00e8ve", "date": {"sam. 05.12.2015": {"year": 2015, "day": 5, "month": 12, "categories": {"Esc-Hom2": {"distance": 7, "rank": 708, "pace": 268000000000, "time": 1967.2}}, "weekday": "saturday", "livingplace": "Bern"}, "sam. 06.12.2014": {"year": 2014, "day": 6, "month": 12, "categories": {"Esc-Hom2": {"distance": 7, "rank": 1550, "pace": 319000000000, "time": 2339.0}}, "weekday": "saturday", "livingplace": "Bern"}}, "location": "Gen\u00e8ve"}, "Kerzerslauf": {"latitude": 46.97488999999999, "longitude": 7.1954365, "race": "Kerzerslauf", "date": {"sam. 21.03.2015": {"year": 2015, "day": 21, "month": 3, "categories": {"15-M35": {"distance": 15, "rank": 202, "pace": 282000000000, "time": 4241.3}}, "weekday": "saturday", "livingplace": "Bern"}}, "location": "Kerzers"}, "Corrida Bulloise, Bulle": {"latitude": 46.6154512, "longitude": 7.057726799999999, "race": "Corrida Bulloise, Bulle", "date": {"sam. 21.11.2015": {"year": 2015, "day": 21, "month": 11, "categories": {"8-M20": {"distance": 8, "rank": 115, "pace": 266000000000, "time": 2172.3}}, "weekday": "saturday", "livingplace": "Bern"}}, "location": "Bulle"}}, "birth": 1980}