{"name": "Rupf Martin", "sex": "M", "races": {"Badener Limmat-Lauf, Baden": {"latitude": 48.5699281, "longitude": 8.5303972, "race": "Badener Limmat-Lauf, Baden", "date": {"sam. 27.03.2004": {"year": 2004, "day": 27, "month": 3, "categories": {"11": {"distance": 13, "rank": 12, "pace": 242000000000, "time": 3187.2}}, "weekday": "saturday", "livingplace": "Fislisbach"}, "sam. 28.03.2015": {"year": 2015, "day": 28, "month": 3, "categories": {"M30": {"distance": 13, "rank": 32, "pace": 254000000000, "time": 3349.2}}, "weekday": "saturday", "livingplace": "Freienwil"}}, "location": "Baden"}, "Z\u00fcrcher Silvesterlauf, Z\u00fcrich": {"latitude": 47.3768866, "longitude": 8.541694, "race": "Z\u00fcrcher Silvesterlauf, Z\u00fcrich", "date": {"dim. 10.12.2006": {"year": 2006, "day": 10, "month": 12, "categories": {"MenHK-8": {"distance": 9, "rank": 78, "pace": 232000000000, "time": 2002.6}}, "weekday": "sunday", "livingplace": "Fislisbach"}}, "location": "Z\u00fcrich"}, "Morat-Fribourg": {"latitude": 46.92922110000001, "longitude": 7.120184, "race": "Morat-Fribourg", "date": {"sam. 06.10.2007": {"year": 2007, "day": 6, "month": 10, "categories": {"C/M20": {"distance": 17, "rank": 196, "pace": 252000000000, "time": 4329.0}}, "weekday": "saturday", "livingplace": "Fislisbach"}}, "location": "Murten"}, "Kerzerslauf": {"latitude": 46.97488999999999, "longitude": 7.1954365, "race": "Kerzerslauf", "date": {"sam. 18.03.2006": {"year": 2006, "day": 18, "month": 3, "categories": {"M20": {"distance": 15, "rank": 185, "pace": 258000000000, "time": 3870.6}}, "weekday": "saturday", "livingplace": "Bern"}}, "location": "Kerzers"}, "Int Greifenseelauf, Uster": {"latitude": 47.3482747, "longitude": 8.717873899999999, "race": "Int Greifenseelauf, Uster", "date": {"sam. 17.09.2005": {"year": 2005, "day": 17, "month": 9, "categories": {"H/M20": {"distance": 21, "rank": 93, "pace": 252000000000, "time": 5325.5}}, "weekday": "saturday", "livingplace": "Fislisbach"}, "sam. 18.09.2004": {"year": 2004, "day": 18, "month": 9, "categories": {"H/M20": {"distance": 21, "rank": 103, "pace": 270000000000, "time": 5700.3}}, "weekday": "saturday", "livingplace": "Fislisbach"}}, "location": "Uster"}}, "birth": 1978}