{"name": "R\u00fctti Romain", "sex": "M", "races": {"Lausanne Marathon": {"latitude": 46.5196535, "longitude": 6.6322734, "race": "Lausanne Marathon", "date": {"sam. 24.10.2015": {"year": 2015, "day": 24, "month": 10, "categories": {"42-H20": {"distance": 42, "rank": 36, "pace": 296000000000, "time": 12497.2}}, "weekday": "saturday", "livingplace": "Morges"}, "dim. 26.10.2014": {"year": 2014, "day": 26, "month": 10, "categories": {"42-H20": {"distance": 42, "rank": 77, "pace": 339000000000, "time": 14335.1}}, "weekday": "sunday", "livingplace": "Morges"}}, "location": "Lausanne"}, "Morat-Fribourg": {"latitude": 46.92922110000001, "longitude": 7.120184, "race": "Morat-Fribourg", "date": {"sam. 03.10.2015": {"year": 2015, "day": 3, "month": 10, "categories": {"17-M20": {"distance": 17, "rank": 270, "pace": 261000000000, "time": 4492.5}}, "weekday": "saturday", "livingplace": "Morges"}, "sam. 04.10.2014": {"year": 2014, "day": 4, "month": 10, "categories": {"17-M20": {"distance": 17, "rank": 497, "pace": 276000000000, "time": 4755.4}}, "weekday": "saturday", "livingplace": "Morges"}}, "location": "Murten"}, "Montreux - Les Rochers de Naye": {"latitude": 46.4312213, "longitude": 6.9106799, "race": "Montreux - Les Rochers de Naye", "date": {"dim. 06.07.2014": {"year": 2014, "day": 6, "month": 7, "categories": {"M-HElite": {"distance": 19, "rank": 107, "pace": 443000000000, "time": 8345.8}}, "weekday": "sunday", "livingplace": "Morges"}}, "location": "Montreux"}, "Sierre-Zinal, Sierre": {"latitude": 46.29413110000001, "longitude": 7.533536199999999, "race": "Sierre-Zinal, Sierre", "date": {"dim. 09.08.2015": {"year": 2015, "day": 9, "month": 8, "categories": {"ElitesHo": {"distance": 31, "rank": 225, "pace": 462000000000, "time": 14324.7}}, "weekday": "sunday", "livingplace": "Morges"}}, "location": "Sierre"}, "20km de Lausanne": {"latitude": 46.5196535, "longitude": 6.6322734, "race": "20km de Lausanne", "date": {"sam. 30.04.2011": {"year": 2011, "day": 30, "month": 4, "categories": {"10-H20": {"distance": 10, "rank": 426, "pace": 315000000000, "time": 3154.3}}, "weekday": "saturday", "livingplace": "Villars Mendraz"}, "sam. 25.04.2015": {"year": 2015, "day": 25, "month": 4, "categories": {"20-H20": {"distance": 20, "rank": 163, "pace": 263000000000, "time": 5272.4}}, "weekday": "saturday", "livingplace": "Nicolas Fehlmann Ingenieu"}, "sam. 26.04.2014": {"year": 2014, "day": 26, "month": 4, "categories": {"20-H20": {"distance": 20, "rank": 201, "pace": 281000000000, "time": 5626.3}}, "weekday": "saturday", "livingplace": "Morges"}}, "location": "Lausanne"}, "D\u00e9fi du vignoble, Cully": {"latitude": 45.565921, "longitude": -122.6066627, "race": "D\u00e9fi du vignoble, Cully", "date": {"mer. 14.05.2014": {"year": 2014, "day": 14, "month": 5, "categories": {"M20": {"distance": 4, "rank": 21, "pace": 497000000000, "time": 1809.9}}, "weekday": "wednesday", "livingplace": "Morges"}}, "location": "Cully"}, "Course de l'Escalade, Gen\u00e8ve": {"latitude": 46.2043907, "longitude": 6.1431577, "race": "Course de l'Escalade, Gen\u00e8ve", "date": {"sam. 05.12.2015": {"year": 2015, "day": 5, "month": 12, "categories": {"Esc-Hom1": {"distance": 7, "rank": 178, "pace": 241000000000, "time": 1768.9}}, "weekday": "saturday", "livingplace": "Morges"}}, "location": "Gen\u00e8ve"}}, "birth": 1989}