{"name": "R\u00fctti Roger", "sex": "M", "races": {"Lausanne Marathon": {"latitude": 46.5196535, "longitude": 6.6322734, "race": "Lausanne Marathon", "date": {"dim. 30.10.2011": {"year": 2011, "day": 30, "month": 10, "categories": {"21-H3": {"distance": 21, "rank": 704, "pace": 335000000000, "time": 7073.0}}, "weekday": "sunday", "livingplace": "Payerne"}}, "location": "Lausanne"}, "Course de l'Avent, Yverdon": {"latitude": 46.8064773, "longitude": 7.161971899999999, "race": "Course de l'Avent, Yverdon", "date": {"dim. 28.11.2010": {"year": 2010, "day": 28, "month": 11, "categories": {"P-H43": {"distance": 6, "rank": 12, "pace": 303000000000, "time": 1872.2}}, "weekday": "sunday", "livingplace": "Payerne"}}, "location": "Fribourg"}, "10km, Payerne": {"latitude": 46.8220266, "longitude": 6.9405663, "race": "10km, Payerne", "date": {"sam. 16.04.2011": {"year": 2011, "day": 16, "month": 4, "categories": {"M40": {"distance": 10, "rank": 42, "pace": 300000000000, "time": 3000.8}}, "weekday": "saturday", "livingplace": "Payerne"}}, "location": "Payerne"}, "Winterthur Marathon": {"latitude": 39.8088766, "longitude": -75.6037351, "race": "Winterthur Marathon", "date": {"dim. 06.05.2012": {"year": 2012, "day": 6, "month": 5, "categories": {"H-M40": {"distance": 21, "rank": 181, "pace": 325000000000, "time": 6837.3}}, "weekday": "sunday", "livingplace": "Payerne"}, "dim. 29.05.2011": {"year": 2011, "day": 29, "month": 5, "categories": {"H-M40": {"distance": 21, "rank": 223, "pace": 321000000000, "time": 6751.3}}, "weekday": "sunday", "livingplace": "Payerne"}}, "location": "Winterthur"}, "20km de Lausanne": {"latitude": 46.5196535, "longitude": 6.6322734, "race": "20km de Lausanne", "date": {"sam. 30.04.2011": {"year": 2011, "day": 30, "month": 4, "categories": {"10-H40": {"distance": 10, "rank": 212, "pace": 306000000000, "time": 3061.1}}, "weekday": "saturday", "livingplace": "Payerne"}}, "location": "Lausanne"}, "Hellebardenlauf Sempach": {"latitude": NaN, "longitude": NaN, "race": "Hellebardenlauf Sempach", "date": {"sam. 25.06.2011": {"year": 2011, "day": 25, "month": 6, "categories": {"16-M40": {"distance": 16, "rank": 182, "pace": 327000000000, "time": 5275.2}}, "weekday": "saturday", "livingplace": "Payerne"}}, "location": "Sempach Stadt"}, "Kerzerslauf": {"latitude": 46.97488999999999, "longitude": 7.1954365, "race": "Kerzerslauf", "date": {"sam. 19.03.2011": {"year": 2011, "day": 19, "month": 3, "categories": {"15-M40": {"distance": 15, "rank": 465, "pace": 318000000000, "time": 4780.2}}, "weekday": "saturday", "livingplace": "Payerne"}, "sam. 17.03.2012": {"year": 2012, "day": 17, "month": 3, "categories": {"15-M40": {"distance": 15, "rank": 479, "pace": 326000000000, "time": 4890.4}}, "weekday": "saturday", "livingplace": "Payerne"}}, "location": "Kerzers"}, "ASICS Bremgarter Reusslauf": {"latitude": 47.34917739999999, "longitude": 8.3397905, "race": "ASICS Bremgarter Reusslauf", "date": {"sam. 25.02.2012": {"year": 2012, "day": 25, "month": 2, "categories": {"M40": {"distance": 11, "rank": 462, "pace": 294000000000, "time": 3244.9}}, "weekday": "saturday", "livingplace": "Payerne"}, "sam. 26.02.2011": {"year": 2011, "day": 26, "month": 2, "categories": {"M40": {"distance": 11, "rank": 542, "pace": 309000000000, "time": 3409.9}}, "weekday": "saturday", "livingplace": "Payerne"}}, "location": "Bremgarten AG"}}, "birth": 1969}