{"name": "Ryser Jean-Bernard", "sex": "M", "races": {"BCN Tour #3 Dombresson": {"latitude": 46.999113, "longitude": 6.733554799999999, "race": "BCN Tour #3 Dombresson", "date": {"mer. 08.05.2013": {"year": 2013, "day": 8, "month": 5, "categories": {"HV2": {"distance": 10, "rank": 37, "pace": 365000000000, "time": 3619.0}}, "weekday": "wednesday", "livingplace": "Biel/Bienne"}}, "location": "Les Ponts-de-Martel"}, "BCN Tour #6 Neuch\u00e2tel": {"latitude": 46.9899874, "longitude": 6.9292732, "race": "BCN Tour #6 Neuch\u00e2tel", "date": {"mer. 29.05.2013": {"year": 2013, "day": 29, "month": 5, "categories": {"HV2": {"distance": 11, "rank": 44, "pace": 432000000000, "time": 4754.9}}, "weekday": "wednesday", "livingplace": "Biel/Bienne"}}, "location": "Neuch\u00e2tel"}, "BCN Tour Les Ponts-de-Martel": {"latitude": 46.999113, "longitude": 6.733554799999999, "race": "BCN Tour Les Ponts-de-Martel", "date": {"mer. 09.05.2012": {"year": 2012, "day": 9, "month": 5, "categories": {"HV2": {"distance": 10, "rank": 34, "pace": 406000000000, "time": 4188.7}}, "weekday": "wednesday", "livingplace": "Biel/Bienne"}}, "location": "Les Ponts-de-Martel"}, "BCN Tour Neuch\u00e2tel": {"latitude": 46.9899874, "longitude": 6.9292732, "race": "BCN Tour Neuch\u00e2tel", "date": {"mer. 26.05.2010": {"year": 2010, "day": 26, "month": 5, "categories": {"HV2": {"distance": 10, "rank": 49, "pace": 535000000000, "time": 5190.6}}, "weekday": "wednesday", "livingplace": "Biel/Bienne"}}, "location": "Neuch\u00e2tel"}, "BCN Tour #5 Colombier": {"latitude": 46.9262933, "longitude": 6.6324944, "race": "BCN Tour #5 Colombier", "date": {"mer. 22.05.2013": {"year": 2013, "day": 22, "month": 5, "categories": {"HV2": {"distance": 11, "rank": 18, "pace": 307000000000, "time": 3225.3}}, "weekday": "wednesday", "livingplace": "Biel/Bienne"}}, "location": "Couvet"}, "BCN Tour Couvet": {"latitude": 47.0624261, "longitude": 6.9175754, "race": "BCN Tour Couvet", "date": {"mer. 02.05.2012": {"year": 2012, "day": 2, "month": 5, "categories": {"HV2": {"distance": 11, "rank": 39, "pace": 411000000000, "time": 4587.0}}, "weekday": "wednesday", "livingplace": "Biel/Bienne"}}, "location": "Ch\u00e9zard-St-Martin"}, "BCN Tour La Chaux-de-fonds": {"latitude": 47.1034892, "longitude": 6.832783800000001, "race": "BCN Tour La Chaux-de-fonds", "date": {"mer. 12.05.2010": {"year": 2010, "day": 12, "month": 5, "categories": {"HV2": {"distance": 11, "rank": 43, "pace": 551000000000, "time": 5900.8}}, "weekday": "wednesday", "livingplace": "Biel/Bienne"}}, "location": "La Chaux-de-Fonds"}, "BCN Tour Colombier": {"latitude": 46.9668714, "longitude": 6.8589727, "race": "BCN Tour Colombier", "date": {"mer. 16.05.2012": {"year": 2012, "day": 16, "month": 5, "categories": {"HV2": {"distance": 11, "rank": 44, "pace": 398000000000, "time": 4303.7}}, "weekday": "wednesday", "livingplace": "Biel/Bienne"}, "mer. 21.04.2010": {"year": 2010, "day": 21, "month": 4, "categories": {"HV2": {"distance": 10, "rank": 36, "pace": 421000000000, "time": 4211.7}}, "weekday": "wednesday", "livingplace": "Biel/Bienne"}}, "location": "Colombier NE"}, "BCN Tour #4 Fleurier": {"latitude": 47.1034892, "longitude": 6.832783800000001, "race": "BCN Tour #4 Fleurier", "date": {"mer. 15.05.2013": {"year": 2013, "day": 15, "month": 5, "categories": {"HV2": {"distance": 9, "rank": 33, "pace": 386000000000, "time": 3343.2}}, "weekday": "wednesday", "livingplace": "Biel/Bienne"}}, "location": "La Chaux-de-Fonds"}, "BCN Tour #2 La Chaux-de-Fonds": {"latitude": 47.0624261, "longitude": 6.9175754, "race": "BCN Tour #2 La Chaux-de-Fonds", "date": {"mer. 01.05.2013": {"year": 2013, "day": 1, "month": 5, "categories": {"HV2": {"distance": 11, "rank": 36, "pace": 376000000000, "time": 4025.0}}, "weekday": "wednesday", "livingplace": "Biel/Bienne"}}, "location": "Ch\u00e9zard-St-Martin"}}, "birth": 1948}