{"name": "Sakkal Isy", "sex": "M", "races": {"Eiger Ultra Trail, Grindelwald": {"latitude": 46.624164, "longitude": 8.0413962, "race": "Eiger Ultra Trail, Grindelwald", "date": {"sam. 18.07.2015": {"year": 2015, "day": 18, "month": 7, "categories": {"C-H": {"distance": 16, "rank": 11, "pace": 380000000000, "time": 6083.1}}, "weekday": "saturday", "livingplace": "Vessy"}}, "location": "Grindelwald"}, "Lausanne Marathon": {"latitude": 46.5196535, "longitude": 6.6322734, "race": "Lausanne Marathon", "date": {"dim. 26.10.2014": {"year": 2014, "day": 26, "month": 10, "categories": {"42-H20": {"distance": 42, "rank": 95, "pace": 361000000000, "time": 15240.1}}, "weekday": "sunday", "livingplace": "Vessy"}}, "location": "Lausanne"}, "Course de l'Escalade, Gen\u00e8ve": {"latitude": 46.2043907, "longitude": 6.1431577, "race": "Course de l'Escalade, Gen\u00e8ve", "date": {"sam. 05.12.2015": {"year": 2015, "day": 5, "month": 12, "categories": {"Esc-Hom1": {"distance": 7, "rank": 110, "pace": 235000000000, "time": 1726.6}}, "weekday": "saturday", "livingplace": "Vessy"}, "sam. 06.12.2014": {"year": 2014, "day": 6, "month": 12, "categories": {"Esc-Hom1": {"distance": 7, "rank": 162, "pace": 247000000000, "time": 1811.1}}, "weekday": "saturday", "livingplace": "Vessy"}, "sam. 07.12.2013": {"year": 2013, "day": 7, "month": 12, "categories": {"Esc-Hom1": {"distance": 7, "rank": 347, "pace": 265000000000, "time": 1924.8}}, "weekday": "saturday", "livingplace": "Vessy"}, "sam. 04.12.2010": {"year": 2010, "day": 4, "month": 12, "categories": {"H-H1": {"distance": 7, "rank": 298, "pace": 246000000000, "time": 1788.0}}, "weekday": "saturday", "livingplace": "Vessy"}, "sam. 01.12.2012": {"year": 2012, "day": 1, "month": 12, "categories": {"Esc-Hom1": {"distance": 7, "rank": 146, "pace": 253000000000, "time": 1838.2}}, "weekday": "saturday", "livingplace": "Vessy"}}, "location": "Gen\u00e8ve"}, "20km de Lausanne": {"latitude": 46.5196535, "longitude": 6.6322734, "race": "20km de Lausanne", "date": {"sam. 27.04.2013": {"year": 2013, "day": 27, "month": 4, "categories": {"20-H20": {"distance": 20, "rank": 338, "pace": 296000000000, "time": 5925.0}}, "weekday": "saturday", "livingplace": "Vessy"}}, "location": "Lausanne"}, "Morat-Fribourg": {"latitude": 46.92922110000001, "longitude": 7.120184, "race": "Morat-Fribourg", "date": {"sam. 03.10.2015": {"year": 2015, "day": 3, "month": 10, "categories": {"17-M20": {"distance": 17, "rank": 245, "pace": 259000000000, "time": 4463.2}}, "weekday": "saturday", "livingplace": "Vessy"}}, "location": "Murten"}, "Z\u00fcrcher Silvesterlauf, Z\u00fcrich": {"latitude": 47.3768866, "longitude": 8.541694, "race": "Z\u00fcrcher Silvesterlauf, Z\u00fcrich", "date": {"dim. 14.12.2014": {"year": 2014, "day": 14, "month": 12, "categories": {"10-M20": {"distance": 10, "rank": 69, "pace": 238000000000, "time": 2382.3}}, "weekday": "sunday", "livingplace": "Vessy"}}, "location": "Z\u00fcrich"}}, "birth": 1988}