{"name": "Salvisberg Roland", "sex": "M", "races": {"Bl\u00fcemlisalp-Lauf, Reichenbach": {"latitude": 46.6254387, "longitude": 7.6940529, "race": "Bl\u00fcemlisalp-Lauf, Reichenbach", "date": {"dim. 25.05.2014": {"year": 2014, "day": 25, "month": 5, "categories": {"M50": {"distance": 16, "rank": 91, "pace": 433000000000, "time": 6979.2}}, "weekday": "sunday", "livingplace": "Bern"}}, "location": "Reichenbach im Kandertal"}, "SwissCityMarathon - Lucerne, Luzern": {"latitude": 47.05016819999999, "longitude": 8.3093072, "race": "SwissCityMarathon - Lucerne, Luzern", "date": {"dim. 25.10.2015": {"year": 2015, "day": 25, "month": 10, "categories": {"M-M50": {"distance": 42, "rank": 84, "pace": 330000000000, "time": 13958.4}}, "weekday": "sunday", "livingplace": "Bern"}}, "location": "Luzern"}, "Gurtenclassic, Wabern": {"latitude": 46.92901639999999, "longitude": 7.448973199999999, "race": "Gurtenclassic, Wabern", "date": {"dim. 06.11.2005": {"year": 2005, "day": 6, "month": 11, "categories": {"M40": {"distance": 15, "rank": 158, "pace": 359000000000, "time": 5399.5}}, "weekday": "sunday", "livingplace": "Bern"}, "dim. 03.11.2013": {"year": 2013, "day": 3, "month": 11, "categories": {"M50": {"distance": 15, "rank": 60, "pace": 364000000000, "time": 5460.5}}, "weekday": "sunday", "livingplace": "Bern"}, "dim. 05.11.2006": {"year": 2006, "day": 5, "month": 11, "categories": {"M40": {"distance": 15, "rank": 175, "pace": 358000000000, "time": 5384.2}}, "weekday": "sunday", "livingplace": "Bern"}}, "location": "Wabern"}, "Kerzerslauf": {"latitude": 46.97488999999999, "longitude": 7.1954365, "race": "Kerzerslauf", "date": {"sam. 15.03.2014": {"year": 2014, "day": 15, "month": 3, "categories": {"15-M50": {"distance": 15, "rank": 386, "pace": 332000000000, "time": 4982.3}}, "weekday": "saturday", "livingplace": "Bern"}}, "location": "Kerzers"}, "Burgdorfer Stadtlauf, Burgdorf": {"latitude": 45.277123, "longitude": -115.9129022, "race": "Burgdorfer Stadtlauf, Burgdorf", "date": {"sam. 13.09.2014": {"year": 2014, "day": 13, "month": 9, "categories": {"10-M50": {"distance": 10, "rank": 12, "pace": 296000000000, "time": 2960.2}}, "weekday": "saturday", "livingplace": "Bern"}}, "location": "Burgdorf"}}, "birth": 1962}