{"name": "Salvi Florian", "sex": "M", "races": {"BCN Tour #1 Corcelles": {"latitude": 46.9668714, "longitude": 6.8589727, "race": "BCN Tour #1 Corcelles", "date": {"mer. 24.04.2013": {"year": 2013, "day": 24, "month": 4, "categories": {"KG2": {"distance": 2, "rank": 72, "pace": 387000000000, "time": 581.4}}, "weekday": "wednesday", "livingplace": "Dombresson"}}, "location": "Colombier NE"}, "BCN Tour M\u00f4tier": {"latitude": 46.9262933, "longitude": 6.6324944, "race": "BCN Tour M\u00f4tier", "date": {"mer. 19.05.2010": {"year": 2010, "day": 19, "month": 5, "categories": {"KG1": {"distance": 2, "rank": 97, "pace": 344000000000, "time": 619.3}}, "weekday": "wednesday", "livingplace": "Ch"}}, "location": "Couvet"}, "BCN Tour La Br\u00e9vine": {"latitude": 46.999113, "longitude": 6.733554799999999, "race": "BCN Tour La Br\u00e9vine", "date": {"mer. 04.05.2011": {"year": 2011, "day": 4, "month": 5, "categories": {"KG1": {"distance": 2, "rank": 63, "pace": 330000000000, "time": 628.0}}, "weekday": "wednesday", "livingplace": "Auvernier"}}, "location": "Les Ponts-de-Martel"}, "BCN Tour Fontaine Cernier": {"latitude": 47.0624261, "longitude": 6.9175754, "race": "BCN Tour Fontaine Cernier", "date": {"mer. 27.04.2011": {"year": 2011, "day": 27, "month": 4, "categories": {"KG1": {"distance": 2, "rank": 105, "pace": 394000000000, "time": 670.2}}, "weekday": "wednesday", "livingplace": "Auvernier"}}, "location": "Ch\u00e9zard-St-Martin"}, "BCN Tour Neuch\u00e2tel": {"latitude": 46.9899874, "longitude": 6.9292732, "race": "BCN Tour Neuch\u00e2tel", "date": {"mer. 26.05.2010": {"year": 2010, "day": 26, "month": 5, "categories": {"KG1": {"distance": 2, "rank": 84, "pace": 290000000000, "time": 435.7}}, "weekday": "wednesday", "livingplace": "Ch"}, "mer. 30.05.2012": {"year": 2012, "day": 30, "month": 5, "categories": {"KG2": {"distance": 2, "rank": 94, "pace": 319000000000, "time": 559.0}}, "weekday": "wednesday", "livingplace": "Dombresson"}, "mer. 25.05.2011": {"year": 2011, "day": 25, "month": 5, "categories": {"KG1": {"distance": 2, "rank": 84, "pace": 314000000000, "time": 629.0}}, "weekday": "wednesday", "livingplace": "Auvernier"}}, "location": "Neuch\u00e2tel"}, "BCN Tour Ponts-de-Martel": {"latitude": 47.0624261, "longitude": 6.9175754, "race": "BCN Tour Ponts-de-Martel", "date": {"mer. 28.04.2010": {"year": 2010, "day": 28, "month": 4, "categories": {"KG1": {"distance": 2, "rank": 111, "pace": 294000000000, "time": 648.1}}, "weekday": "wednesday", "livingplace": "Ch"}}, "location": "Ch\u00e9zard-St-Martin"}, "BCN Tour La Chaux-de-fonds": {"latitude": 47.1034892, "longitude": 6.832783800000001, "race": "BCN Tour La Chaux-de-fonds", "date": {"mer. 12.05.2010": {"year": 2010, "day": 12, "month": 5, "categories": {"KG1": {"distance": 1, "rank": 79, "pace": 988000000000, "time": 958.8}}, "weekday": "wednesday", "livingplace": "Ch"}}, "location": "La Chaux-de-Fonds"}, "BCN Tour Cornaux": {"latitude": 46.9668714, "longitude": 6.8589727, "race": "BCN Tour Cornaux", "date": {"mer. 25.04.2012": {"year": 2012, "day": 25, "month": 4, "categories": {"KG2": {"distance": 2, "rank": 75, "pace": 318000000000, "time": 477.3}}, "weekday": "wednesday", "livingplace": "Dombresson"}}, "location": "Colombier NE"}, "BCN Tour #3 Dombresson": {"latitude": 46.999113, "longitude": 6.733554799999999, "race": "BCN Tour #3 Dombresson", "date": {"mer. 08.05.2013": {"year": 2013, "day": 8, "month": 5, "categories": {"KG2": {"distance": 1, "rank": 99, "pace": 331000000000, "time": 430.3}}, "weekday": "wednesday", "livingplace": "Dombresson"}}, "location": "Les Ponts-de-Martel"}}, "birth": 2002}