{"name": "Sandu George", "sex": "M", "races": {"SwissCityMarathon - Lucerne, Luzern": {"latitude": 47.05016819999999, "longitude": 8.3093072, "race": "SwissCityMarathon - Lucerne, Luzern", "date": {"dim. 27.10.2013": {"year": 2013, "day": 27, "month": 10, "categories": {"H-M30": {"distance": 21, "rank": 954, "pace": 342000000000, "time": 7219.2}}, "weekday": "sunday", "livingplace": "Schlieren"}}, "location": "Luzern"}, "ASICS Bremgarter Reusslauf": {"latitude": 47.34917739999999, "longitude": 8.3397905, "race": "ASICS Bremgarter Reusslauf", "date": {"sam. 28.02.2015": {"year": 2015, "day": 28, "month": 2, "categories": {"11-M30": {"distance": 11, "rank": 351, "pace": 366000000000, "time": 4032.2}}, "weekday": "saturday", "livingplace": "MY sport team"}}, "location": "Bremgarten AG"}, "Badener Limmat-Lauf, Baden": {"latitude": 48.5699281, "longitude": 8.5303972, "race": "Badener Limmat-Lauf, Baden", "date": {"sam. 29.03.2014": {"year": 2014, "day": 29, "month": 3, "categories": {"M30": {"distance": 13, "rank": 163, "pace": 350000000000, "time": 4612.3}}, "weekday": "saturday", "livingplace": "Schlieren"}}, "location": "Baden"}, "Dreil\u00e4nder-Lauf, Basel": {"latitude": 47.5595986, "longitude": 7.5885761, "race": "Dreil\u00e4nder-Lauf, Basel", "date": {"dim. 25.05.2014": {"year": 2014, "day": 25, "month": 5, "categories": {"HM30": {"distance": 21, "rank": 126, "pace": 363000000000, "time": 7668.9}}, "weekday": "sunday", "livingplace": "Schlieren"}}, "location": "Basel"}, "Z\u00fcrcher Silvesterlauf, Z\u00fcrich": {"latitude": 47.3768866, "longitude": 8.541694, "race": "Z\u00fcrcher Silvesterlauf, Z\u00fcrich", "date": {"dim. 15.12.2013": {"year": 2013, "day": 15, "month": 12, "categories": {"10-M30": {"distance": 10, "rank": 1072, "pace": 340000000000, "time": 3409.8}}, "weekday": "sunday", "livingplace": "Schlieren"}, "dim. 11.12.2011": {"year": 2011, "day": 11, "month": 12, "categories": {"8-MenAK1": {"distance": 9, "rank": 1019, "pace": 339000000000, "time": 2918.1}}, "weekday": "sunday", "livingplace": "Schlieren"}}, "location": "Z\u00fcrich"}, "Z\u00fcrich Marathon, Teamrun und Cityrun": {"latitude": 47.3768866, "longitude": 8.541694, "race": "Z\u00fcrich Marathon, Teamrun und Cityrun", "date": {"dim. 22.04.2012": {"year": 2012, "day": 22, "month": 4, "categories": {"42-M30": {"distance": 42, "rank": 485, "pace": 368000000000, "time": 15532.5}}, "weekday": "sunday", "livingplace": "Schlieren"}, "dim. 06.04.2014": {"year": 2014, "day": 6, "month": 4, "categories": {"10-M30": {"distance": 10, "rank": 324, "pace": 317000000000, "time": 3109.9}}, "weekday": "sunday", "livingplace": "Schlieren"}, "dim. 19.04.2015": {"year": 2015, "day": 19, "month": 4, "categories": {"10-M30": {"distance": 10, "rank": 324, "pace": 329000000000, "time": 3232.0}}, "weekday": "sunday", "livingplace": "Schlieren"}}, "location": "Z\u00fcrich"}}, "birth": 1981}