{"name": "Santschi J\u00e9r\u00f4me", "sex": "M", "races": {"BCN Tour Les Ponts-de-Martel": {"latitude": 46.999113, "longitude": 6.733554799999999, "race": "BCN Tour Les Ponts-de-Martel", "date": {"mer. 09.05.2012": {"year": 2012, "day": 9, "month": 5, "categories": {"KG3": {"distance": 4, "rank": 49, "pace": 331000000000, "time": 1259.1}}, "weekday": "wednesday", "livingplace": "Le Locle"}}, "location": "Les Ponts-de-Martel"}, "BCN Tour Neuch\u00e2tel": {"latitude": 46.9899874, "longitude": 6.9292732, "race": "BCN Tour Neuch\u00e2tel", "date": {"mer. 25.05.2011": {"year": 2011, "day": 25, "month": 5, "categories": {"KG2": {"distance": 2, "rank": 98, "pace": 316000000000, "time": 633.7}}, "weekday": "wednesday", "livingplace": "Le Locle"}}, "location": "Neuch\u00e2tel"}, "BCN Tour Les Ponts de Martel": {"latitude": 46.9262933, "longitude": 6.6324944, "race": "BCN Tour Les Ponts de Martel", "date": {"mer. 18.05.2011": {"year": 2011, "day": 18, "month": 5, "categories": {"KG2": {"distance": 2, "rank": 76, "pace": 298000000000, "time": 587.2}}, "weekday": "wednesday", "livingplace": "Le Locle"}}, "location": "Couvet"}, "BCN Tour Le Locle": {"latitude": 46.999113, "longitude": 6.733554799999999, "race": "BCN Tour Le Locle", "date": {"mer. 05.05.2010": {"year": 2010, "day": 5, "month": 5, "categories": {"KG2": {"distance": 2, "rank": 77, "pace": 352000000000, "time": 633.7}}, "weekday": "wednesday", "livingplace": "Le Locle"}}, "location": "Les Ponts-de-Martel"}, "BCN Tour Couvet": {"latitude": 47.0624261, "longitude": 6.9175754, "race": "BCN Tour Couvet", "date": {"mer. 02.05.2012": {"year": 2012, "day": 2, "month": 5, "categories": {"KG3": {"distance": 4, "rank": 49, "pace": 333000000000, "time": 1232.3}}, "weekday": "wednesday", "livingplace": "Le Locle"}}, "location": "Ch\u00e9zard-St-Martin"}, "BCN Tour La Chaux-de-fonds": {"latitude": 47.1034892, "longitude": 6.832783800000001, "race": "BCN Tour La Chaux-de-fonds", "date": {"mer. 12.05.2010": {"year": 2010, "day": 12, "month": 5, "categories": {"KG2": {"distance": 1, "rank": 82, "pace": 1067000000000, "time": 1035.8}}, "weekday": "wednesday", "livingplace": "Le Locle"}}, "location": "La Chaux-de-Fonds"}, "BCN Tour Cornaux": {"latitude": 46.9668714, "longitude": 6.8589727, "race": "BCN Tour Cornaux", "date": {"mer. 25.04.2012": {"year": 2012, "day": 25, "month": 4, "categories": {"KG3": {"distance": 3, "rank": 43, "pace": 304000000000, "time": 852.1}}, "weekday": "wednesday", "livingplace": "Le Locle"}}, "location": "Colombier NE"}, "BCN Tour Colombier": {"latitude": 47.1034892, "longitude": 6.832783800000001, "race": "BCN Tour Colombier", "date": {"mer. 16.05.2012": {"year": 2012, "day": 16, "month": 5, "categories": {"KG3": {"distance": 3, "rank": 51, "pace": 310000000000, "time": 932.8}}, "weekday": "wednesday", "livingplace": "Le Locle"}}, "location": "La Chaux-de-Fonds"}}, "birth": 2000}