{"name": "Santschi Ueli", "sex": "M", "races": {"Gippinger Stauseelauf": {"latitude": 47.5810513, "longitude": 8.2152586, "race": "Gippinger Stauseelauf", "date": {"mar. 31.12.2002": {"year": 2002, "day": 31, "month": 12, "categories": {"M50": {"distance": 8, "rank": 170, "pace": 315000000000, "time": 2363.0}}, "weekday": "tuesday", "livingplace": "Birchwil"}}, "location": "Leuggern"}, "Luzerner Stadtlauf": {"latitude": 47.05016819999999, "longitude": 8.3093072, "race": "Luzerner Stadtlauf", "date": {"sam. 03.05.2003": {"year": 2003, "day": 3, "month": 5, "categories": {"K/29": {"distance": 6, "rank": 84, "pace": 294000000000, "time": 1619.3}}, "weekday": "saturday", "livingplace": "Birchwil"}}, "location": "Luzern"}, "ASICS Bremgarter Reusslauf": {"latitude": 47.34917739999999, "longitude": 8.3397905, "race": "ASICS Bremgarter Reusslauf", "date": {"sam. 17.02.2007": {"year": 2007, "day": 17, "month": 2, "categories": {"M50": {"distance": 11, "rank": 375, "pace": 345000000000, "time": 3631.6}}, "weekday": "saturday", "livingplace": "Birchwil"}}, "location": "Bremgarten AG"}, "Winterthur Marathon": {"latitude": 39.8088766, "longitude": -75.6037351, "race": "Winterthur Marathon", "date": {"dim. 24.05.2009": {"year": 2009, "day": 24, "month": 5, "categories": {"HM60": {"distance": 21, "rank": 30, "pace": 381000000000, "time": 8058.7}}, "weekday": "sunday", "livingplace": "Nurensdorf"}}, "location": "Winterthur"}, "Z\u00fcrcher Silvesterlauf, Z\u00fcrich": {"latitude": 47.3768866, "longitude": 8.541694, "race": "Z\u00fcrcher Silvesterlauf, Z\u00fcrich", "date": {"dim. 14.12.2008": {"year": 2008, "day": 14, "month": 12, "categories": {"MenAK3-8": {"distance": 9, "rank": 480, "pace": 342000000000, "time": 2944.1}}, "weekday": "sunday", "livingplace": "Birchwil"}, "dim. 13.12.2009": {"year": 2009, "day": 13, "month": 12, "categories": {"4-MenAK4": {"distance": 4, "rank": 40, "pace": 370000000000, "time": 1628.7}}, "weekday": "sunday", "livingplace": "Nurensdorf"}}, "location": "Z\u00fcrich"}, "Int Greifenseelauf, Uster": {"latitude": 47.3482747, "longitude": 8.717873899999999, "race": "Int Greifenseelauf, Uster", "date": {"sam. 20.09.2008": {"year": 2008, "day": 20, "month": 9, "categories": {"H-M55": {"distance": 21, "rank": 217, "pace": 351000000000, "time": 7423.3}}, "weekday": "saturday", "livingplace": "Birchwil"}}, "location": "Uster"}, "Engadiner Sommerlauf, Samedan": {"latitude": NaN, "longitude": NaN, "race": "Engadiner Sommerlauf, Samedan", "date": {"dim. 26.08.2001": {"year": 2001, "day": 26, "month": 8, "categories": {"S3": {"distance": 27, "rank": 78, "pace": 378000000000, "time": 10232.7}}, "weekday": "sunday", "livingplace": "Birchwil"}}, "location": "Bever"}, "Z\u00fcrich Marathon, Teamrun und Cityrun": {"latitude": 47.3768866, "longitude": 8.541694, "race": "Z\u00fcrich Marathon, Teamrun und Cityrun", "date": {"dim. 04.04.2004": {"year": 2004, "day": 4, "month": 4, "categories": {"M55": {"distance": 42, "rank": 169, "pace": 376000000000, "time": 15889.0}}, "weekday": "sunday", "livingplace": "Nurensdorf"}}, "location": "Z\u00fcrich"}}, "birth": 1949}