{"name": "Sarbach Stefan", "sex": "M", "races": {"Morat-Fribourg": {"latitude": 46.92922110000001, "longitude": 7.120184, "race": "Morat-Fribourg", "date": {"dim. 07.10.2001": {"year": 2001, "day": 7, "month": 10, "categories": {"M20": {"distance": 17, "rank": 1644, "pace": 322000000000, "time": 5534.9}}, "weekday": "sunday", "livingplace": "Hagendorn"}}, "location": "Murten"}, "ASICS Bremgarter Reusslauf": {"latitude": 47.34917739999999, "longitude": 8.3397905, "race": "ASICS Bremgarter Reusslauf", "date": {"sam. 25.02.2006": {"year": 2006, "day": 25, "month": 2, "categories": {"M40": {"distance": 11, "rank": 374, "pace": 290000000000, "time": 3053.1}}, "weekday": "saturday", "livingplace": "Hagendorn"}, "sam. 23.02.2008": {"year": 2008, "day": 23, "month": 2, "categories": {"M40": {"distance": 11, "rank": 542, "pace": 307000000000, "time": 3377.9}}, "weekday": "saturday", "livingplace": "Hagendorn"}}, "location": "Bremgarten AG"}, "Winterthur Marathon": {"latitude": 39.8088766, "longitude": -75.6037351, "race": "Winterthur Marathon", "date": {"dim. 18.05.2008": {"year": 2008, "day": 18, "month": 5, "categories": {"HM40": {"distance": 21, "rank": 162, "pace": 342000000000, "time": 7223.1}}, "weekday": "sunday", "livingplace": "Hagendorn"}}, "location": "Winterthur"}, "Z\u00fcrcher Silvesterlauf, Z\u00fcrich": {"latitude": 47.3768866, "longitude": 8.541694, "race": "Z\u00fcrcher Silvesterlauf, Z\u00fcrich", "date": {"dim. 14.12.2014": {"year": 2014, "day": 14, "month": 12, "categories": {"10-M40": {"distance": 10, "rank": 1145, "pace": 357000000000, "time": 3579.8}}, "weekday": "sunday", "livingplace": "Hagendorn"}}, "location": "Z\u00fcrich"}, "Kerzerslauf": {"latitude": 46.97488999999999, "longitude": 7.1954365, "race": "Kerzerslauf", "date": {"sam. 19.03.2005": {"year": 2005, "day": 19, "month": 3, "categories": {"M40": {"distance": 15, "rank": 494, "pace": 359000000000, "time": 5391.6}}, "weekday": "saturday", "livingplace": "Hagendorn"}}, "location": "Kerzers"}, "Sihltaler Fr\u00fchlingslauf, Gattikon": {"latitude": 47.2949282, "longitude": 8.5644799, "race": "Sihltaler Fr\u00fchlingslauf, Gattikon", "date": {"mar. 01.05.2007": {"year": 2007, "day": 1, "month": 5, "categories": {"M40": {"distance": 10, "rank": 75, "pace": 316000000000, "time": 3160.3}}, "weekday": "tuesday", "livingplace": "Hagendorn"}}, "location": "Gattikon"}, "Int Greifenseelauf, Uster": {"latitude": 47.3482747, "longitude": 8.717873899999999, "race": "Int Greifenseelauf, Uster", "date": {"sam. 20.09.2003": {"year": 2003, "day": 20, "month": 9, "categories": {"H/M35": {"distance": 21, "rank": 1012, "pace": 402000000000, "time": 8496.1}}, "weekday": "saturday", "livingplace": "Hagendorn"}, "sam. 18.09.2004": {"year": 2004, "day": 18, "month": 9, "categories": {"H/M35": {"distance": 21, "rank": 1012, "pace": 350000000000, "time": 7399.3}}, "weekday": "saturday", "livingplace": "Hagendorn"}}, "location": "Uster"}}, "birth": 1965}