{"name": "Sarmis Ahmet", "sex": "M", "races": {"BCN Tour La Chaux-de-Fonds": {"latitude": 46.9262933, "longitude": 6.6324944, "race": "BCN Tour La Chaux-de-Fonds", "date": {"mer. 23.05.2012": {"year": 2012, "day": 23, "month": 5, "categories": {"HS1": {"distance": 11, "rank": 236, "pace": 340000000000, "time": 3681.7}}, "weekday": "wednesday", "livingplace": "Cournillens"}}, "location": "Couvet"}, "La Trotteuse-Tissot, La Chaux-de-Fonds": {"latitude": 47.1034892, "longitude": 6.832783800000001, "race": "La Trotteuse-Tissot, La Chaux-de-Fonds", "date": {"sam. 17.12.2011": {"year": 2011, "day": 17, "month": 12, "categories": {"GC-H20": {"distance": 8, "rank": 80, "pace": 445000000000, "time": 3563.3}}, "weekday": "saturday", "livingplace": "Judo Touriste"}}, "location": "La Chaux-de-Fonds"}, "BCN Tour Le Landeron": {"latitude": 46.9668714, "longitude": 6.8589727, "race": "BCN Tour Le Landeron", "date": {"mer. 22.04.2009": {"year": 2009, "day": 22, "month": 4, "categories": {"HE": {"distance": 11, "rank": 63, "pace": 291000000000, "time": 3235.9}}, "weekday": "wednesday", "livingplace": "Mori Seiki International"}}, "location": "Colombier NE"}, "20km de Lausanne": {"latitude": 46.5196535, "longitude": 6.6322734, "race": "20km de Lausanne", "date": {"sam. 24.04.2010": {"year": 2010, "day": 24, "month": 4, "categories": {"20-H20": {"distance": 20, "rank": 172, "pace": 291000000000, "time": 5833.1}}, "weekday": "saturday", "livingplace": "Montlebon"}, "sam. 28.04.2012": {"year": 2012, "day": 28, "month": 4, "categories": {"20-H30": {"distance": 20, "rank": 708, "pace": 384000000000, "time": 7697.9}}, "weekday": "saturday", "livingplace": "Cournillens"}}, "location": "Lausanne"}, "BCN Tour Couvet": {"latitude": 47.0624261, "longitude": 6.9175754, "race": "BCN Tour Couvet", "date": {"mer. 02.05.2012": {"year": 2012, "day": 2, "month": 5, "categories": {"HS1": {"distance": 11, "rank": 190, "pace": 335000000000, "time": 3737.9}}, "weekday": "wednesday", "livingplace": "Cournillens"}}, "location": "Ch\u00e9zard-St-Martin"}, "Dreil\u00e4nder-Lauf, Basel": {"latitude": 47.5595986, "longitude": 7.5885761, "race": "Dreil\u00e4nder-Lauf, Basel", "date": {"dim. 25.05.2014": {"year": 2014, "day": 25, "month": 5, "categories": {"HM30": {"distance": 21, "rank": 130, "pace": 371000000000, "time": 7829.6}}, "weekday": "sunday", "livingplace": "Riedisheim"}}, "location": "Basel"}, "BCN Tour Cornaux": {"latitude": 46.9668714, "longitude": 6.8589727, "race": "BCN Tour Cornaux", "date": {"mer. 25.04.2012": {"year": 2012, "day": 25, "month": 4, "categories": {"HS1": {"distance": 11, "rank": 230, "pace": 405000000000, "time": 4458.3}}, "weekday": "wednesday", "livingplace": "Cournillens"}}, "location": "Colombier NE"}}, "birth": 1982}