{"name": "Saugy Mauricette", "sex": "F", "races": {"Tour du Pays de Vaud #2 - Genolier": {"latitude": 46.5955273, "longitude": 6.7702883, "race": "Tour du Pays de Vaud #2 - Genolier", "date": {"mer. 17.08.2011": {"year": 2011, "day": 17, "month": 8, "categories": {"D-Sen3": {"distance": 9, "rank": 25, "pace": 406000000000, "time": 3455.2}}, "weekday": "wednesday", "livingplace": "Dompierre"}}, "location": "M\u00e9zi\u00e8res VD"}, "Tour du Pays de Vaud #3 - Mezi\u00e8res": {"latitude": 46.7784736, "longitude": 6.641183, "race": "Tour du Pays de Vaud #3 - Mezi\u00e8res", "date": {"mer. 22.08.2012": {"year": 2012, "day": 22, "month": 8, "categories": {"D-Sen3": {"distance": 8, "rank": 38, "pace": 434000000000, "time": 3646.2}}, "weekday": "wednesday", "livingplace": "Dompierre"}}, "location": "Yverdon-les-Bains"}, "Tour du pays de Vaud #6 - St  Prex": {"latitude": 46.4829113, "longitude": 6.458343500000001, "race": "Tour du pays de Vaud #6 - St  Prex", "date": {"mer. 14.09.2011": {"year": 2011, "day": 14, "month": 9, "categories": {"D-Sen3": {"distance": 9, "rank": 42, "pace": 380000000000, "time": 3270.1}}, "weekday": "wednesday", "livingplace": "Dompierre"}}, "location": "St-Prex"}, "Tour du pays de Vaud #1 - Mezi\u00e8res": {"latitude": 46.7784736, "longitude": 6.641183, "race": "Tour du pays de Vaud #1 - Mezi\u00e8res", "date": {"mer. 10.08.2011": {"year": 2011, "day": 10, "month": 8, "categories": {"D-Sen3": {"distance": 9, "rank": 29, "pace": 383000000000, "time": 3256.4}}, "weekday": "wednesday", "livingplace": "Dompierre"}}, "location": "Yverdon-les-Bains"}, "Tour du pays de Vaud #5 - Penthaz": {"latitude": 46.5993131, "longitude": 6.539251200000001, "race": "Tour du pays de Vaud #5 - Penthaz", "date": {"mer. 07.09.2011": {"year": 2011, "day": 7, "month": 9, "categories": {"D-Sen3": {"distance": 8, "rank": 31, "pace": 438000000000, "time": 3662.1}}, "weekday": "wednesday", "livingplace": "Dompierre"}}, "location": "Penthaz"}, "Morat-Fribourg": {"latitude": 46.92922110000001, "longitude": 7.120184, "race": "Morat-Fribourg", "date": {"sam. 03.10.2009": {"year": 2009, "day": 3, "month": 10, "categories": {"C-W50": {"distance": 17, "rank": 124, "pace": 406000000000, "time": 6977.4}}, "weekday": "saturday", "livingplace": "Villars Bramard"}, "sam. 04.10.2008": {"year": 2008, "day": 4, "month": 10, "categories": {"C-W50": {"distance": 17, "rank": 135, "pace": 405000000000, "time": 6954.0}}, "weekday": "saturday", "livingplace": "Villars Bramard"}}, "location": "Murten"}, "20km de Lausanne": {"latitude": 46.5196535, "longitude": 6.6322734, "race": "20km de Lausanne", "date": {"sam. 24.04.2010": {"year": 2010, "day": 24, "month": 4, "categories": {"20-F50": {"distance": 20, "rank": 60, "pace": 412000000000, "time": 8250.3}}, "weekday": "saturday", "livingplace": "Villars Bramard"}, "sam. 28.04.2012": {"year": 2012, "day": 28, "month": 4, "categories": {"10-F55": {"distance": 10, "rank": 30, "pace": 376000000000, "time": 3765.6}}, "weekday": "saturday", "livingplace": "Villars Bramard"}}, "location": "Lausanne"}, "Tour du Pays de Vaud #4 - La Sarraz": {"latitude": 46.7088129, "longitude": 6.5707689, "race": "Tour du Pays de Vaud #4 - La Sarraz", "date": {"mer. 29.08.2012": {"year": 2012, "day": 29, "month": 8, "categories": {"D-Sen3": {"distance": 9, "rank": 39, "pace": 383000000000, "time": 3255.9}}, "weekday": "wednesday", "livingplace": "Dompierre"}}, "location": "Chavornay"}, "Tour du pays de Vaud #1 - Penthaz": {"latitude": 46.5993131, "longitude": 6.539251200000001, "race": "Tour du pays de Vaud #1 - Penthaz", "date": {"mer. 08.08.2012": {"year": 2012, "day": 8, "month": 8, "categories": {"D-Sen3": {"distance": 9, "rank": 29, "pace": 395000000000, "time": 3375.0}}, "weekday": "wednesday", "livingplace": "Dompierre"}}, "location": "Penthaz"}}, "birth": 1956}