{"name": "Sauvageat St\u00e9phane", "sex": "M", "races": {"Tour du Pays de Vaud #2 - Genolier": {"latitude": 46.5955273, "longitude": 6.7702883, "race": "Tour du Pays de Vaud #2 - Genolier", "date": {"mer. 17.08.2011": {"year": 2011, "day": 17, "month": 8, "categories": {"H-Sen2": {"distance": 9, "rank": 37, "pace": 264000000000, "time": 2250.4}}, "weekday": "wednesday", "livingplace": "Villars Tiercelin"}}, "location": "M\u00e9zi\u00e8res VD"}, "Tour du Pays de Vaud #1, Penthaz": {"latitude": 46.5993131, "longitude": 6.539251200000001, "race": "Tour du Pays de Vaud #1, Penthaz", "date": {"mer. 13.08.2014": {"year": 2014, "day": 13, "month": 8, "categories": {"H-Sen2": {"distance": 9, "rank": 24, "pace": 252000000000, "time": 2150.7}}, "weekday": "wednesday", "livingplace": "Villars Tiercelin"}}, "location": "Penthaz"}, "Tour du pays de Vaud #6 - St  Prex": {"latitude": 46.4829113, "longitude": 6.458343500000001, "race": "Tour du pays de Vaud #6 - St  Prex", "date": {"mer. 14.09.2011": {"year": 2011, "day": 14, "month": 9, "categories": {"H-Sen2": {"distance": 9, "rank": 43, "pace": 255000000000, "time": 2200.8}}, "weekday": "wednesday", "livingplace": "Villars Tiercelin"}}, "location": "St-Prex"}, "Tour du Pays de Vaud printanier #1 Moudon": {"latitude": 46.3832683, "longitude": 6.2347852, "race": "Tour du Pays de Vaud printanier #1 Moudon", "date": {"mer. 29.05.2013": {"year": 2013, "day": 29, "month": 5, "categories": {"H-Sen2": {"distance": 8, "rank": 25, "pace": 281000000000, "time": 2407.5}}, "weekday": "wednesday", "livingplace": "Villars Tiercelin"}}, "location": "Nyon"}, "Tour du pays de Vaud #5 - Penthaz": {"latitude": 46.5993131, "longitude": 6.539251200000001, "race": "Tour du pays de Vaud #5 - Penthaz", "date": {"mer. 07.09.2011": {"year": 2011, "day": 7, "month": 9, "categories": {"H-Sen2": {"distance": 8, "rank": 37, "pace": 288000000000, "time": 2408.9}}, "weekday": "wednesday", "livingplace": "Villars Tiercelin"}}, "location": "Penthaz"}, "Tour du pays de Vaud #1 - Mezi\u00e8res": {"latitude": 46.7784736, "longitude": 6.641183, "race": "Tour du pays de Vaud #1 - Mezi\u00e8res", "date": {"mer. 10.08.2011": {"year": 2011, "day": 10, "month": 8, "categories": {"H-Sen2": {"distance": 9, "rank": 45, "pace": 255000000000, "time": 2174.5}}, "weekday": "wednesday", "livingplace": "Villars Tiercelin"}}, "location": "Yverdon-les-Bains"}}, "birth": 1969}