{"name": "Savary Jo\u00ebl", "sex": "M", "races": {"Tour du Pays de Vaud etape 5 - La Sarraz": {"latitude": 46.5993131, "longitude": 6.539251200000001, "race": "Tour du Pays de Vaud etape 5 - La Sarraz", "date": {"mer. 10.09.2008": {"year": 2008, "day": 10, "month": 9, "categories": {"Hom": {"distance": 9, "rank": 31, "pace": 270000000000, "time": 2325.5}}, "weekday": "wednesday", "livingplace": "Renens"}}, "location": "Penthaz"}, "Luzerner Stadtlauf": {"latitude": 47.05016819999999, "longitude": 8.3093072, "race": "Luzerner Stadtlauf", "date": {"sam. 27.04.2013": {"year": 2013, "day": 27, "month": 4, "categories": {"K-34": {"distance": 6, "rank": 101, "pace": 274000000000, "time": 1547.4}}, "weekday": "saturday", "livingplace": "Aubonne"}}, "location": "Luzern"}, "Course de l'Escalade, Gen\u00e8ve": {"latitude": 46.2043907, "longitude": 6.1431577, "race": "Course de l'Escalade, Gen\u00e8ve", "date": {"sam. 05.12.2015": {"year": 2015, "day": 5, "month": 12, "categories": {"Esc-Hom2": {"distance": 7, "rank": 764, "pace": 270000000000, "time": 1981.9}}, "weekday": "saturday", "livingplace": "Geneve"}, "sam. 01.12.2012": {"year": 2012, "day": 1, "month": 12, "categories": {"Esc-Hom1": {"distance": 7, "rank": 420, "pace": 281000000000, "time": 2042.1}}, "weekday": "saturday", "livingplace": "Aubonne"}}, "location": "Gen\u00e8ve"}, "Tour du Pays de Vaud etape 2 - Genolier": {"latitude": 46.5955273, "longitude": 6.7702883, "race": "Tour du Pays de Vaud etape 2 - Genolier", "date": {"mer. 20.08.2008": {"year": 2008, "day": 20, "month": 8, "categories": {"Hom": {"distance": 8, "rank": 31, "pace": 278000000000, "time": 2309.4}}, "weekday": "wednesday", "livingplace": "Renens"}}, "location": "M\u00e9zi\u00e8res VD"}, "Tour du Pays de Vaud etape 3 - Aubonne": {"latitude": 46.7829756, "longitude": 6.5728678, "race": "Tour du Pays de Vaud etape 3 - Aubonne", "date": {"mer. 27.08.2008": {"year": 2008, "day": 27, "month": 8, "categories": {"Hom": {"distance": 8, "rank": 36, "pace": 309000000000, "time": 2415.0}}, "weekday": "wednesday", "livingplace": "Renens"}}, "location": "Champvent"}, "Lausanne Marathon": {"latitude": 46.5196535, "longitude": 6.6322734, "race": "Lausanne Marathon", "date": {"dim. 30.10.2011": {"year": 2011, "day": 30, "month": 10, "categories": {"42-H1": {"distance": 42, "rank": 70, "pace": 343000000000, "time": 14513.1}}, "weekday": "sunday", "livingplace": "Vulliens"}, "dim. 28.10.2012": {"year": 2012, "day": 28, "month": 10, "categories": {"21-H1": {"distance": 21, "rank": 255, "pace": 297000000000, "time": 6271.5}}, "weekday": "sunday", "livingplace": "Aubonne"}}, "location": "Lausanne"}, "Tour du Pays de Vaud #5 - La Sarraz": {"latitude": 46.5993131, "longitude": 6.539251200000001, "race": "Tour du Pays de Vaud #5 - La Sarraz", "date": {"mer. 08.09.2010": {"year": 2010, "day": 8, "month": 9, "categories": {"Hom": {"distance": 9, "rank": 51, "pace": 293000000000, "time": 2669.4}}, "weekday": "wednesday", "livingplace": "Vulliens"}}, "location": "Penthaz"}, "20km de Lausanne": {"latitude": 46.5196535, "longitude": 6.6322734, "race": "20km de Lausanne", "date": {"sam. 30.04.2011": {"year": 2011, "day": 30, "month": 4, "categories": {"10-H20": {"distance": 10, "rank": 98, "pace": 267000000000, "time": 2674.7}}, "weekday": "saturday", "livingplace": "Etoile filante"}, "sam. 28.04.2012": {"year": 2012, "day": 28, "month": 4, "categories": {"10-H20": {"distance": 10, "rank": 782, "pace": 397000000000, "time": 3976.8}}, "weekday": "saturday", "livingplace": "Vulliens"}, "sam. 25.04.2015": {"year": 2015, "day": 25, "month": 4, "categories": {"20-H30": {"distance": 20, "rank": 682, "pace": 309000000000, "time": 6188.8}}, "weekday": "saturday", "livingplace": "Geneve"}}, "location": "Lausanne"}, "Les Traine-Savates, Cheseaux-sur-Lausanne": {"latitude": 46.585452, "longitude": 6.6047712, "race": "Les Traine-Savates, Cheseaux-sur-Lausanne", "date": {"sam. 09.04.2011": {"year": 2011, "day": 9, "month": 4, "categories": {"10-M20": {"distance": 10, "rank": 145, "pace": 280000000000, "time": 2918.9}}, "weekday": "saturday", "livingplace": "Vulliens"}}, "location": "Cheseaux-sur-Lausanne"}}, "birth": 1983}