{"name": "Scarna Joseph", "sex": "M", "races": {"Lucerne Marathon, Luzern": {"latitude": 47.05016819999999, "longitude": 8.3093072, "race": "Lucerne Marathon, Luzern", "date": {"dim. 30.10.2011": {"year": 2011, "day": 30, "month": 10, "categories": {"H-M30": {"distance": 21, "rank": 784, "pace": 322000000000, "time": 6793.7}}, "weekday": "sunday", "livingplace": "Biel/Bienne"}}, "location": "Luzern"}, "Morat-Fribourg": {"latitude": 46.92922110000001, "longitude": 7.120184, "race": "Morat-Fribourg", "date": {"sam. 06.10.2012": {"year": 2012, "day": 6, "month": 10, "categories": {"17-M20": {"distance": 17, "rank": 1581, "pace": 338000000000, "time": 5910.5}}, "weekday": "saturday", "livingplace": "Biel/Bienne"}}, "location": "Murten"}, "Lausanne Marathon": {"latitude": 46.5196535, "longitude": 6.6322734, "race": "Lausanne Marathon", "date": {"sam. 24.10.2015": {"year": 2015, "day": 24, "month": 10, "categories": {"21-H40": {"distance": 21, "rank": 340, "pace": 304000000000, "time": 6419.6}}, "weekday": "saturday", "livingplace": "Biel/Bienne"}, "dim. 27.10.2013": {"year": 2013, "day": 27, "month": 10, "categories": {"21-H3": {"distance": 21, "rank": 409, "pace": 308000000000, "time": 6511.8}}, "weekday": "sunday", "livingplace": "Biel/Bienne"}}, "location": "Lausanne"}, "20km de Lausanne": {"latitude": 46.5196535, "longitude": 6.6322734, "race": "20km de Lausanne", "date": {"sam. 27.04.2013": {"year": 2013, "day": 27, "month": 4, "categories": {"20-H40": {"distance": 20, "rank": 337, "pace": 318000000000, "time": 6373.5}}, "weekday": "saturday", "livingplace": "Biel/Bienne"}}, "location": "Lausanne"}, "Burgdorfer Stadtlauf, Burgdorf": {"latitude": 45.277123, "longitude": -115.9129022, "race": "Burgdorfer Stadtlauf, Burgdorf", "date": {"sam. 13.09.2014": {"year": 2014, "day": 13, "month": 9, "categories": {"10-M40": {"distance": 10, "rank": 16, "pace": 291000000000, "time": 2915.6}}, "weekday": "saturday", "livingplace": "Biel/Bienne"}}, "location": "Burgdorf"}, "Bieler Lauftage, Biel Bienne": {"latitude": 47.1367785, "longitude": 7.2467909, "race": "Bieler Lauftage, Biel Bienne", "date": {"jeu. 11.06.2015": {"year": 2015, "day": 11, "month": 6, "categories": {"H-M40": {"distance": 21, "rank": 28, "pace": 306000000000, "time": 6475.2}}, "weekday": "thursday", "livingplace": "Biel/Bienne"}}, "location": "Biel/Bienne"}, "Kerzerslauf": {"latitude": 46.97488999999999, "longitude": 7.1954365, "race": "Kerzerslauf", "date": {"sam. 21.03.2015": {"year": 2015, "day": 21, "month": 3, "categories": {"15-M40": {"distance": 15, "rank": 317, "pace": 295000000000, "time": 4437.5}}, "weekday": "saturday", "livingplace": "Biel/Bienne"}}, "location": "Kerzers"}}, "birth": 1973}