{"name": "Scellier Matthieu", "sex": "M", "races": {"20km de Lausanne": {"latitude": 46.5196535, "longitude": 6.6322734, "race": "20km de Lausanne", "date": {"sam. 25.04.2015": {"year": 2015, "day": 25, "month": 4, "categories": {"20-H45": {"distance": 20, "rank": 371, "pace": 346000000000, "time": 6925.8}}, "weekday": "saturday", "livingplace": "Avry devant Pont"}}, "location": "Lausanne"}, "Morat-Fribourg": {"latitude": 46.92922110000001, "longitude": 7.120184, "race": "Morat-Fribourg", "date": {"sam. 04.10.2014": {"year": 2014, "day": 4, "month": 10, "categories": {"17-M45": {"distance": 17, "rank": 639, "pace": 372000000000, "time": 6387.5}}, "weekday": "saturday", "livingplace": "Avry devant Pont"}}, "location": "Murten"}, "Z\u00fcrcher Silvesterlauf, Z\u00fcrich": {"latitude": 47.3768866, "longitude": 8.541694, "race": "Z\u00fcrcher Silvesterlauf, Z\u00fcrich", "date": {"dim. 16.12.2007": {"year": 2007, "day": 16, "month": 12, "categories": {"MenAK2-8": {"distance": 9, "rank": 1270, "pace": 358000000000, "time": 3084.1}}, "weekday": "sunday", "livingplace": "Gockhausen"}}, "location": "Z\u00fcrich"}, "Corrida Bulloise, Bulle": {"latitude": 46.6154512, "longitude": 7.057726799999999, "race": "Corrida Bulloise, Bulle", "date": {"sam. 15.11.2014": {"year": 2014, "day": 15, "month": 11, "categories": {"8-M40": {"distance": 8, "rank": 144, "pace": 319000000000, "time": 2603.5}}, "weekday": "saturday", "livingplace": "Avry devant Pont"}}, "location": "Bulle"}, "Int Greifenseelauf, Uster": {"latitude": 47.3482747, "longitude": 8.717873899999999, "race": "Int Greifenseelauf, Uster", "date": {"sam. 20.09.2003": {"year": 2003, "day": 20, "month": 9, "categories": {"H/M35": {"distance": 21, "rank": 911, "pace": 380000000000, "time": 8021.6}}, "weekday": "saturday", "livingplace": "Dubendorf"}, "sam. 17.09.2005": {"year": 2005, "day": 17, "month": 9, "categories": {"H/M35": {"distance": 21, "rank": 1252, "pace": 424000000000, "time": 8956.9}}, "weekday": "saturday", "livingplace": "Dubendorf"}, "sam. 18.09.2004": {"year": 2004, "day": 18, "month": 9, "categories": {"H/M35": {"distance": 21, "rank": 1262, "pace": 393000000000, "time": 8312.5}}, "weekday": "saturday", "livingplace": "Dubendorf"}, "sam. 20.09.2008": {"year": 2008, "day": 20, "month": 9, "categories": {"K-M40": {"distance": 10, "rank": 127, "pace": 349000000000, "time": 3491.1}}, "weekday": "saturday", "livingplace": "Gockhausen"}}, "location": "Uster"}}, "birth": 1966}