{"name": "Schafer Joel", "sex": "M", "races": {"Groupe E Tour Fribourg #1 Gurmels": {"latitude": 46.81832, "longitude": 6.977279999999999, "race": "Groupe E Tour Fribourg #1 Gurmels", "date": {"mer. 29.08.2012": {"year": 2012, "day": 29, "month": 8, "categories": {"HE": {"distance": 8, "rank": 32, "pace": 367000000000, "time": 3090.5}}, "weekday": "wednesday", "livingplace": "Granges Paccot"}}, "location": "Cousset"}, "Groupe E Tour Fribourg #4 Montagny": {"latitude": 46.6585092, "longitude": 6.877722, "race": "Groupe E Tour Fribourg #4 Montagny", "date": {"mer. 11.09.2013": {"year": 2013, "day": 11, "month": 9, "categories": {"HE": {"distance": 10, "rank": 33, "pace": 299000000000, "time": 2935.2}}, "weekday": "wednesday", "livingplace": "Fribourg"}}, "location": "Siviriez"}, "Groupe E Tour Fribourg #1 Siviriez": {"latitude": 46.81832, "longitude": 6.977279999999999, "race": "Groupe E Tour Fribourg #1 Siviriez", "date": {"mer. 21.08.2013": {"year": 2013, "day": 21, "month": 8, "categories": {"HE": {"distance": 10, "rank": 34, "pace": 331000000000, "time": 3250.0}}, "weekday": "wednesday", "livingplace": "Fribourg"}}, "location": "Cousset"}, "Groupe E Tour Fribourg #3 Charmey": {"latitude": 46.97488999999999, "longitude": 7.1954365, "race": "Groupe E Tour Fribourg #3 Charmey", "date": {"mer. 04.09.2013": {"year": 2013, "day": 4, "month": 9, "categories": {"HE": {"distance": 11, "rank": 38, "pace": 333000000000, "time": 3620.3}}, "weekday": "wednesday", "livingplace": "Fribourg"}}, "location": "Kerzers"}, "Morat-Fribourg": {"latitude": 46.92922110000001, "longitude": 7.120184, "race": "Morat-Fribourg", "date": {"sam. 05.10.2013": {"year": 2013, "day": 5, "month": 10, "categories": {"17-M20": {"distance": 17, "rank": 1910, "pace": 340000000000, "time": 5934.6}}, "weekday": "saturday", "livingplace": "Fribourg"}, "sam. 06.10.2012": {"year": 2012, "day": 6, "month": 10, "categories": {"17-M20": {"distance": 17, "rank": 1563, "pace": 336000000000, "time": 5874.4}}, "weekday": "saturday", "livingplace": "Granges Paccot"}}, "location": "Murten"}, "Groupe E Tour Fribourg #5 Fribourg": {"latitude": 46.8128615, "longitude": 7.131657799999999, "race": "Groupe E Tour Fribourg #5 Fribourg", "date": {"mer. 18.09.2013": {"year": 2013, "day": 18, "month": 9, "categories": {"HE": {"distance": 10, "rank": 19, "pace": 255000000000, "time": 2557.0}}, "weekday": "wednesday", "livingplace": "Fribourg"}, "mer. 26.09.2012": {"year": 2012, "day": 26, "month": 9, "categories": {"HE": {"distance": 11, "rank": 37, "pace": 335000000000, "time": 3585.0}}, "weekday": "wednesday", "livingplace": "Granges Paccot"}}, "location": "Givisiez"}, "Groupe E Tour Fribourg #3 Estavayer-le-Lac": {"latitude": 46.97488999999999, "longitude": 7.1954365, "race": "Groupe E Tour Fribourg #3 Estavayer-le-Lac", "date": {"mer. 12.09.2012": {"year": 2012, "day": 12, "month": 9, "categories": {"HE": {"distance": 10, "rank": 34, "pace": 317000000000, "time": 3133.6}}, "weekday": "wednesday", "livingplace": "Granges Paccot"}}, "location": "Kerzers"}, "Groupe E Tour Fribourg #2 Kerzers": {"latitude": 46.6175845, "longitude": 7.1654493, "race": "Groupe E Tour Fribourg #2 Kerzers", "date": {"mer. 28.08.2013": {"year": 2013, "day": 28, "month": 8, "categories": {"HE": {"distance": 12, "rank": 31, "pace": 319000000000, "time": 3785.6}}, "weekday": "wednesday", "livingplace": "Fribourg"}}, "location": "Charmey (Gruy\u00e8re)"}, "Groupe E Tour Fribourg #2 Plafayon": {"latitude": 46.6175845, "longitude": 7.1654493, "race": "Groupe E Tour Fribourg #2 Plafayon", "date": {"mer. 05.09.2012": {"year": 2012, "day": 5, "month": 9, "categories": {"HE": {"distance": 9, "rank": 24, "pace": 317000000000, "time": 2967.6}}, "weekday": "wednesday", "livingplace": "Granges Paccot"}}, "location": "Charmey (Gruy\u00e8re)"}, "Groupe E Tour Fribourg #4 Siviriez": {"latitude": 46.6585092, "longitude": 6.877722, "race": "Groupe E Tour Fribourg #4 Siviriez", "date": {"mer. 19.09.2012": {"year": 2012, "day": 19, "month": 9, "categories": {"HE": {"distance": 9, "rank": 34, "pace": 335000000000, "time": 3151.3}}, "weekday": "wednesday", "livingplace": "Granges Paccot"}}, "location": "Siviriez"}}, "birth": 1986}