{"name": "Schaffhauser Clemens", "sex": "M", "races": {"ASICS Bremgarter Reusslauf": {"latitude": 47.34917739999999, "longitude": 8.3397905, "race": "ASICS Bremgarter Reusslauf", "date": {"sam. 22.02.2014": {"year": 2014, "day": 22, "month": 2, "categories": {"11-M30": {"distance": 11, "rank": 142, "pace": 248000000000, "time": 2736.0}}, "weekday": "saturday", "livingplace": "Zurich"}}, "location": "Bremgarten AG"}, "La Trotteuse-Tissot, La Chaux-de-Fonds": {"latitude": 47.1034892, "longitude": 6.832783800000001, "race": "La Trotteuse-Tissot, La Chaux-de-Fonds", "date": {"sam. 12.12.2015": {"year": 2015, "day": 12, "month": 12, "categories": {"GC-H30": {"distance": 8, "rank": 129, "pace": 277000000000, "time": 2218.4}}, "weekday": "saturday", "livingplace": "Boudry"}}, "location": "La Chaux-de-Fonds"}, "Lausanne Marathon": {"latitude": 46.5196535, "longitude": 6.6322734, "race": "Lausanne Marathon", "date": {"dim. 28.10.2012": {"year": 2012, "day": 28, "month": 10, "categories": {"42-H2": {"distance": 42, "rank": 236, "pace": 377000000000, "time": 15943.5}}, "weekday": "sunday", "livingplace": "Zurich"}}, "location": "Lausanne"}, "Groupe E Tour Fribourg #2 Kerzers": {"latitude": 46.6175845, "longitude": 7.1654493, "race": "Groupe E Tour Fribourg #2 Kerzers", "date": {"mer. 28.08.2013": {"year": 2013, "day": 28, "month": 8, "categories": {"HS1": {"distance": 12, "rank": 52, "pace": 297000000000, "time": 3521.4}}, "weekday": "wednesday", "livingplace": "Zurich"}}, "location": "Charmey (Gruy\u00e8re)"}, "Z\u00fcrcher Silvesterlauf, Z\u00fcrich": {"latitude": 47.3768866, "longitude": 8.541694, "race": "Z\u00fcrcher Silvesterlauf, Z\u00fcrich", "date": {"dim. 16.12.2012": {"year": 2012, "day": 16, "month": 12, "categories": {"8-MM30": {"distance": 9, "rank": 302, "pace": 265000000000, "time": 2279.0}}, "weekday": "sunday", "livingplace": "Zurich"}, "dim. 15.12.2013": {"year": 2013, "day": 15, "month": 12, "categories": {"10-M30": {"distance": 10, "rank": 186, "pace": 247000000000, "time": 2476.7}}, "weekday": "sunday", "livingplace": "Zurich"}, "dim. 11.12.2011": {"year": 2011, "day": 11, "month": 12, "categories": {"4-MenAK1": {"distance": 4, "rank": 14, "pace": 264000000000, "time": 1164.4}}, "weekday": "sunday", "livingplace": "Zurich"}, "dim. 13.12.2009": {"year": 2009, "day": 13, "month": 12, "categories": {"8-MenHK": {"distance": 9, "rank": 165, "pace": 251000000000, "time": 2163.2}}, "weekday": "sunday", "livingplace": "Zurich"}}, "location": "Z\u00fcrich"}, "Z\u00fcrich Marathon, Teamrun und Cityrun": {"latitude": 47.3768866, "longitude": 8.541694, "race": "Z\u00fcrich Marathon, Teamrun und Cityrun", "date": {"dim. 19.04.2015": {"year": 2015, "day": 19, "month": 4, "categories": {"T-TMen": {"distance": 42, "rank": 9, "pace": 253000000000, "time": 10688.2}}, "weekday": "sunday", "livingplace": "Boudry"}}, "location": "Z\u00fcrich"}}, "birth": 1981}