{"name": "Schafroth Ruedi", "sex": "M", "races": {"Gossauer Weihnachtslauf": {"latitude": 47.4155608, "longitude": 9.248852, "race": "Gossauer Weihnachtslauf", "date": {"sam. 04.12.2004": {"year": 2004, "day": 4, "month": 12, "categories": {"27": {"distance": 6, "rank": 11, "pace": 228000000000, "time": 1412.4}}, "weekday": "saturday", "livingplace": "Fehraltorf"}}, "location": "Gossau SG"}, "Sihltaler Fr\u00fchlingslauf, Gattikon": {"latitude": 47.2949282, "longitude": 8.5644799, "race": "Sihltaler Fr\u00fchlingslauf, Gattikon", "date": {"dim. 01.05.2005": {"year": 2005, "day": 1, "month": 5, "categories": {"M50": {"distance": 10, "rank": 5, "pace": 244000000000, "time": 2446.5}}, "weekday": "sunday", "livingplace": "Fehraltorf"}}, "location": "Gattikon"}, "ASICS Bremgarter Reusslauf": {"latitude": 47.34917739999999, "longitude": 8.3397905, "race": "ASICS Bremgarter Reusslauf", "date": {"sam. 22.02.2003": {"year": 2003, "day": 22, "month": 2, "categories": {"13": {"distance": 11, "rank": 26, "pace": 207000000000, "time": 2284.9}}, "weekday": "saturday", "livingplace": "Fehraltorf"}}, "location": "Bremgarten AG"}, "Basler Stadtlauf": {"latitude": 47.5595986, "longitude": 7.5885761, "race": "Basler Stadtlauf", "date": {"sam. 27.11.2004": {"year": 2004, "day": 27, "month": 11, "categories": {"V": {"distance": 6, "rank": 11, "pace": 224000000000, "time": 1233.7}}, "weekday": "saturday", "livingplace": "Fehraltorf"}}, "location": "Basel"}, "Int Greifenseelauf, Uster": {"latitude": 47.3482747, "longitude": 8.717873899999999, "race": "Int Greifenseelauf, Uster", "date": {"sam. 16.09.2006": {"year": 2006, "day": 16, "month": 9, "categories": {"K/M50": {"distance": 10, "rank": 5, "pace": 250000000000, "time": 2500.8}}, "weekday": "saturday", "livingplace": "Fehraltorf"}, "sam. 17.09.2005": {"year": 2005, "day": 17, "month": 9, "categories": {"K/M50": {"distance": 6, "rank": 1, "pace": 238000000000, "time": 1476.3}}, "weekday": "saturday", "livingplace": "Fehraltorf"}, "sam. 18.09.2004": {"year": 2004, "day": 18, "month": 9, "categories": {"K/M50": {"distance": 6, "rank": 1, "pace": 228000000000, "time": 1415.1}}, "weekday": "saturday", "livingplace": "Fehraltorf"}, "sam. 19.09.2009": {"year": 2009, "day": 19, "month": 9, "categories": {"K-M50": {"distance": 10, "rank": 14, "pace": 272000000000, "time": 2722.9}}, "weekday": "saturday", "livingplace": "Fehraltorf"}}, "location": "Uster"}}, "birth": 1954}