{"name": "Schaad Jean-Claude", "sex": "M", "races": {"BCN Tour La Chaux-de-Fonds": {"latitude": 47.1034892, "longitude": 6.832783800000001, "race": "BCN Tour La Chaux-de-Fonds", "date": {"mer. 11.05.2011": {"year": 2011, "day": 11, "month": 5, "categories": {"HS2": {"distance": 11, "rank": 98, "pace": 328000000000, "time": 3519.6}}, "weekday": "wednesday", "livingplace": "Delley"}}, "location": "La Chaux-de-Fonds"}, "BCN Tour Les Ponts-de-Martel": {"latitude": 46.999113, "longitude": 6.733554799999999, "race": "BCN Tour Les Ponts-de-Martel", "date": {"mer. 09.05.2012": {"year": 2012, "day": 9, "month": 5, "categories": {"HS2": {"distance": 10, "rank": 81, "pace": 284000000000, "time": 2930.0}}, "weekday": "wednesday", "livingplace": "Delley"}}, "location": "Les Ponts-de-Martel"}, "BCN Tour Fontaine Cernier": {"latitude": 47.0624261, "longitude": 6.9175754, "race": "BCN Tour Fontaine Cernier", "date": {"mer. 27.04.2011": {"year": 2011, "day": 27, "month": 4, "categories": {"HS2": {"distance": 10, "rank": 100, "pace": 277000000000, "time": 2861.7}}, "weekday": "wednesday", "livingplace": "Delley"}}, "location": "Ch\u00e9zard-St-Martin"}, "Morat-Fribourg": {"latitude": 46.92922110000001, "longitude": 7.120184, "race": "Morat-Fribourg", "date": {"sam. 04.10.2008": {"year": 2008, "day": 4, "month": 10, "categories": {"C-M40": {"distance": 17, "rank": 413, "pace": 299000000000, "time": 5140.3}}, "weekday": "saturday", "livingplace": "Delley"}, "sam. 06.10.2007": {"year": 2007, "day": 6, "month": 10, "categories": {"C/M40": {"distance": 17, "rank": 437, "pace": 305000000000, "time": 5242.7}}, "weekday": "saturday", "livingplace": "Delley"}, "dim. 06.10.2002": {"year": 2002, "day": 6, "month": 10, "categories": {"M20": {"distance": 17, "rank": 948, "pace": 285000000000, "time": 4906.5}}, "weekday": "sunday", "livingplace": "Delley"}}, "location": "Murten"}, "BCN Tour Couvet": {"latitude": 47.0624261, "longitude": 6.9175754, "race": "BCN Tour Couvet", "date": {"mer. 02.05.2012": {"year": 2012, "day": 2, "month": 5, "categories": {"HS2": {"distance": 11, "rank": 68, "pace": 280000000000, "time": 3124.2}}, "weekday": "wednesday", "livingplace": "Delley"}}, "location": "Ch\u00e9zard-St-Martin"}, "BCN Tour Auvernier": {"latitude": 46.9668714, "longitude": 6.8589727, "race": "BCN Tour Auvernier", "date": {"mer. 20.04.2011": {"year": 2011, "day": 20, "month": 4, "categories": {"HS2": {"distance": 11, "rank": 112, "pace": 303000000000, "time": 3277.7}}, "weekday": "wednesday", "livingplace": "Delley"}}, "location": "Colombier NE"}, "BCN Tour Cornaux": {"latitude": 46.9668714, "longitude": 6.8589727, "race": "BCN Tour Cornaux", "date": {"mer. 25.04.2012": {"year": 2012, "day": 25, "month": 4, "categories": {"HS2": {"distance": 11, "rank": 59, "pace": 297000000000, "time": 3267.8}}, "weekday": "wednesday", "livingplace": "Delley"}}, "location": "Colombier NE"}, "BCN Tour Colombier": {"latitude": 47.1034892, "longitude": 6.832783800000001, "race": "BCN Tour Colombier", "date": {"mer. 16.05.2012": {"year": 2012, "day": 16, "month": 5, "categories": {"HS2": {"distance": 11, "rank": 87, "pace": 280000000000, "time": 3026.8}}, "weekday": "wednesday", "livingplace": "Delley"}}, "location": "La Chaux-de-Fonds"}}, "birth": 1965}