{"name": "Scheidegger Guido", "sex": "M", "races": {"Bl\u00fcemlisalp-Lauf, Reichenbach": {"latitude": 46.6254387, "longitude": 7.6940529, "race": "Bl\u00fcemlisalp-Lauf, Reichenbach", "date": {"dim. 29.05.2011": {"year": 2011, "day": 29, "month": 5, "categories": {"M20": {"distance": 16, "rank": 28, "pace": 387000000000, "time": 6233.1}}, "weekday": "sunday", "livingplace": "Spiez"}}, "location": "Reichenbach im Kandertal"}, "Glacier 3000 Run, Gstaad": {"latitude": 46.4717588, "longitude": 7.2865728, "race": "Glacier 3000 Run, Gstaad", "date": {"sam. 04.08.2012": {"year": 2012, "day": 4, "month": 8, "categories": {"M20": {"distance": 26, "rank": 23, "pace": 505000000000, "time": 13143.9}}, "weekday": "saturday", "livingplace": "Weissenburg"}}, "location": "Gstaad"}, "Thuner Stadtlauf, Thun": {"latitude": 46.7579868, "longitude": 7.6279881, "race": "Thuner Stadtlauf, Thun", "date": {"dim. 26.08.2012": {"year": 2012, "day": 26, "month": 8, "categories": {"10-M20": {"distance": 10, "rank": 12, "pace": 238000000000, "time": 2381.5}}, "weekday": "sunday", "livingplace": "Weissenburg"}, "dim. 25.08.2013": {"year": 2013, "day": 25, "month": 8, "categories": {"10-M20": {"distance": 10, "rank": 16, "pace": 236000000000, "time": 2365.0}}, "weekday": "sunday", "livingplace": "Weissenburg"}}, "location": "Thun"}, "Morat-Fribourg": {"latitude": 46.92922110000001, "longitude": 7.120184, "race": "Morat-Fribourg", "date": {"sam. 02.10.2010": {"year": 2010, "day": 2, "month": 10, "categories": {"17-M20": {"distance": 17, "rank": 1108, "pace": 311000000000, "time": 5355.4}}, "weekday": "saturday", "livingplace": "Spiez"}}, "location": "Murten"}, "SwissCityMarathon - Lucerne, Luzern": {"latitude": 47.05016819999999, "longitude": 8.3093072, "race": "SwissCityMarathon - Lucerne, Luzern", "date": {"dim. 27.10.2013": {"year": 2013, "day": 27, "month": 10, "categories": {"M-M20": {"distance": 42, "rank": 60, "pace": 309000000000, "time": 13050.9}}, "weekday": "sunday", "livingplace": "Weissenburg"}}, "location": "Luzern"}, "Kerzerslauf": {"latitude": 46.97488999999999, "longitude": 7.1954365, "race": "Kerzerslauf", "date": {"sam. 17.03.2012": {"year": 2012, "day": 17, "month": 3, "categories": {"15-M20": {"distance": 15, "rank": 254, "pace": 272000000000, "time": 4085.0}}, "weekday": "saturday", "livingplace": "Spiez"}, "sam. 15.03.2014": {"year": 2014, "day": 15, "month": 3, "categories": {"15-M20": {"distance": 15, "rank": 152, "pace": 253000000000, "time": 3799.8}}, "weekday": "saturday", "livingplace": "Weissenburg"}, "sam. 16.03.2013": {"year": 2013, "day": 16, "month": 3, "categories": {"15-M20": {"distance": 15, "rank": 157, "pace": 252000000000, "time": 3783.6}}, "weekday": "saturday", "livingplace": "Weissenburg"}}, "location": "Kerzers"}, "Z\u00fcrich Marathon, Teamrun und Cityrun": {"latitude": 47.3768866, "longitude": 8.541694, "race": "Z\u00fcrich Marathon, Teamrun und Cityrun", "date": {"dim. 11.04.2010": {"year": 2010, "day": 11, "month": 4, "categories": {"M20": {"distance": 42, "rank": 149, "pace": 324000000000, "time": 13698.7}}, "weekday": "sunday", "livingplace": "Spiez"}}, "location": "Z\u00fcrich"}}, "birth": 1987}