{"name": "Scherer Eduard", "sex": "M", "races": {"Lausanne Marathon": {"latitude": 46.5196535, "longitude": 6.6322734, "race": "Lausanne Marathon", "date": {"dim. 30.10.2011": {"year": 2011, "day": 30, "month": 10, "categories": {"21-H3": {"distance": 21, "rank": 3, "pace": 206000000000, "time": 4365.2}}, "weekday": "sunday", "livingplace": "Zurich"}}, "location": "Lausanne"}, "Schlosslauf Rapperswil-Jona": {"latitude": 47.2266239, "longitude": 8.818437399999999, "race": "Schlosslauf Rapperswil-Jona", "date": {"dim. 09.10.2011": {"year": 2011, "day": 9, "month": 10, "categories": {"9-ME": {"distance": 9, "rank": 11, "pace": 203000000000, "time": 1839.5}}, "weekday": "sunday", "livingplace": "Zurich"}}, "location": "Rapperswil SG"}, "Dietiker Neujahrslauf, Dietikon": {"latitude": 47.4053885, "longitude": 8.39977, "race": "Dietiker Neujahrslauf, Dietikon", "date": {"sam. 12.01.2013": {"year": 2013, "day": 12, "month": 1, "categories": {"C": {"distance": 12, "rank": 2, "pace": 205000000000, "time": 2483.3}}, "weekday": "saturday", "livingplace": "Zurich"}, "sam. 10.01.2015": {"year": 2015, "day": 10, "month": 1, "categories": {"C": {"distance": 12, "rank": 10, "pace": 219000000000, "time": 2651.8}}, "weekday": "saturday", "livingplace": "Zurich"}, "sam. 14.01.2012": {"year": 2012, "day": 14, "month": 1, "categories": {"C": {"distance": 12, "rank": 3, "pace": 203000000000, "time": 2466.2}}, "weekday": "saturday", "livingplace": "Zurich"}}, "location": "Dietikon"}, "Laufsporttag Winterthur": {"latitude": 39.8088766, "longitude": -75.6037351, "race": "Laufsporttag Winterthur", "date": {"sam. 02.03.2013": {"year": 2013, "day": 2, "month": 3, "categories": {"C": {"distance": 11, "rank": 3, "pace": 210000000000, "time": 2312.8}}, "weekday": "saturday", "livingplace": "Zurich"}}, "location": "Winterthur"}, "Z\u00fcrich Marathon, Teamrun und Cityrun": {"latitude": 47.3768866, "longitude": 8.541694, "race": "Z\u00fcrich Marathon, Teamrun und Cityrun", "date": {"dim. 07.04.2013": {"year": 2013, "day": 7, "month": 4, "categories": {"42-M45": {"distance": 42, "rank": 3, "pace": 234000000000, "time": 9907.9}}, "weekday": "sunday", "livingplace": "Zurich"}, "dim. 09.04.2006": {"year": 2006, "day": 9, "month": 4, "categories": {"M40": {"distance": 42, "rank": 4, "pace": 232000000000, "time": 9831.4}}, "weekday": "sunday", "livingplace": "Tubingen"}}, "location": "Z\u00fcrich"}}, "birth": 1966}