{"name": "Scheiffele Peter", "sex": "M", "races": {"Lucerne Marathon, Luzern": {"latitude": 47.05016819999999, "longitude": 8.3093072, "race": "Lucerne Marathon, Luzern", "date": {"dim. 28.10.2012": {"year": 2012, "day": 28, "month": 10, "categories": {"M-M40": {"distance": 42, "rank": 369, "pace": 365000000000, "time": 15420.3}}, "weekday": "sunday", "livingplace": "Basel"}}, "location": "Luzern"}, "SwissCityMarathon - Lucerne, Luzern": {"latitude": 47.05016819999999, "longitude": 8.3093072, "race": "SwissCityMarathon - Lucerne, Luzern", "date": {"dim. 26.10.2014": {"year": 2014, "day": 26, "month": 10, "categories": {"M-M40": {"distance": 42, "rank": 89, "pace": 288000000000, "time": 12154.5}}, "weekday": "sunday", "livingplace": "Basel"}}, "location": "Luzern"}, "Eiger Ultra Trail, Grindelwald": {"latitude": 46.624164, "longitude": 8.0413962, "race": "Eiger Ultra Trail, Grindelwald", "date": {"sam. 18.07.2015": {"year": 2015, "day": 18, "month": 7, "categories": {"B-HS1": {"distance": 51, "rank": 19, "pace": 513000000000, "time": 26177.3}}, "weekday": "saturday", "livingplace": "Basel"}, "sam. 19.07.2014": {"year": 2014, "day": 19, "month": 7, "categories": {"B-HS1": {"distance": 51, "rank": 15, "pace": 552000000000, "time": 28200.9}}, "weekday": "saturday", "livingplace": "Basel"}}, "location": "Grindelwald"}, "Basler Stadtlauf": {"latitude": 47.5595986, "longitude": 7.5885761, "race": "Basler Stadtlauf", "date": {"sam. 29.11.2014": {"year": 2014, "day": 29, "month": 11, "categories": {"M45": {"distance": 6, "rank": 97, "pace": 250000000000, "time": 1378.0}}, "weekday": "saturday", "livingplace": "Basel"}}, "location": "Basel"}, "Sierre-Zinal, Sierre": {"latitude": 46.29413110000001, "longitude": 7.533536199999999, "race": "Sierre-Zinal, Sierre", "date": {"dim. 09.08.2015": {"year": 2015, "day": 9, "month": 8, "categories": {"V\u00e9t_I": {"distance": 31, "rank": 76, "pace": 462000000000, "time": 14341.8}}, "weekday": "sunday", "livingplace": "Basel"}}, "location": "Sierre"}, "IWB Basel Marathon": {"latitude": 47.5595986, "longitude": 7.5885761, "race": "IWB Basel Marathon", "date": {"dim. 23.09.2012": {"year": 2012, "day": 23, "month": 9, "categories": {"H-21-M40": {"distance": 21, "rank": 63, "pace": 300000000000, "time": 6345.2}}, "weekday": "sunday", "livingplace": "Basel"}}, "location": "Basel"}, "Z\u00fcrich Marathon, Teamrun und Cityrun": {"latitude": 47.3768866, "longitude": 8.541694, "race": "Z\u00fcrich Marathon, Teamrun und Cityrun", "date": {"dim. 06.04.2014": {"year": 2014, "day": 6, "month": 4, "categories": {"42-M45": {"distance": 42, "rank": 160, "pace": 299000000000, "time": 12636.5}}, "weekday": "sunday", "livingplace": "Basel"}}, "location": "Z\u00fcrich"}}, "birth": 1969}