{"name": "Scheidegger Mirko", "sex": "M", "races": {"Derendinger Abendlauf, Derendingen": {"latitude": 47.1952433, "longitude": 7.585593099999999, "race": "Derendinger Abendlauf, Derendingen", "date": {"ven. 26.06.2009": {"year": 2009, "day": 26, "month": 6, "categories": {"M30": {"distance": 11, "rank": 25, "pace": 256000000000, "time": 2746.0}}, "weekday": "friday", "livingplace": "Wiler b. Utzenstorf"}}, "location": "Derendingen"}, "Emmenlauf Utzenstorf": {"latitude": 47.12816670000001, "longitude": 7.5588034, "race": "Emmenlauf Utzenstorf", "date": {"mer. 21.08.2013": {"year": 2013, "day": 21, "month": 8, "categories": {"Herren2": {"distance": 11, "rank": 17, "pace": 247000000000, "time": 2593.5}}, "weekday": "wednesday", "livingplace": "Wiler b. Utzenstorf"}, "mer. 20.08.2014": {"year": 2014, "day": 20, "month": 8, "categories": {"Herren2": {"distance": 11, "rank": 19, "pace": 251000000000, "time": 2637.9}}, "weekday": "wednesday", "livingplace": "Wiler b. Utzenstorf"}}, "location": "Utzenstorf"}, "Wiedlisbacher L\u00e4ufe, Wiedlisbach": {"latitude": 47.2512653, "longitude": 7.6453444, "race": "Wiedlisbacher L\u00e4ufe, Wiedlisbach", "date": {"dim. 29.04.2007": {"year": 2007, "day": 29, "month": 4, "categories": {"M20-10": {"distance": 10, "rank": 10, "pace": 249000000000, "time": 2490.8}}, "weekday": "sunday", "livingplace": "Wiler b. Utzenstorf"}}, "location": "Wiedlisbach"}, "Kerzerslauf": {"latitude": 46.97488999999999, "longitude": 7.1954365, "race": "Kerzerslauf", "date": {"sam. 17.03.2007": {"year": 2007, "day": 17, "month": 3, "categories": {"M20": {"distance": 15, "rank": 149, "pace": 244000000000, "time": 3664.7}}, "weekday": "saturday", "livingplace": "Wiler b. Utzenstorf"}}, "location": "Kerzers"}, "Bieler Lauftage, Biel Bienne": {"latitude": 47.1367785, "longitude": 7.2467909, "race": "Bieler Lauftage, Biel Bienne", "date": {"ven. 09.06.2006": {"year": 2006, "day": 9, "month": 6, "categories": {"100/M20": {"distance": 100, "rank": 4, "pace": 348000000000, "time": 34823.7}}, "weekday": "friday", "livingplace": "Utzenstorf"}}, "location": "Biel/Bienne"}, "Z\u00fcrich Marathon, Teamrun und Cityrun": {"latitude": 47.3768866, "longitude": 8.541694, "race": "Z\u00fcrich Marathon, Teamrun und Cityrun", "date": {"dim. 09.04.2006": {"year": 2006, "day": 9, "month": 4, "categories": {"M20": {"distance": 42, "rank": 55, "pace": 263000000000, "time": 11109.6}}, "weekday": "sunday", "livingplace": "Utzenstorf"}}, "location": "Z\u00fcrich"}}, "birth": 1979}