{"name": "Schibli Hans", "sex": "M", "races": {"Badener Limmat-Lauf, Baden": {"latitude": 48.5699281, "longitude": 8.5303972, "race": "Badener Limmat-Lauf, Baden", "date": {"sam. 29.03.2008": {"year": 2008, "day": 29, "month": 3, "categories": {"M60": {"distance": 13, "rank": 24, "pace": 302000000000, "time": 3986.6}}, "weekday": "saturday", "livingplace": "Fislisbach"}, "sam. 27.03.2010": {"year": 2010, "day": 27, "month": 3, "categories": {"M60": {"distance": 13, "rank": 29, "pace": 338000000000, "time": 4465.0}}, "weekday": "saturday", "livingplace": "Fislisbach"}}, "location": "Baden"}, "Gippinger Stauseelauf": {"latitude": 47.5810513, "longitude": 8.2152586, "race": "Gippinger Stauseelauf", "date": {"jeu. 31.12.2015": {"year": 2015, "day": 31, "month": 12, "categories": {"7-M60": {"distance": 8, "rank": 85, "pace": 479000000000, "time": 3610.7}}, "weekday": "thursday", "livingplace": "Fislisbach"}, "ven. 31.12.2010": {"year": 2010, "day": 31, "month": 12, "categories": {"7-M60": {"distance": 8, "rank": 13, "pace": 287000000000, "time": 2167.5}}, "weekday": "friday", "livingplace": "Fislisbach"}}, "location": "Leuggern"}, "Lenzburger Lauf": {"latitude": 47.3904443, "longitude": 8.172154500000001, "race": "Lenzburger Lauf", "date": {"sam. 24.05.2008": {"year": 2008, "day": 24, "month": 5, "categories": {"WM50": {"distance": 15, "rank": 12, "pace": 303000000000, "time": 4678.5}}, "weekday": "saturday", "livingplace": "Fislisbach"}, "sam. 19.05.2007": {"year": 2007, "day": 19, "month": 5, "categories": {"WM50": {"distance": 15, "rank": 12, "pace": 298000000000, "time": 4608.2}}, "weekday": "saturday", "livingplace": "Fislisbach"}}, "location": "Lenzburg"}, "ASICS Bremgarter Reusslauf": {"latitude": 47.34917739999999, "longitude": 8.3397905, "race": "ASICS Bremgarter Reusslauf", "date": {"sam. 23.02.2008": {"year": 2008, "day": 23, "month": 2, "categories": {"M60": {"distance": 11, "rank": 48, "pace": 287000000000, "time": 3166.7}}, "weekday": "saturday", "livingplace": "Fislisbach"}}, "location": "Bremgarten AG"}, "Basler Stadtlauf": {"latitude": 47.5595986, "longitude": 7.5885761, "race": "Basler Stadtlauf", "date": {"sam. 24.11.2001": {"year": 2001, "day": 24, "month": 11, "categories": {"U": {"distance": 6, "rank": 39, "pace": 239000000000, "time": 1315.2}}, "weekday": "saturday", "livingplace": "Fislisbach"}}, "location": "Basel"}}, "birth": 1948}