{"name": "Schlup Marc-Olivier", "sex": "M", "races": {"Tour du Chablais #2 Rennaz": {"latitude": 46.3835529, "longitude": 6.854975199999999, "race": "Tour du Chablais #2 Rennaz", "date": {"mer. 04.05.2011": {"year": 2011, "day": 4, "month": 5, "categories": {"M-M50": {"distance": 9, "rank": 102, "pace": 359000000000, "time": 3364.1}}, "weekday": "wednesday", "livingplace": "Roche"}}, "location": "Bouveret"}, "Tour du Chablais #1 Roche": {"latitude": 46.2957462, "longitude": 6.9916269, "race": "Tour du Chablais #1 Roche", "date": {"mer. 03.04.2013": {"year": 2013, "day": 3, "month": 4, "categories": {"M-M50": {"distance": 9, "rank": 92, "pace": 335000000000, "time": 2971.5}}, "weekday": "wednesday", "livingplace": "Roche"}}, "location": "Ollon VD"}, "Morat-Fribourg": {"latitude": 46.92922110000001, "longitude": 7.120184, "race": "Morat-Fribourg", "date": {"sam. 06.10.2007": {"year": 2007, "day": 6, "month": 10, "categories": {"C/M50": {"distance": 17, "rank": 413, "pace": 372000000000, "time": 6391.1}}, "weekday": "saturday", "livingplace": "Roche"}, "dim. 06.10.2002": {"year": 2002, "day": 6, "month": 10, "categories": {"M45": {"distance": 17, "rank": 515, "pace": 341000000000, "time": 5866.2}}, "weekday": "sunday", "livingplace": "Roche"}}, "location": "Murten"}, "Tour du Chablais #3 Le Bouveret": {"latitude": 46.1782231, "longitude": 7.0223787, "race": "Tour du Chablais #3 Le Bouveret", "date": {"mer. 11.05.2011": {"year": 2011, "day": 11, "month": 5, "categories": {"M-M50": {"distance": 10, "rank": 91, "pace": 355000000000, "time": 3551.0}}, "weekday": "wednesday", "livingplace": "Roche"}}, "location": "Evionnaz"}, "Tour du Chablais #4 Morgins": {"latitude": NaN, "longitude": NaN, "race": "Tour du Chablais #4 Morgins", "date": {"mer. 18.05.2011": {"year": 2011, "day": 18, "month": 5, "categories": {"M-M50": {"distance": 8, "rank": 81, "pace": 380000000000, "time": 3179.4}}, "weekday": "wednesday", "livingplace": "Roche"}}, "location": "Les Mosses"}, "Tour du Chablais #6 Monthey": {"latitude": 46.3190253, "longitude": 6.970566, "race": "Tour du Chablais #6 Monthey", "date": {"mer. 08.05.2013": {"year": 2013, "day": 8, "month": 5, "categories": {"M-M50": {"distance": 9, "rank": 85, "pace": 338000000000, "time": 3152.8}}, "weekday": "wednesday", "livingplace": "Roche"}}, "location": "Aigle"}, "Tour du Chablais #5 Morgins": {"latitude": 46.3603257, "longitude": 6.931504599999999, "race": "Tour du Chablais #5 Morgins", "date": {"mer. 01.05.2013": {"year": 2013, "day": 1, "month": 5, "categories": {"M-M50": {"distance": 8, "rank": 62, "pace": 354000000000, "time": 2690.8}}, "weekday": "wednesday", "livingplace": "Roche"}}, "location": "Roche VD"}, "20km de Lausanne": {"latitude": 46.5196535, "longitude": 6.6322734, "race": "20km de Lausanne", "date": {"sam. 24.04.2010": {"year": 2010, "day": 24, "month": 4, "categories": {"10-H50": {"distance": 10, "rank": 206, "pace": 364000000000, "time": 3643.0}}, "weekday": "saturday", "livingplace": "Roche"}, "sam. 24.04.2004": {"year": 2004, "day": 24, "month": 4, "categories": {"13": {"distance": 20, "rank": 499, "pace": 337000000000, "time": 6751.7}}, "weekday": "saturday", "livingplace": "Roche"}, "sam. 27.04.2013": {"year": 2013, "day": 27, "month": 4, "categories": {"10-H55": {"distance": 10, "rank": 101, "pace": 339000000000, "time": 3396.7}}, "weekday": "saturday", "livingplace": "Roche"}, "sam. 22.04.2006": {"year": 2006, "day": 22, "month": 4, "categories": {"20/H45": {"distance": 20, "rank": 190, "pace": 338000000000, "time": 6767.3}}, "weekday": "saturday", "livingplace": "Roche"}, "sam. 26.04.2003": {"year": 2003, "day": 26, "month": 4, "categories": {"13": {"distance": 20, "rank": 468, "pace": 327000000000, "time": 6549.2}}, "weekday": "saturday", "livingplace": "Roche"}}, "location": "Lausanne"}, "Tour du Pays de Vaud #2 - Mezi\u00e8res": {"latitude": 46.5955273, "longitude": 6.7702883, "race": "Tour du Pays de Vaud #2 - Mezi\u00e8res", "date": {"mer. 21.08.2013": {"year": 2013, "day": 21, "month": 8, "categories": {"H-Sen3": {"distance": 8, "rank": 88, "pace": 395000000000, "time": 3202.7}}, "weekday": "wednesday", "livingplace": "Roche"}}, "location": "M\u00e9zi\u00e8res VD"}, "Aletsch-Halbmarathon, Bettmeralp": {"latitude": NaN, "longitude": NaN, "race": "Aletsch-Halbmarathon, Bettmeralp", "date": {"dim. 24.06.2007": {"year": 2007, "day": 24, "month": 6, "categories": {"M50": {"distance": 21, "rank": 109, "pace": 577000000000, "time": 12123.3}}, "weekday": "sunday", "livingplace": "Roche"}}, "location": "Bettmeralp"}, "Tour du Chablais #2 Yvorne": {"latitude": 46.3835529, "longitude": 6.854975199999999, "race": "Tour du Chablais #2 Yvorne", "date": {"mer. 10.04.2013": {"year": 2013, "day": 10, "month": 4, "categories": {"M-M50": {"distance": 8, "rank": 75, "pace": 372000000000, "time": 2979.8}}, "weekday": "wednesday", "livingplace": "Roche"}}, "location": "Bouveret"}, "Tour du Chablais #2 Bex": {"latitude": 46.3835529, "longitude": 6.854975199999999, "race": "Tour du Chablais #2 Bex", "date": {"mer. 18.04.2012": {"year": 2012, "day": 18, "month": 4, "categories": {"M-M50": {"distance": 8, "rank": 75, "pace": 333000000000, "time": 2668.5}}, "weekday": "wednesday", "livingplace": "Roche"}}, "location": "Bouveret"}, "Tour du Chablais #3 Bouveret": {"latitude": 46.1782231, "longitude": 7.0223787, "race": "Tour du Chablais #3 Bouveret", "date": {"mer. 17.04.2013": {"year": 2013, "day": 17, "month": 4, "categories": {"M-M50": {"distance": 10, "rank": 76, "pace": 348000000000, "time": 3481.2}}, "weekday": "wednesday", "livingplace": "Roche"}}, "location": "Evionnaz"}, "Tour du Chablais #1 Montreux": {"latitude": 46.2957462, "longitude": 6.9916269, "race": "Tour du Chablais #1 Montreux", "date": {"mer. 11.04.2012": {"year": 2012, "day": 11, "month": 4, "categories": {"M-M50": {"distance": 8, "rank": 84, "pace": 350000000000, "time": 2661.3}}, "weekday": "wednesday", "livingplace": "Roche"}}, "location": "Ollon VD"}, "Tour du Chablais #5 Les Mosses": {"latitude": 46.3603257, "longitude": 6.931504599999999, "race": "Tour du Chablais #5 Les Mosses", "date": {"mer. 25.05.2011": {"year": 2011, "day": 25, "month": 5, "categories": {"M-M50": {"distance": 8, "rank": 73, "pace": 379000000000, "time": 3036.6}}, "weekday": "wednesday", "livingplace": "Roche"}}, "location": "Roche VD"}, "Tour du Pays de Vaud etape 3 - Aubonne": {"latitude": 46.7829756, "longitude": 6.5728678, "race": "Tour du Pays de Vaud etape 3 - Aubonne", "date": {"mer. 27.08.2008": {"year": 2008, "day": 27, "month": 8, "categories": {"HomSen3": {"distance": 8, "rank": 80, "pace": 374000000000, "time": 2918.0}}, "weekday": "wednesday", "livingplace": "Roche"}}, "location": "Champvent"}, "Tour du Chablais #3 Collombey-Muraz": {"latitude": 46.1782231, "longitude": 7.0223787, "race": "Tour du Chablais #3 Collombey-Muraz", "date": {"mer. 25.04.2012": {"year": 2012, "day": 25, "month": 4, "categories": {"M-M50": {"distance": 9, "rank": 76, "pace": 329000000000, "time": 2960.8}}, "weekday": "wednesday", "livingplace": "Roche"}}, "location": "Evionnaz"}, "Tour du Chablais #6 Aigle": {"latitude": 46.3190253, "longitude": 6.970566, "race": "Tour du Chablais #6 Aigle", "date": {"mer. 01.06.2011": {"year": 2011, "day": 1, "month": 6, "categories": {"M-M50": {"distance": 10, "rank": 86, "pace": 344000000000, "time": 3513.8}}, "weekday": "wednesday", "livingplace": "Roche"}}, "location": "Aigle"}, "Kerzerslauf": {"latitude": 46.97488999999999, "longitude": 7.1954365, "race": "Kerzerslauf", "date": {"sam. 17.03.2012": {"year": 2012, "day": 17, "month": 3, "categories": {"15-M55": {"distance": 15, "rank": 261, "pace": 366000000000, "time": 5495.0}}, "weekday": "saturday", "livingplace": "Roche"}, "sam. 18.03.2006": {"year": 2006, "day": 18, "month": 3, "categories": {"M45": {"distance": 15, "rank": 394, "pace": 329000000000, "time": 4949.4}}, "weekday": "saturday", "livingplace": "Roche"}, "sam. 21.03.2009": {"year": 2009, "day": 21, "month": 3, "categories": {"15-M50": {"distance": 15, "rank": 398, "pace": 343000000000, "time": 5149.2}}, "weekday": "saturday", "livingplace": "Roche"}, "sam. 20.03.2004": {"year": 2004, "day": 20, "month": 3, "categories": {"M45": {"distance": 15, "rank": 374, "pace": 343000000000, "time": 5159.1}}, "weekday": "saturday", "livingplace": "Roche"}, "sam. 19.03.2005": {"year": 2005, "day": 19, "month": 3, "categories": {"M45": {"distance": 15, "rank": 390, "pace": 345000000000, "time": 5177.5}}, "weekday": "saturday", "livingplace": "Roche"}}, "location": "Kerzers"}, "Les Traine-Savates, Cheseaux-sur-Lausanne": {"latitude": 46.585452, "longitude": 6.6047712, "race": "Les Traine-Savates, Cheseaux-sur-Lausanne", "date": {"sam. 04.04.2009": {"year": 2009, "day": 4, "month": 4, "categories": {"Hom V2": {"distance": 10, "rank": 79, "pace": 327000000000, "time": 3410.7}}, "weekday": "saturday", "livingplace": "Roche"}}, "location": "Cheseaux-sur-Lausanne"}, "Tour du Chablais #6 Montreux": {"latitude": 46.3190253, "longitude": 6.970566, "race": "Tour du Chablais #6 Montreux", "date": {"mer. 16.05.2012": {"year": 2012, "day": 16, "month": 5, "categories": {"M-M50": {"distance": 9, "rank": 88, "pace": 325000000000, "time": 3007.0}}, "weekday": "wednesday", "livingplace": "Roche"}}, "location": "Aigle"}}, "birth": 1957}