{"name": "Schmutz Hanspeter", "sex": "M", "races": {"Badener Limmat-Lauf, Baden": {"latitude": 48.5699281, "longitude": 8.5303972, "race": "Badener Limmat-Lauf, Baden", "date": {"sam. 09.04.2005": {"year": 2005, "day": 9, "month": 4, "categories": {"13": {"distance": 13, "rank": 134, "pace": 352000000000, "time": 4637.7}}, "weekday": "saturday", "livingplace": "Zurich"}, "sam. 24.03.2007": {"year": 2007, "day": 24, "month": 3, "categories": {"13": {"distance": 13, "rank": 184, "pace": 405000000000, "time": 5328.3}}, "weekday": "saturday", "livingplace": "Zurich"}}, "location": "Baden"}, "ASICS Bremgarter Reusslauf": {"latitude": 47.34917739999999, "longitude": 8.3397905, "race": "ASICS Bremgarter Reusslauf", "date": {"sam. 17.02.2007": {"year": 2007, "day": 17, "month": 2, "categories": {"M40": {"distance": 11, "rank": 649, "pace": 382000000000, "time": 4017.3}}, "weekday": "saturday", "livingplace": "Zurich"}}, "location": "Bremgarten AG"}, "Kerzerslauf": {"latitude": 46.97488999999999, "longitude": 7.1954365, "race": "Kerzerslauf", "date": {"sam. 19.03.2005": {"year": 2005, "day": 19, "month": 3, "categories": {"M45": {"distance": 15, "rank": 443, "pace": 382000000000, "time": 5734.9}}, "weekday": "saturday", "livingplace": "Zurich"}}, "location": "Kerzers"}, "Sihltaler Fr\u00fchlingslauf, Gattikon": {"latitude": 47.2949282, "longitude": 8.5644799, "race": "Sihltaler Fr\u00fchlingslauf, Gattikon", "date": {"dim. 01.05.2005": {"year": 2005, "day": 1, "month": 5, "categories": {"M40": {"distance": 10, "rank": 97, "pace": 360000000000, "time": 3600.0}}, "weekday": "sunday", "livingplace": "Zurich"}}, "location": "Gattikon"}, "Int Greifenseelauf, Uster": {"latitude": 47.3482747, "longitude": 8.717873899999999, "race": "Int Greifenseelauf, Uster", "date": {"sam. 16.09.2006": {"year": 2006, "day": 16, "month": 9, "categories": {"H/M45": {"distance": 21, "rank": 797, "pace": 390000000000, "time": 8242.7}}, "weekday": "saturday", "livingplace": "Zurich"}, "sam. 17.09.2005": {"year": 2005, "day": 17, "month": 9, "categories": {"H/M45": {"distance": 21, "rank": 885, "pace": 371000000000, "time": 7831.8}}, "weekday": "saturday", "livingplace": "Zurich"}}, "location": "Uster"}}, "birth": 1960}