{"name": "Schmidt Johann", "sex": "M", "races": {"Gippinger Stauseelauf": {"latitude": 47.5810513, "longitude": 8.2152586, "race": "Gippinger Stauseelauf", "date": {"mar. 31.12.2002": {"year": 2002, "day": 31, "month": 12, "categories": {"M60": {"distance": 8, "rank": 50, "pace": 309000000000, "time": 2321.6}}, "weekday": "tuesday", "livingplace": "Aarau"}, "ven. 31.12.2004": {"year": 2004, "day": 31, "month": 12, "categories": {"M60": {"distance": 8, "rank": 63, "pace": 328000000000, "time": 2463.6}}, "weekday": "friday", "livingplace": "Ried Brig"}, "mer. 31.12.2003": {"year": 2003, "day": 31, "month": 12, "categories": {"M60": {"distance": 8, "rank": 51, "pace": 327000000000, "time": 2457.0}}, "weekday": "wednesday", "livingplace": "Aarau"}}, "location": "Leuggern"}, "Pfingstlauf Wohlen AG": {"latitude": 47.3493653, "longitude": 8.2768762, "race": "Pfingstlauf Wohlen AG", "date": {"sam. 29.05.2004": {"year": 2004, "day": 29, "month": 5, "categories": {"WM50": {"distance": 8, "rank": 12, "pace": 413000000000, "time": 3390.7}}, "weekday": "saturday", "livingplace": "Aarau"}}, "location": "Wohlen AG"}, "Luzerner Stadtlauf": {"latitude": 47.05016819999999, "longitude": 8.3093072, "race": "Luzerner Stadtlauf", "date": {"sam. 03.05.2003": {"year": 2003, "day": 3, "month": 5, "categories": {"K/30": {"distance": 6, "rank": 29, "pace": 312000000000, "time": 1718.6}}, "weekday": "saturday", "livingplace": "Aarau"}, "sam. 27.04.2002": {"year": 2002, "day": 27, "month": 4, "categories": {"K/30": {"distance": 6, "rank": 34, "pace": 336000000000, "time": 1852.8}}, "weekday": "saturday", "livingplace": "Aarau"}}, "location": "Luzern"}, "Morat-Fribourg": {"latitude": 46.92922110000001, "longitude": 7.120184, "race": "Morat-Fribourg", "date": {"dim. 05.10.2003": {"year": 2003, "day": 5, "month": 10, "categories": {"M60": {"distance": 17, "rank": 138, "pace": 355000000000, "time": 6109.6}}, "weekday": "sunday", "livingplace": "Aarau"}, "dim. 06.10.2002": {"year": 2002, "day": 6, "month": 10, "categories": {"M60": {"distance": 17, "rank": 173, "pace": 370000000000, "time": 6361.8}}, "weekday": "sunday", "livingplace": "Aarau"}}, "location": "Murten"}, "Gurtenclassic, Wabern": {"latitude": 46.92901639999999, "longitude": 7.448973199999999, "race": "Gurtenclassic, Wabern", "date": {"dim. 05.11.2000": {"year": 2000, "day": 5, "month": 11, "categories": {"M60": {"distance": 15, "rank": 23, "pace": 380000000000, "time": 5738.3}}, "weekday": "sunday", "livingplace": "Aarau"}}, "location": "Wabern"}, "Int Greifenseelauf, Uster": {"latitude": 47.3482747, "longitude": 8.717873899999999, "race": "Int Greifenseelauf, Uster", "date": {"sam. 20.09.2003": {"year": 2003, "day": 20, "month": 9, "categories": {"H/M60": {"distance": 21, "rank": 112, "pace": 434000000000, "time": 9176.2}}, "weekday": "saturday", "livingplace": "Aarau"}}, "location": "Uster"}}, "birth": 1940}