{"name": "Schmid Corinne", "sex": "F", "races": {"Lenzburger Lauf": {"latitude": 47.3904443, "longitude": 8.172154500000001, "race": "Lenzburger Lauf", "date": {"sam. 29.05.2010": {"year": 2010, "day": 29, "month": 5, "categories": {"11-F30": {"distance": 12, "rank": 9, "pace": 365000000000, "time": 4238.9}}, "weekday": "saturday", "livingplace": "Seengen"}}, "location": "Lenzburg"}, "ASICS Bremgarter Reusslauf": {"latitude": 47.34917739999999, "longitude": 8.3397905, "race": "ASICS Bremgarter Reusslauf", "date": {"sam. 27.02.2010": {"year": 2010, "day": 27, "month": 2, "categories": {"F30": {"distance": 11, "rank": 123, "pace": 341000000000, "time": 3754.0}}, "weekday": "saturday", "livingplace": "Seengen"}}, "location": "Bremgarten AG"}, "Badener Limmat-Lauf, Baden": {"latitude": 48.5699281, "longitude": 8.5303972, "race": "Badener Limmat-Lauf, Baden", "date": {"sam. 27.03.2010": {"year": 2010, "day": 27, "month": 3, "categories": {"F30": {"distance": 13, "rank": 24, "pace": 345000000000, "time": 4561.3}}, "weekday": "saturday", "livingplace": "Seengen"}}, "location": "Baden"}, "Gurtenclassic, Wabern": {"latitude": 46.92901639999999, "longitude": 7.448973199999999, "race": "Gurtenclassic, Wabern", "date": {"dim. 03.11.2013": {"year": 2013, "day": 3, "month": 11, "categories": {"W30": {"distance": 15, "rank": 38, "pace": 433000000000, "time": 6497.3}}, "weekday": "sunday", "livingplace": "Schlieren"}}, "location": "Wabern"}, "Z\u00fcrcher Silvesterlauf, Z\u00fcrich": {"latitude": 47.3768866, "longitude": 8.541694, "race": "Z\u00fcrcher Silvesterlauf, Z\u00fcrich", "date": {"dim. 15.12.2013": {"year": 2013, "day": 15, "month": 12, "categories": {"10-F30": {"distance": 10, "rank": 397, "pace": 342000000000, "time": 3422.0}}, "weekday": "sunday", "livingplace": "Schlieren"}}, "location": "Z\u00fcrich"}, "Int Greifenseelauf, Uster": {"latitude": 47.3482747, "longitude": 8.717873899999999, "race": "Int Greifenseelauf, Uster", "date": {"sam. 20.09.2008": {"year": 2008, "day": 20, "month": 9, "categories": {"K-W20": {"distance": 10, "rank": 148, "pace": 394000000000, "time": 3946.1}}, "weekday": "saturday", "livingplace": "Hedingen"}}, "location": "Uster"}, "Hallwilerseelauf, Beinwil am See": {"latitude": NaN, "longitude": NaN, "race": "Hallwilerseelauf, Beinwil am See", "date": {"sam. 12.10.2013": {"year": 2013, "day": 12, "month": 10, "categories": {"10-Frau": {"distance": 10, "rank": 304, "pace": 332000000000, "time": 3323.4}}, "weekday": "saturday", "livingplace": "Schlieren"}}, "location": "Beinwil am See"}, "Pfingstlauf Wohlen AG": {"latitude": 47.3493653, "longitude": 8.2768762, "race": "Pfingstlauf Wohlen AG", "date": {"sam. 22.05.2010": {"year": 2010, "day": 22, "month": 5, "categories": {"8-F30": {"distance": 10, "rank": 15, "pace": 351000000000, "time": 3518.4}}, "weekday": "saturday", "livingplace": "Seengen"}}, "location": "Wohlen AG"}, "GP Fricktal, Eiken": {"latitude": NaN, "longitude": NaN, "race": "GP Fricktal, Eiken", "date": {"sam. 03.04.2010": {"year": 2010, "day": 3, "month": 4, "categories": {"F30": {"distance": 16, "rank": 25, "pace": 350000000000, "time": 5643.2}}, "weekday": "saturday", "livingplace": "Seengen"}}, "location": "Eiken"}}, "birth": 1980}