{"name": "Schmutz Jusitine", "sex": "F", "races": {"Tour du Pays de Vaud #2 - Genolier": {"latitude": 46.5955273, "longitude": 6.7702883, "race": "Tour du Pays de Vaud #2 - Genolier", "date": {"mer. 15.08.2012": {"year": 2012, "day": 15, "month": 8, "categories": {"D-Sen3": {"distance": 9, "rank": 30, "pace": 360000000000, "time": 3066.2}}, "weekday": "wednesday", "livingplace": "Epalinges"}, "mer. 17.08.2011": {"year": 2011, "day": 17, "month": 8, "categories": {"D-Sen3": {"distance": 9, "rank": 17, "pace": 366000000000, "time": 3112.5}}, "weekday": "wednesday", "livingplace": "Epalinges"}}, "location": "M\u00e9zi\u00e8res VD"}, "Tour du Pays de Vaud #3 - Mezi\u00e8res": {"latitude": 46.7784736, "longitude": 6.641183, "race": "Tour du Pays de Vaud #3 - Mezi\u00e8res", "date": {"mer. 22.08.2012": {"year": 2012, "day": 22, "month": 8, "categories": {"D-Sen3": {"distance": 8, "rank": 30, "pace": 395000000000, "time": 3323.0}}, "weekday": "wednesday", "livingplace": "Epalinges"}}, "location": "Yverdon-les-Bains"}, "Tour du pays de Vaud #6 - St  Prex": {"latitude": 46.4829113, "longitude": 6.458343500000001, "race": "Tour du pays de Vaud #6 - St  Prex", "date": {"mer. 14.09.2011": {"year": 2011, "day": 14, "month": 9, "categories": {"D-Sen3": {"distance": 9, "rank": 33, "pace": 357000000000, "time": 3076.5}}, "weekday": "wednesday", "livingplace": "Epalinges"}}, "location": "St-Prex"}, "Tour du pays de Vaud #1 - Mezi\u00e8res": {"latitude": 46.7784736, "longitude": 6.641183, "race": "Tour du pays de Vaud #1 - Mezi\u00e8res", "date": {"mer. 10.08.2011": {"year": 2011, "day": 10, "month": 8, "categories": {"D-Sen3": {"distance": 9, "rank": 25, "pace": 368000000000, "time": 3131.8}}, "weekday": "wednesday", "livingplace": "Epalinges"}}, "location": "Yverdon-les-Bains"}, "Tour du pays de Vaud #5 - Penthaz": {"latitude": 46.5993131, "longitude": 6.539251200000001, "race": "Tour du pays de Vaud #5 - Penthaz", "date": {"mer. 07.09.2011": {"year": 2011, "day": 7, "month": 9, "categories": {"D-Sen3": {"distance": 8, "rank": 22, "pace": 402000000000, "time": 3357.8}}, "weekday": "wednesday", "livingplace": "Epalinges"}}, "location": "Penthaz"}, "Tour du pays de Vaud #1 - Penthaz": {"latitude": 46.5993131, "longitude": 6.539251200000001, "race": "Tour du pays de Vaud #1 - Penthaz", "date": {"mer. 08.08.2012": {"year": 2012, "day": 8, "month": 8, "categories": {"D-Sen3": {"distance": 9, "rank": 27, "pace": 372000000000, "time": 3174.2}}, "weekday": "wednesday", "livingplace": "Epalinges"}}, "location": "Penthaz"}, "Tour du Pays de Vaud #4 - La Sarraz": {"latitude": 46.7088129, "longitude": 6.5707689, "race": "Tour du Pays de Vaud #4 - La Sarraz", "date": {"mer. 29.08.2012": {"year": 2012, "day": 29, "month": 8, "categories": {"D-Sen3": {"distance": 9, "rank": 34, "pace": 355000000000, "time": 3023.3}}, "weekday": "wednesday", "livingplace": "Epalinges"}}, "location": "Chavornay"}}, "birth": 1956}