{"name": "Schmid Olivier", "sex": "M", "races": {"Lenzburger Lauf": {"latitude": 47.3904443, "longitude": 8.172154500000001, "race": "Lenzburger Lauf", "date": {"sam. 30.05.2015": {"year": 2015, "day": 30, "month": 5, "categories": {"Jog-M": {"distance": 5, "rank": 15, "pace": 267000000000, "time": 1418.0}}, "weekday": "saturday", "livingplace": "Oberbipp"}}, "location": "Lenzburg"}, "Thuner Stadtlauf, Thun": {"latitude": 46.7579868, "longitude": 7.6279881, "race": "Thuner Stadtlauf, Thun", "date": {"sam. 15.08.2015": {"year": 2015, "day": 15, "month": 8, "categories": {"10-M30": {"distance": 10, "rank": 31, "pace": 253000000000, "time": 2534.9}}, "weekday": "saturday", "livingplace": "Oberbipp"}}, "location": "Thun"}, "SwissCityMarathon - Lucerne, Luzern": {"latitude": 47.05016819999999, "longitude": 8.3093072, "race": "SwissCityMarathon - Lucerne, Luzern", "date": {"dim. 25.10.2015": {"year": 2015, "day": 25, "month": 10, "categories": {"H-M30": {"distance": 21, "rank": 92, "pace": 261000000000, "time": 5509.1}}, "weekday": "sunday", "livingplace": "Oberbipp"}}, "location": "Luzern"}, "ASICS Bremgarter Reusslauf": {"latitude": 47.34917739999999, "longitude": 8.3397905, "race": "ASICS Bremgarter Reusslauf", "date": {"sam. 28.02.2015": {"year": 2015, "day": 28, "month": 2, "categories": {"6-KM": {"distance": 7, "rank": 37, "pace": 256000000000, "time": 1693.6}}, "weekday": "saturday", "livingplace": "Oberbipp"}}, "location": "Bremgarten AG"}, "Birslauf Basel": {"latitude": 47.5595986, "longitude": 7.5885761, "race": "Birslauf Basel", "date": {"sam. 28.03.2015": {"year": 2015, "day": 28, "month": 3, "categories": {"M\u00e4nner": {"distance": 10, "rank": 134, "pace": 264000000000, "time": 2641.4}}, "weekday": "saturday", "livingplace": "Oberbipp"}}, "location": "Basel"}, "Langenthaler Stadtlauf": {"latitude": 47.2120786, "longitude": 7.790562299999999, "race": "Langenthaler Stadtlauf", "date": {"sam. 22.11.2014": {"year": 2014, "day": 22, "month": 11, "categories": {"JogM": {"distance": 5, "rank": 40, "pace": 247000000000, "time": 1235.4}}, "weekday": "saturday", "livingplace": "Oberbipp"}}, "location": "Langenthal"}, "Hallwilerseelauf, Beinwil am See": {"latitude": NaN, "longitude": NaN, "race": "Hallwilerseelauf, Beinwil am See", "date": {"sam. 10.10.2015": {"year": 2015, "day": 10, "month": 10, "categories": {"7-KM": {"distance": 7, "rank": 15, "pace": 253000000000, "time": 1747.1}}, "weekday": "saturday", "livingplace": "Oberbipp"}}, "location": "Beinwil am See"}, "Ch\u00e4sitzerlouf, Kehrsatz": {"latitude": NaN, "longitude": NaN, "race": "Ch\u00e4sitzerlouf, Kehrsatz", "date": {"sam. 25.04.2015": {"year": 2015, "day": 25, "month": 4, "categories": {"12-M30": {"distance": 12, "rank": 52, "pace": 263000000000, "time": 3165.8}}, "weekday": "saturday", "livingplace": "Oberbipp"}}, "location": "Kehrsatz"}, "Gurtenclassic, Wabern": {"latitude": 46.92901639999999, "longitude": 7.448973199999999, "race": "Gurtenclassic, Wabern", "date": {"dim. 02.11.2014": {"year": 2014, "day": 2, "month": 11, "categories": {"KM20": {"distance": 8, "rank": 15, "pace": 299000000000, "time": 2516.3}}, "weekday": "sunday", "livingplace": "Oberbipp"}}, "location": "Wabern"}, "Burgdorfer Stadtlauf, Burgdorf": {"latitude": 45.277123, "longitude": -115.9129022, "race": "Burgdorfer Stadtlauf, Burgdorf", "date": {"sam. 12.09.2015": {"year": 2015, "day": 12, "month": 9, "categories": {"5-M30": {"distance": 5, "rank": 3, "pace": 263000000000, "time": 1317.6}}, "weekday": "saturday", "livingplace": "Oberbipp"}, "sam. 13.09.2014": {"year": 2014, "day": 13, "month": 9, "categories": {"5-M30": {"distance": 5, "rank": 10, "pace": 279000000000, "time": 1396.9}}, "weekday": "saturday", "livingplace": "Oberbipp"}}, "location": "Burgdorf"}}, "birth": 1982}