{"name": "Schneider Mauro", "sex": "M", "races": {"Course de l'Escalade, Gen\u00e8ve": {"latitude": 46.2043907, "longitude": 6.1431577, "race": "Course de l'Escalade, Gen\u00e8ve", "date": {"sam. 07.12.2002": {"year": 2002, "day": 7, "month": 12, "categories": {"Hommes4": {"distance": 7, "rank": 24, "pace": 232000000000, "time": 1688.2}}, "weekday": "saturday", "livingplace": "Spiez"}}, "location": "Gen\u00e8ve"}, "Thuner Stadtlauf, Thun": {"latitude": 46.7579868, "longitude": 7.6279881, "race": "Thuner Stadtlauf, Thun", "date": {"dim. 01.09.2002": {"year": 2002, "day": 1, "month": 9, "categories": {"M50": {"distance": 10, "rank": 2, "pace": 218000000000, "time": 2187.4}}, "weekday": "sunday", "livingplace": "Spiez"}, "dim. 26.08.2001": {"year": 2001, "day": 26, "month": 8, "categories": {"M40": {"distance": 10, "rank": 5, "pace": 223000000000, "time": 2230.4}}, "weekday": "sunday", "livingplace": "Spiez"}}, "location": "Thun"}, "Gurtenclassic, Wabern": {"latitude": 46.92901639999999, "longitude": 7.448973199999999, "race": "Gurtenclassic, Wabern", "date": {"dim. 03.11.2002": {"year": 2002, "day": 3, "month": 11, "categories": {"BM45": {"distance": 10, "rank": 12, "pace": 222000000000, "time": 2223.8}}, "weekday": "sunday", "livingplace": "Spiez"}}, "location": "Wabern"}, "Kerzerslauf": {"latitude": 46.97488999999999, "longitude": 7.1954365, "race": "Kerzerslauf", "date": {"sam. 20.03.2010": {"year": 2010, "day": 20, "month": 3, "categories": {"15-M55": {"distance": 15, "rank": 48, "pace": 274000000000, "time": 4123.0}}, "weekday": "saturday", "livingplace": "Spiez"}}, "location": "Kerzers"}, "Int Greifenseelauf, Uster": {"latitude": 47.3482747, "longitude": 8.717873899999999, "race": "Int Greifenseelauf, Uster", "date": {"sam. 19.09.2009": {"year": 2009, "day": 19, "month": 9, "categories": {"H-M55": {"distance": 21, "rank": 30, "pace": 279000000000, "time": 5899.2}}, "weekday": "saturday", "livingplace": "Spiez"}}, "location": "Uster"}}, "birth": 1952}