{"name": "Schneeberger Dominique", "sex": "M", "races": {"10km, Payerne": {"latitude": 46.8220266, "longitude": 6.9405663, "race": "10km, Payerne", "date": {"sam. 10.03.2012": {"year": 2012, "day": 10, "month": 3, "categories": {"M50": {"distance": 10, "rank": 6, "pace": 226000000000, "time": 2262.0}}, "weekday": "saturday", "livingplace": "Fribourg"}}, "location": "Payerne"}, "Morat-Fribourg": {"latitude": 46.92922110000001, "longitude": 7.120184, "race": "Morat-Fribourg", "date": {"sam. 03.10.2009": {"year": 2009, "day": 3, "month": 10, "categories": {"C-M45": {"distance": 17, "rank": 207, "pace": 288000000000, "time": 4960.8}}, "weekday": "saturday", "livingplace": "Ecoteaux"}, "sam. 01.10.2011": {"year": 2011, "day": 1, "month": 10, "categories": {"17-M50": {"distance": 17, "rank": 8, "pace": 241000000000, "time": 4144.9}}, "weekday": "saturday", "livingplace": "Ecoteaux"}, "dim. 07.10.2001": {"year": 2001, "day": 7, "month": 10, "categories": {"M40": {"distance": 17, "rank": 220, "pace": 275000000000, "time": 4725.8}}, "weekday": "sunday", "livingplace": "Ecoteaux"}, "sam. 02.10.2010": {"year": 2010, "day": 2, "month": 10, "categories": {"17-M50": {"distance": 17, "rank": 28, "pace": 261000000000, "time": 4494.4}}, "weekday": "saturday", "livingplace": "Ecoteaux"}}, "location": "Murten"}, "Corrida Bulloise, Bulle": {"latitude": 46.6154512, "longitude": 7.057726799999999, "race": "Corrida Bulloise, Bulle", "date": {"sam. 19.11.2011": {"year": 2011, "day": 19, "month": 11, "categories": {"M50": {"distance": 8, "rank": 9, "pace": 234000000000, "time": 1913.0}}, "weekday": "saturday", "livingplace": "Fribourg"}, "sam. 17.11.2007": {"year": 2007, "day": 17, "month": 11, "categories": {"M40": {"distance": 8, "rank": 86, "pace": 259000000000, "time": 2077.0}}, "weekday": "saturday", "livingplace": "Ecoteaux"}}, "location": "Bulle"}, "Lausanne Marathon": {"latitude": 46.5196535, "longitude": 6.6322734, "race": "Lausanne Marathon", "date": {"dim. 31.10.2010": {"year": 2010, "day": 31, "month": 10, "categories": {"21-H4": {"distance": 21, "rank": 17, "pace": 253000000000, "time": 5341.8}}, "weekday": "sunday", "livingplace": "Ecoteaux"}}, "location": "Lausanne"}, "Kerzerslauf": {"latitude": 46.97488999999999, "longitude": 7.1954365, "race": "Kerzerslauf", "date": {"sam. 19.03.2011": {"year": 2011, "day": 19, "month": 3, "categories": {"15-M50": {"distance": 15, "rank": 34, "pace": 247000000000, "time": 3713.3}}, "weekday": "saturday", "livingplace": "Ecoteaux"}}, "location": "Kerzers"}, "Z\u00fcrich Marathon, Teamrun und Cityrun": {"latitude": 47.3768866, "longitude": 8.541694, "race": "Z\u00fcrich Marathon, Teamrun und Cityrun", "date": {"dim. 22.04.2012": {"year": 2012, "day": 22, "month": 4, "categories": {"42-M50": {"distance": 42, "rank": 6, "pace": 244000000000, "time": 10310.6}}, "weekday": "sunday", "livingplace": "Ecoteaux"}}, "location": "Z\u00fcrich"}}, "birth": 1960}