{"name": "Schnepp Roland", "sex": "M", "races": {"Tour du Pays de Vaud #2 - Genolier": {"latitude": 46.5955273, "longitude": 6.7702883, "race": "Tour du Pays de Vaud #2 - Genolier", "date": {"mer. 15.08.2012": {"year": 2012, "day": 15, "month": 8, "categories": {"H-Sen3": {"distance": 9, "rank": 74, "pace": 323000000000, "time": 2749.3}}, "weekday": "wednesday", "livingplace": "Lausanne"}}, "location": "M\u00e9zi\u00e8res VD"}, "Tour du Pays de Vaud #3 - Mezi\u00e8res": {"latitude": 46.7784736, "longitude": 6.641183, "race": "Tour du Pays de Vaud #3 - Mezi\u00e8res", "date": {"mer. 22.08.2012": {"year": 2012, "day": 22, "month": 8, "categories": {"H-Sen3": {"distance": 8, "rank": 61, "pace": 340000000000, "time": 2856.6}}, "weekday": "wednesday", "livingplace": "Lausanne"}}, "location": "Yverdon-les-Bains"}, "Morat-Fribourg": {"latitude": 46.92922110000001, "longitude": 7.120184, "race": "Morat-Fribourg", "date": {"sam. 02.10.2010": {"year": 2010, "day": 2, "month": 10, "categories": {"17-M50": {"distance": 17, "rank": 272, "pace": 326000000000, "time": 5603.5}}, "weekday": "saturday", "livingplace": "Lausanne"}, "sam. 06.10.2012": {"year": 2012, "day": 6, "month": 10, "categories": {"17-M55": {"distance": 17, "rank": 139, "pace": 323000000000, "time": 5637.0}}, "weekday": "saturday", "livingplace": "Lausanne"}}, "location": "Murten"}, "Tour du Pays de Vaud etape 2 - Genolier": {"latitude": 46.5955273, "longitude": 6.7702883, "race": "Tour du Pays de Vaud etape 2 - Genolier", "date": {"mer. 20.08.2008": {"year": 2008, "day": 20, "month": 8, "categories": {"HomSen3": {"distance": 8, "rank": 59, "pace": 313000000000, "time": 2604.3}}, "weekday": "wednesday", "livingplace": "Lausanne"}}, "location": "M\u00e9zi\u00e8res VD"}, "Tour du Pays de Vaud etape 3 - Aubonne": {"latitude": 46.7829756, "longitude": 6.5728678, "race": "Tour du Pays de Vaud etape 3 - Aubonne", "date": {"mer. 27.08.2008": {"year": 2008, "day": 27, "month": 8, "categories": {"HomSen3": {"distance": 8, "rank": 60, "pace": 335000000000, "time": 2620.2}}, "weekday": "wednesday", "livingplace": "Lausanne"}}, "location": "Champvent"}, "Lausanne Marathon": {"latitude": 46.5196535, "longitude": 6.6322734, "race": "Lausanne Marathon", "date": {"dim. 30.10.2011": {"year": 2011, "day": 30, "month": 10, "categories": {"21-H4": {"distance": 1, "rank": 369, "pace": 380000000000, "time": 300.0}}, "weekday": "sunday", "livingplace": "Lausanne"}, "dim. 28.10.2012": {"year": 2012, "day": 28, "month": 10, "categories": {"21-H4": {"distance": 21, "rank": 165, "pace": 313000000000, "time": 6621.0}}, "weekday": "sunday", "livingplace": "Lausanne"}}, "location": "Lausanne"}, "20km de Lausanne": {"latitude": 46.5196535, "longitude": 6.6322734, "race": "20km de Lausanne", "date": {"sam. 30.04.2011": {"year": 2011, "day": 30, "month": 4, "categories": {"10-H50": {"distance": 10, "rank": 122, "pace": 315000000000, "time": 3151.4}}, "weekday": "saturday", "livingplace": "Lausanne"}, "sam. 25.04.2009": {"year": 2009, "day": 25, "month": 4, "categories": {"20-H50": {"distance": 20, "rank": 156, "pace": 334000000000, "time": 6684.7}}, "weekday": "saturday", "livingplace": "Lausanne"}, "sam. 22.04.2006": {"year": 2006, "day": 22, "month": 4, "categories": {"20/H45": {"distance": 20, "rank": 181, "pace": 333000000000, "time": 6679.3}}, "weekday": "saturday", "livingplace": "Lausanne"}}, "location": "Lausanne"}, "Tour du Pays de Vaud #4 - La Sarraz": {"latitude": 46.7088129, "longitude": 6.5707689, "race": "Tour du Pays de Vaud #4 - La Sarraz", "date": {"mer. 29.08.2012": {"year": 2012, "day": 29, "month": 8, "categories": {"H-Sen3": {"distance": 9, "rank": 77, "pace": 314000000000, "time": 2677.1}}, "weekday": "wednesday", "livingplace": "Lausanne"}}, "location": "Chavornay"}}, "birth": 1957}