{"name": "Schornoz B\u00e9at", "sex": "M", "races": {"Lucerne Marathon, Luzern": {"latitude": 47.05016819999999, "longitude": 8.3093072, "race": "Lucerne Marathon, Luzern", "date": {"dim. 28.10.2012": {"year": 2012, "day": 28, "month": 10, "categories": {"M-M30": {"distance": 42, "rank": 171, "pace": 318000000000, "time": 13426.0}}, "weekday": "sunday", "livingplace": "Avenches"}}, "location": "Luzern"}, "Morat-Fribourg": {"latitude": 46.92922110000001, "longitude": 7.120184, "race": "Morat-Fribourg", "date": {"sam. 05.10.2013": {"year": 2013, "day": 5, "month": 10, "categories": {"17-M40": {"distance": 17, "rank": 155, "pace": 272000000000, "time": 4751.8}}, "weekday": "saturday", "livingplace": "Avenches"}, "sam. 06.10.2007": {"year": 2007, "day": 6, "month": 10, "categories": {"C/M20": {"distance": 17, "rank": 509, "pace": 277000000000, "time": 4762.3}}, "weekday": "saturday", "livingplace": "Cousset"}}, "location": "Murten"}, "Corrida Bulloise, Bulle": {"latitude": 46.6154512, "longitude": 7.057726799999999, "race": "Corrida Bulloise, Bulle", "date": {"sam. 17.11.2007": {"year": 2007, "day": 17, "month": 11, "categories": {"M20": {"distance": 8, "rank": 110, "pace": 258000000000, "time": 2066.6}}, "weekday": "saturday", "livingplace": "Cousset"}, "sam. 15.11.2008": {"year": 2008, "day": 15, "month": 11, "categories": {"PH": {"distance": 6, "rank": 75, "pace": 246000000000, "time": 1481.7}}, "weekday": "saturday", "livingplace": "Avenches"}}, "location": "Bulle"}, "SwissCityMarathon - Lucerne, Luzern": {"latitude": 47.05016819999999, "longitude": 8.3093072, "race": "SwissCityMarathon - Lucerne, Luzern", "date": {"dim. 27.10.2013": {"year": 2013, "day": 27, "month": 10, "categories": {"M-M40": {"distance": 42, "rank": 215, "pace": 321000000000, "time": 13572.8}}, "weekday": "sunday", "livingplace": "Avenches"}}, "location": "Luzern"}, "20km de Lausanne": {"latitude": 46.5196535, "longitude": 6.6322734, "race": "20km de Lausanne", "date": {"sam. 27.04.2013": {"year": 2013, "day": 27, "month": 4, "categories": {"20-H40": {"distance": 20, "rank": 100, "pace": 270000000000, "time": 5409.9}}, "weekday": "saturday", "livingplace": "Avenches"}}, "location": "Lausanne"}, "Kerzerslauf": {"latitude": 46.97488999999999, "longitude": 7.1954365, "race": "Kerzerslauf", "date": {"sam. 18.03.2006": {"year": 2006, "day": 18, "month": 3, "categories": {"M20": {"distance": 15, "rank": 203, "pace": 262000000000, "time": 3938.9}}, "weekday": "saturday", "livingplace": "Cousset"}, "sam. 20.03.2004": {"year": 2004, "day": 20, "month": 3, "categories": {"M-KU": {"distance": 5, "rank": 35, "pace": 245000000000, "time": 1226.8}}, "weekday": "saturday", "livingplace": "Cousset"}}, "location": "Kerzers"}}, "birth": 1973}