{"name": "Schoepfer Markus", "sex": "M", "races": {"crossrun, Therwil": {"latitude": 47.4990611, "longitude": 7.5532808, "race": "crossrun, Therwil", "date": {"dim. 10.05.2009": {"year": 2009, "day": 10, "month": 5, "categories": {"M40": {"distance": 10, "rank": 28, "pace": 324000000000, "time": 3246.0}}, "weekday": "sunday", "livingplace": "Allschwil"}}, "location": "Therwil"}, "Muttenzer Herbstlauf": {"latitude": 47.5279292, "longitude": 7.6476369, "race": "Muttenzer Herbstlauf", "date": {"dim. 28.10.2012": {"year": 2012, "day": 28, "month": 10, "categories": {"10-M50": {"distance": 10, "rank": 29, "pace": 312000000000, "time": 3127.7}}, "weekday": "sunday", "livingplace": "Allschwil"}}, "location": "Muttenz"}, "IWB Basel Marathon": {"latitude": 47.5595986, "longitude": 7.5885761, "race": "IWB Basel Marathon", "date": {"dim. 28.09.2014": {"year": 2014, "day": 28, "month": 9, "categories": {"21-M50": {"distance": 21, "rank": 32, "pace": 298000000000, "time": 6306.2}}, "weekday": "sunday", "livingplace": "Allschwil"}, "dim. 22.09.2013": {"year": 2013, "day": 22, "month": 9, "categories": {"H-21-M50": {"distance": 21, "rank": 25, "pace": 298000000000, "time": 6306.5}}, "weekday": "sunday", "livingplace": "Allschwil"}}, "location": "Basel"}, "Birslauf Basel": {"latitude": 47.5595986, "longitude": 7.5885761, "race": "Birslauf Basel", "date": {"sam. 28.03.2015": {"year": 2015, "day": 28, "month": 3, "categories": {"M\u00e4nner": {"distance": 10, "rank": 223, "pace": 287000000000, "time": 2879.4}}, "weekday": "saturday", "livingplace": "Allschwil"}, "sam. 06.04.2013": {"year": 2013, "day": 6, "month": 4, "categories": {"M\u00e4nner": {"distance": 10, "rank": 303, "pace": 283000000000, "time": 2835.5}}, "weekday": "saturday", "livingplace": "Allschwil"}}, "location": "Basel"}, "Montreux - Les Rochers de Naye": {"latitude": 46.4312213, "longitude": 6.9106799, "race": "Montreux - Les Rochers de Naye", "date": {"dim. 08.07.2012": {"year": 2012, "day": 8, "month": 7, "categories": {"M-HV\u00e9t2": {"distance": 19, "rank": 58, "pace": 558000000000, "time": 10506.8}}, "weekday": "sunday", "livingplace": "Allschwil"}, "dim. 11.07.2010": {"year": 2010, "day": 11, "month": 7, "categories": {"M-V\u00e9t2": {"distance": 19, "rank": 74, "pace": 604000000000, "time": 11360.2}}, "weekday": "sunday", "livingplace": "Allschwil"}}, "location": "Montreux"}, "SM CS 10km Strasse route + Volkslauf 10km, Uster": {"latitude": 47.3482747, "longitude": 8.717873899999999, "race": "SM CS 10km Strasse route + Volkslauf 10km, Uster", "date": {"sam. 23.03.2013": {"year": 2013, "day": 23, "month": 3, "categories": {"10-M50": {"distance": 10, "rank": 29, "pace": 288000000000, "time": 2889.1}}, "weekday": "saturday", "livingplace": "Allschwil"}}, "location": "Uster"}, "Gempenlauf, Dornach": {"latitude": 47.4790491, "longitude": 7.6170412, "race": "Gempenlauf, Dornach", "date": {"mer. 29.05.2013": {"year": 2013, "day": 29, "month": 5, "categories": {"M50": {"distance": 8, "rank": 62, "pace": 401000000000, "time": 3131.3}}, "weekday": "wednesday", "livingplace": "Allschwil"}}, "location": "Dornach"}, "Augusta Raurica Lauf, Augst BL": {"latitude": NaN, "longitude": NaN, "race": "Augusta Raurica Lauf, Augst BL", "date": {"dim. 13.11.2011": {"year": 2011, "day": 13, "month": 11, "categories": {"12-M50": {"distance": 12, "rank": 70, "pace": 322000000000, "time": 3867.3}}, "weekday": "sunday", "livingplace": "Allschwil"}}, "location": "Augst BL"}}, "birth": 1960}