{"name": "Schoen Isabelle", "sex": "F", "races": {"Tour du Pays de Vaud #3 - Mezi\u00e8res": {"latitude": 46.7784736, "longitude": 6.641183, "race": "Tour du Pays de Vaud #3 - Mezi\u00e8res", "date": {"mer. 22.08.2012": {"year": 2012, "day": 22, "month": 8, "categories": {"D-Sen2": {"distance": 8, "rank": 63, "pace": 427000000000, "time": 3589.4}}, "weekday": "wednesday", "livingplace": "Echallens"}}, "location": "Yverdon-les-Bains"}, "Semi-Marathon de la C\u00f4te, Allaman-Nyon": {"latitude": 46.3832683, "longitude": 6.2347852, "race": "Semi-Marathon de la C\u00f4te, Allaman-Nyon", "date": {"dim. 14.09.2014": {"year": 2014, "day": 14, "month": 9, "categories": {"21-F40": {"distance": 21, "rank": 75, "pace": 379000000000, "time": 8012.7}}, "weekday": "sunday", "livingplace": "Echallens"}}, "location": "Nyon"}, "Tour du pays de Vaud #6 - St  Prex": {"latitude": 46.4829113, "longitude": 6.458343500000001, "race": "Tour du pays de Vaud #6 - St  Prex", "date": {"mer. 14.09.2011": {"year": 2011, "day": 14, "month": 9, "categories": {"D-Sen1": {"distance": 9, "rank": 71, "pace": 358000000000, "time": 3086.8}}, "weekday": "wednesday", "livingplace": "Echallens"}}, "location": "St-Prex"}, "Tour du Pays de Vaud #2, Mezi\u00e8res": {"latitude": 46.5955273, "longitude": 6.7702883, "race": "Tour du Pays de Vaud #2, Mezi\u00e8res", "date": {"mer. 20.08.2014": {"year": 2014, "day": 20, "month": 8, "categories": {"D-Sen2": {"distance": 8, "rank": 55, "pace": 436000000000, "time": 3534.2}}, "weekday": "wednesday", "livingplace": "Echallens"}}, "location": "M\u00e9zi\u00e8res VD"}, "Tour du Pays de Vaud printanier #1 Chavornay": {"latitude": 46.3832683, "longitude": 6.2347852, "race": "Tour du Pays de Vaud printanier #1 Chavornay", "date": {"mer. 30.05.2012": {"year": 2012, "day": 30, "month": 5, "categories": {"D-Sen2": {"distance": 9, "rank": 32, "pace": 366000000000, "time": 3277.4}}, "weekday": "wednesday", "livingplace": "Echallens"}}, "location": "Nyon"}, "Tour du pays de Vaud #1 - Mezi\u00e8res": {"latitude": 46.7784736, "longitude": 6.641183, "race": "Tour du pays de Vaud #1 - Mezi\u00e8res", "date": {"mer. 10.08.2011": {"year": 2011, "day": 10, "month": 8, "categories": {"D-Sen1": {"distance": 9, "rank": 60, "pace": 369000000000, "time": 3140.6}}, "weekday": "wednesday", "livingplace": "Echallens"}}, "location": "Yverdon-les-Bains"}, "Tour du pays de Vaud #5 - Penthaz": {"latitude": 46.5993131, "longitude": 6.539251200000001, "race": "Tour du pays de Vaud #5 - Penthaz", "date": {"mer. 07.09.2011": {"year": 2011, "day": 7, "month": 9, "categories": {"D-Sen1": {"distance": 8, "rank": 50, "pace": 413000000000, "time": 3455.5}}, "weekday": "wednesday", "livingplace": "Echallens"}}, "location": "Penthaz"}, "Morat-Fribourg": {"latitude": 46.92922110000001, "longitude": 7.120184, "race": "Morat-Fribourg", "date": {"sam. 02.10.2010": {"year": 2010, "day": 2, "month": 10, "categories": {"17-W35": {"distance": 17, "rank": 244, "pace": 428000000000, "time": 7350.6}}, "weekday": "saturday", "livingplace": "Echallens"}, "sam. 01.10.2011": {"year": 2011, "day": 1, "month": 10, "categories": {"17-W35": {"distance": 17, "rank": 223, "pace": 390000000000, "time": 6713.4}}, "weekday": "saturday", "livingplace": "Echallens"}, "sam. 04.10.2008": {"year": 2008, "day": 4, "month": 10, "categories": {"C-W35": {"distance": 17, "rank": 266, "pace": 447000000000, "time": 7686.3}}, "weekday": "saturday", "livingplace": "Echallens"}, "sam. 06.10.2007": {"year": 2007, "day": 6, "month": 10, "categories": {"C/W35": {"distance": 17, "rank": 239, "pace": 412000000000, "time": 7084.1}}, "weekday": "saturday", "livingplace": "Echallens"}}, "location": "Murten"}, "20km de Lausanne": {"latitude": 46.5196535, "longitude": 6.6322734, "race": "20km de Lausanne", "date": {"sam. 25.04.2009": {"year": 2009, "day": 25, "month": 4, "categories": {"20-F30": {"distance": 20, "rank": 166, "pace": 399000000000, "time": 7988.7}}, "weekday": "saturday", "livingplace": "Echallens"}}, "location": "Lausanne"}, "Tour du pays de Vaud #1 - Penthaz": {"latitude": 46.5993131, "longitude": 6.539251200000001, "race": "Tour du pays de Vaud #1 - Penthaz", "date": {"mer. 08.08.2012": {"year": 2012, "day": 8, "month": 8, "categories": {"D-Sen2": {"distance": 9, "rank": 64, "pace": 388000000000, "time": 3315.9}}, "weekday": "wednesday", "livingplace": "Echallens"}}, "location": "Penthaz"}, "Kerzerslauf": {"latitude": 46.97488999999999, "longitude": 7.1954365, "race": "Kerzerslauf", "date": {"sam. 15.03.2014": {"year": 2014, "day": 15, "month": 3, "categories": {"15-F40": {"distance": 15, "rank": 294, "pace": 454000000000, "time": 6817.2}}, "weekday": "saturday", "livingplace": "Echallens"}}, "location": "Kerzers"}}, "birth": 1972}