{"name": "Scholz Tino", "sex": "M", "races": {"Lucerne Marathon, Luzern": {"latitude": 47.05016819999999, "longitude": 8.3093072, "race": "Lucerne Marathon, Luzern", "date": {"dim. 30.10.2011": {"year": 2011, "day": 30, "month": 10, "categories": {"H-M40": {"distance": 21, "rank": 384, "pace": 281000000000, "time": 5933.6}}, "weekday": "sunday", "livingplace": "Langendorf"}, "dim. 28.10.2012": {"year": 2012, "day": 28, "month": 10, "categories": {"H-M40": {"distance": 21, "rank": 356, "pace": 284000000000, "time": 6009.2}}, "weekday": "sunday", "livingplace": "Langendorf"}}, "location": "Luzern"}, "Derendinger Abendlauf, Derendingen": {"latitude": 47.1952433, "longitude": 7.585593099999999, "race": "Derendinger Abendlauf, Derendingen", "date": {"ven. 26.06.2009": {"year": 2009, "day": 26, "month": 6, "categories": {"M40": {"distance": 11, "rank": 33, "pace": 261000000000, "time": 2801.2}}, "weekday": "friday", "livingplace": "Langendorf"}}, "location": "Derendingen"}, "SwissCityMarathon - Lucerne, Luzern": {"latitude": 47.05016819999999, "longitude": 8.3093072, "race": "SwissCityMarathon - Lucerne, Luzern", "date": {"dim. 25.10.2015": {"year": 2015, "day": 25, "month": 10, "categories": {"H-M45": {"distance": 21, "rank": 175, "pace": 285000000000, "time": 6031.8}}, "weekday": "sunday", "livingplace": "Langendorf"}, "dim. 27.10.2013": {"year": 2013, "day": 27, "month": 10, "categories": {"H-M40": {"distance": 21, "rank": 278, "pace": 277000000000, "time": 5855.6}}, "weekday": "sunday", "livingplace": "Langendorf"}}, "location": "Luzern"}, "Emmenlauf Utzenstorf": {"latitude": 47.12816670000001, "longitude": 7.5588034, "race": "Emmenlauf Utzenstorf", "date": {"mer. 21.08.2013": {"year": 2013, "day": 21, "month": 8, "categories": {"Herren3": {"distance": 11, "rank": 42, "pace": 266000000000, "time": 2795.2}}, "weekday": "wednesday", "livingplace": "Langendorf"}}, "location": "Utzenstorf"}, "Kerzerslauf": {"latitude": 46.97488999999999, "longitude": 7.1954365, "race": "Kerzerslauf", "date": {"sam. 15.03.2003": {"year": 2003, "day": 15, "month": 3, "categories": {"M20": {"distance": 15, "rank": 443, "pace": 306000000000, "time": 4594.3}}, "weekday": "saturday", "livingplace": "Langendorf"}}, "location": "Kerzers"}, "Bieler Lauftage, Biel Bienne": {"latitude": 47.1367785, "longitude": 7.2467909, "race": "Bieler Lauftage, Biel Bienne", "date": {"ven. 15.06.2007": {"year": 2007, "day": 15, "month": 6, "categories": {"H/M35": {"distance": 21, "rank": 17, "pace": 301000000000, "time": 6354.8}}, "weekday": "friday", "livingplace": "Langendorf"}}, "location": "Biel/Bienne"}, "Int Greifenseelauf, Uster": {"latitude": 47.3482747, "longitude": 8.717873899999999, "race": "Int Greifenseelauf, Uster", "date": {"sam. 19.09.2009": {"year": 2009, "day": 19, "month": 9, "categories": {"H-M40": {"distance": 21, "rank": 300, "pace": 284000000000, "time": 6011.6}}, "weekday": "saturday", "livingplace": "Langendorf"}}, "location": "Uster"}}, "birth": 1969}