{"name": "Schr\u00f6der Siegfried", "sex": "M", "races": {"Neujahrsmarathon Z\u00fcrich, Schlieren": {"latitude": 47.3982611, "longitude": 8.448795, "race": "Neujahrsmarathon Z\u00fcrich, Schlieren", "date": {"mar. 01.01.2008": {"year": 2008, "day": 1, "month": 1, "categories": {"1/2MaraM": {"distance": 21, "rank": 69, "pace": 365000000000, "time": 7716.8}}, "weekday": "tuesday", "livingplace": "Weiler im Allgau"}}, "location": "Schlieren"}, "Frauenfelder": {"latitude": NaN, "longitude": NaN, "race": "Frauenfelder", "date": {"dim. 18.11.2007": {"year": 2007, "day": 18, "month": 11, "categories": {"HMM60": {"distance": 21, "rank": 14, "pace": 332000000000, "time": 7024.0}}, "weekday": "sunday", "livingplace": "Weiler im Allgau"}, "dim. 15.11.2015": {"year": 2015, "day": 15, "month": 11, "categories": {"HM-M60": {"distance": 21, "rank": 59, "pace": 401000000000, "time": 8462.5}}, "weekday": "sunday", "livingplace": "Weiler Simmerberg"}, "dim. 16.11.2014": {"year": 2014, "day": 16, "month": 11, "categories": {"HM-M60": {"distance": 21, "rank": 77, "pace": 390000000000, "time": 8232.3}}, "weekday": "sunday", "livingplace": "Weiler Simmerberg"}}, "location": "Frauenfeld"}, "Basler Stadtlauf": {"latitude": 47.5595986, "longitude": 7.5885761, "race": "Basler Stadtlauf", "date": {"sam. 25.11.2006": {"year": 2006, "day": 25, "month": 11, "categories": {"X": {"distance": 6, "rank": 82, "pace": 318000000000, "time": 1753.0}}, "weekday": "saturday", "livingplace": "Weiler Simmerberg"}}, "location": "Basel"}, "Dietiker Neujahrslauf, Dietikon": {"latitude": 47.4053885, "longitude": 8.39977, "race": "Dietiker Neujahrslauf, Dietikon", "date": {"sam. 12.01.2008": {"year": 2008, "day": 12, "month": 1, "categories": {"Y": {"distance": 12, "rank": 13, "pace": 325000000000, "time": 3937.1}}, "weekday": "saturday", "livingplace": "LG Westallgau"}}, "location": "Dietikon"}, "Gurtenclassic, Wabern": {"latitude": 46.92901639999999, "longitude": 7.448973199999999, "race": "Gurtenclassic, Wabern", "date": {"dim. 01.11.2009": {"year": 2009, "day": 1, "month": 11, "categories": {"KM52": {"distance": 8, "rank": 35, "pace": 384000000000, "time": 3225.9}}, "weekday": "sunday", "livingplace": "Weiler im Allgau"}}, "location": "Wabern"}, "Basler Marathon-Tage": {"latitude": 47.5595986, "longitude": 7.5885761, "race": "Basler Marathon-Tage", "date": {"sam. 27.10.2007": {"year": 2007, "day": 27, "month": 10, "categories": {"HM/M60": {"distance": 21, "rank": 15, "pace": 334000000000, "time": 7054.2}}, "weekday": "saturday", "livingplace": "Weiler im Allgau"}}, "location": "Basel"}, "Int Greifenseelauf, Uster": {"latitude": 47.3482747, "longitude": 8.717873899999999, "race": "Int Greifenseelauf, Uster", "date": {"sam. 20.09.2008": {"year": 2008, "day": 20, "month": 9, "categories": {"H-M70": {"distance": 21, "rank": 12, "pace": 366000000000, "time": 7731.7}}, "weekday": "saturday", "livingplace": "Weiler im Allgau"}}, "location": "Uster"}}, "birth": 1938}