{"name": "Schroeter Sandra", "sex": "F", "races": {"Tour du Pays de Vaud printanier #2 Yverdon-les-Bains": {"latitude": 46.6698891, "longitude": 6.7975224, "race": "Tour du Pays de Vaud printanier #2 Yverdon-les-Bains", "date": {"mer. 05.06.2013": {"year": 2013, "day": 5, "month": 6, "categories": {"D-Sen1": {"distance": 9, "rank": 38, "pace": 375000000000, "time": 3412.8}}, "weekday": "wednesday", "livingplace": "Lonay"}}, "location": "Moudon"}, "Tour du Pays de Vaud #4 - La Sarraz": {"latitude": 46.7088129, "longitude": 6.5707689, "race": "Tour du Pays de Vaud #4 - La Sarraz", "date": {"mer. 04.09.2013": {"year": 2013, "day": 4, "month": 9, "categories": {"D-Sen1": {"distance": 9, "rank": 50, "pace": 360000000000, "time": 3068.0}}, "weekday": "wednesday", "livingplace": "Lonay"}}, "location": "Chavornay"}, "Tour du Pays de Vaud printanier #3 - Yens": {"latitude": 46.7829756, "longitude": 6.5728678, "race": "Tour du Pays de Vaud printanier #3 - Yens", "date": {"mer. 12.06.2013": {"year": 2013, "day": 12, "month": 6, "categories": {"D-Sen1": {"distance": 9, "rank": 40, "pace": 375000000000, "time": 3418.2}}, "weekday": "wednesday", "livingplace": "Lonay"}}, "location": "Champvent"}, "Tour du Pays de Vaud #3 - Chavornay": {"latitude": 46.7784736, "longitude": 6.641183, "race": "Tour du Pays de Vaud #3 - Chavornay", "date": {"mer. 28.08.2013": {"year": 2013, "day": 28, "month": 8, "categories": {"D-Sen1": {"distance": 9, "rank": 79, "pace": 376000000000, "time": 3354.7}}, "weekday": "wednesday", "livingplace": "Lonay"}}, "location": "Yverdon-les-Bains"}, "Tour du pays de Vaud #1 - Penthaz": {"latitude": 46.5993131, "longitude": 6.539251200000001, "race": "Tour du pays de Vaud #1 - Penthaz", "date": {"mer. 14.08.2013": {"year": 2013, "day": 14, "month": 8, "categories": {"D-Sen1": {"distance": 9, "rank": 69, "pace": 363000000000, "time": 3099.1}}, "weekday": "wednesday", "livingplace": "Lonay"}}, "location": "Penthaz"}, "Tour du Pays de Vaud printanier #1 Moudon": {"latitude": 46.3832683, "longitude": 6.2347852, "race": "Tour du Pays de Vaud printanier #1 Moudon", "date": {"mer. 29.05.2013": {"year": 2013, "day": 29, "month": 5, "categories": {"D-Sen1": {"distance": 8, "rank": 27, "pace": 375000000000, "time": 3208.5}}, "weekday": "wednesday", "livingplace": "Lonay"}}, "location": "Nyon"}}, "birth": 1976}