{"name": "Schroeder Tobias", "sex": "M", "races": {"Langenthaler Stadtlauf": {"latitude": 47.2120786, "longitude": 7.790562299999999, "race": "Langenthaler Stadtlauf", "date": {"sam. 22.11.2008": {"year": 2008, "day": 22, "month": 11, "categories": {"M30": {"distance": 8, "rank": 15, "pace": 245000000000, "time": 1838.6}}, "weekday": "saturday", "livingplace": "Burgdorf"}}, "location": "Langenthal"}, "Basel City Marathon": {"latitude": 47.5595986, "longitude": 7.5885761, "race": "Basel City Marathon", "date": {"dim. 28.08.2005": {"year": 2005, "day": 28, "month": 8, "categories": {"M20": {"distance": 42, "rank": 61, "pace": 328000000000, "time": 13854.2}}, "weekday": "sunday", "livingplace": "Burgdorf"}, "dim. 03.09.2006": {"year": 2006, "day": 3, "month": 9, "categories": {"M-M20": {"distance": 42, "rank": 57, "pace": 371000000000, "time": 15689.0}}, "weekday": "sunday", "livingplace": "Burgdorf"}}, "location": "Basel"}, "Dreil\u00e4nder-Lauf, Basel": {"latitude": 47.5595986, "longitude": 7.5885761, "race": "Dreil\u00e4nder-Lauf, Basel", "date": {"dim. 17.05.2009": {"year": 2009, "day": 17, "month": 5, "categories": {"21M30": {"distance": 21, "rank": 76, "pace": 303000000000, "time": 6408.9}}, "weekday": "sunday", "livingplace": "Burgdorf"}}, "location": "Basel"}, "Kerzerslauf": {"latitude": 46.97488999999999, "longitude": 7.1954365, "race": "Kerzerslauf", "date": {"sam. 21.03.2009": {"year": 2009, "day": 21, "month": 3, "categories": {"15-M20": {"distance": 15, "rank": 353, "pace": 289000000000, "time": 4337.9}}, "weekday": "saturday", "livingplace": "Burgdorf"}, "sam. 15.03.2008": {"year": 2008, "day": 15, "month": 3, "categories": {"15/M20": {"distance": 15, "rank": 405, "pace": 297000000000, "time": 4459.1}}, "weekday": "saturday", "livingplace": "Burgdorf"}}, "location": "Kerzers"}, "Bieler Lauftage, Biel Bienne": {"latitude": 47.1367785, "longitude": 7.2467909, "race": "Bieler Lauftage, Biel Bienne", "date": {"ven. 12.06.2009": {"year": 2009, "day": 12, "month": 6, "categories": {"H/M30": {"distance": 21, "rank": 19, "pace": 305000000000, "time": 6451.2}}, "weekday": "friday", "livingplace": "Burgdorf"}}, "location": "Biel/Bienne"}, "Burgdorfer Stadtlauf, Burgdorf": {"latitude": 45.277123, "longitude": -115.9129022, "race": "Burgdorfer Stadtlauf, Burgdorf", "date": {"sam. 13.09.2008": {"year": 2008, "day": 13, "month": 9, "categories": {"MHE1": {"distance": 8, "rank": 13, "pace": 284000000000, "time": 2275.3}}, "weekday": "saturday", "livingplace": "Burgdorf"}}, "location": "Burgdorf"}}, "birth": 1977}