{"name": "Schuwey No\u00e9", "sex": "M", "races": {"Groupe E Tour Fribourg #4, Siviriez": {"latitude": 46.6585092, "longitude": 6.877722, "race": "Groupe E Tour Fribourg #4, Siviriez", "date": {"mer. 10.09.2014": {"year": 2014, "day": 10, "month": 9, "categories": {"EcolB-M": {"distance": 1, "rank": 7, "pace": 242000000000, "time": 303.7}}, "weekday": "wednesday", "livingplace": "Im Fang"}}, "location": "Siviriez"}, "Corrida Bulloise, Bulle": {"latitude": 46.6154512, "longitude": 7.057726799999999, "race": "Corrida Bulloise, Bulle", "date": {"sam. 19.11.2011": {"year": 2011, "day": 19, "month": 11, "categories": {"GD": {"distance": 1, "rank": 24, "pace": 294000000000, "time": 339.2}}, "weekday": "saturday", "livingplace": "Im Fang"}}, "location": "Bulle"}, "Groupe E Tour Fribourg #2, Charmey": {"latitude": 46.6175845, "longitude": 7.1654493, "race": "Groupe E Tour Fribourg #2, Charmey", "date": {"mer. 27.08.2014": {"year": 2014, "day": 27, "month": 8, "categories": {"EcolB-M": {"distance": 1, "rank": 5, "pace": 258000000000, "time": 346.1}}, "weekday": "wednesday", "livingplace": "Im Fang"}}, "location": "Charmey (Gruy\u00e8re)"}, "Groupe E Tour Fribourg #3, Kerzers": {"latitude": 46.97488999999999, "longitude": 7.1954365, "race": "Groupe E Tour Fribourg #3, Kerzers", "date": {"mer. 03.09.2014": {"year": 2014, "day": 3, "month": 9, "categories": {"EcolB-M": {"distance": 1, "rank": 3, "pace": 247000000000, "time": 297.0}}, "weekday": "wednesday", "livingplace": "Im Fang"}}, "location": "Kerzers"}, "Groupe E Tour Fribourg #3 Charmey": {"latitude": 46.97488999999999, "longitude": 7.1954365, "race": "Groupe E Tour Fribourg #3 Charmey", "date": {"mer. 04.09.2013": {"year": 2013, "day": 4, "month": 9, "categories": {"KG1": {"distance": 1, "rank": 2, "pace": 257000000000, "time": 309.2}}, "weekday": "wednesday", "livingplace": "Im Fang"}}, "location": "Kerzers"}, "Groupe E Tour Fribourg #4 Montagny": {"latitude": 46.6585092, "longitude": 6.877722, "race": "Groupe E Tour Fribourg #4 Montagny", "date": {"mer. 11.09.2013": {"year": 2013, "day": 11, "month": 9, "categories": {"KG1": {"distance": 1, "rank": 4, "pace": 235000000000, "time": 283.0}}, "weekday": "wednesday", "livingplace": "Im Fang"}}, "location": "Siviriez"}, "Groupe E Tour Fribourg #5, Givisiez": {"latitude": 46.8128615, "longitude": 7.131657799999999, "race": "Groupe E Tour Fribourg #5, Givisiez", "date": {"mer. 17.09.2014": {"year": 2014, "day": 17, "month": 9, "categories": {"EcolB-M": {"distance": 2, "rank": 4, "pace": 221000000000, "time": 355.1}}, "weekday": "wednesday", "livingplace": "Im Fang"}}, "location": "Givisiez"}, "Groupe E Tour Fribourg #1, Cousset": {"latitude": 46.81832, "longitude": 6.977279999999999, "race": "Groupe E Tour Fribourg #1, Cousset", "date": {"mer. 20.08.2014": {"year": 2014, "day": 20, "month": 8, "categories": {"EcolB-M": {"distance": 1, "rank": 3, "pace": 222000000000, "time": 267.3}}, "weekday": "wednesday", "livingplace": "Im Fang"}}, "location": "Cousset"}}, "birth": 2004}