{"name": "Schuler Priska", "sex": "F", "races": {"Lucerne Marathon, Luzern": {"latitude": 47.05016819999999, "longitude": 8.3093072, "race": "Lucerne Marathon, Luzern", "date": {"dim. 25.10.2009": {"year": 2009, "day": 25, "month": 10, "categories": {"H-F30": {"distance": 21, "rank": 147, "pace": 316000000000, "time": 6683.5}}, "weekday": "sunday", "livingplace": "Lyss"}}, "location": "Luzern"}, "Thuner Stadtlauf, Thun": {"latitude": 46.7579868, "longitude": 7.6279881, "race": "Thuner Stadtlauf, Thun", "date": {"dim. 24.08.2008": {"year": 2008, "day": 24, "month": 8, "categories": {"10-W30": {"distance": 10, "rank": 18, "pace": 292000000000, "time": 2924.4}}, "weekday": "sunday", "livingplace": "Lyss"}}, "location": "Thun"}, "Ch\u00e4sitzerlouf, Kehrsatz": {"latitude": NaN, "longitude": NaN, "race": "Ch\u00e4sitzerlouf, Kehrsatz", "date": {"sam. 26.04.2008": {"year": 2008, "day": 26, "month": 4, "categories": {"F30": {"distance": 12, "rank": 19, "pace": 298000000000, "time": 3535.8}}, "weekday": "saturday", "livingplace": "Lyss"}}, "location": "Kehrsatz"}, "Gurtenclassic, Wabern": {"latitude": 46.92901639999999, "longitude": 7.448973199999999, "race": "Gurtenclassic, Wabern", "date": {"dim. 04.11.2007": {"year": 2007, "day": 4, "month": 11, "categories": {"W33": {"distance": 15, "rank": 13, "pace": 340000000000, "time": 5105.0}}, "weekday": "sunday", "livingplace": "Lyss"}}, "location": "Wabern"}, "Kerzerslauf": {"latitude": 46.97488999999999, "longitude": 7.1954365, "race": "Kerzerslauf", "date": {"sam. 21.03.2009": {"year": 2009, "day": 21, "month": 3, "categories": {"15-F35": {"distance": 15, "rank": 61, "pace": 299000000000, "time": 4491.8}}, "weekday": "saturday", "livingplace": "Lyss"}, "sam. 15.03.2008": {"year": 2008, "day": 15, "month": 3, "categories": {"15/F35": {"distance": 15, "rank": 55, "pace": 303000000000, "time": 4554.9}}, "weekday": "saturday", "livingplace": "Lyss"}, "sam. 17.03.2007": {"year": 2007, "day": 17, "month": 3, "categories": {"F20": {"distance": 15, "rank": 103, "pace": 295000000000, "time": 4435.3}}, "weekday": "saturday", "livingplace": "Lyss"}}, "location": "Kerzers"}, "Bieler Lauftage, Biel Bienne": {"latitude": 47.1367785, "longitude": 7.2467909, "race": "Bieler Lauftage, Biel Bienne", "date": {"ven. 12.06.2009": {"year": 2009, "day": 12, "month": 6, "categories": {"H/W35": {"distance": 21, "rank": 5, "pace": 315000000000, "time": 6655.5}}, "weekday": "friday", "livingplace": "Lyss"}}, "location": "Biel/Bienne"}, "Int Greifenseelauf, Uster": {"latitude": 47.3482747, "longitude": 8.717873899999999, "race": "Int Greifenseelauf, Uster", "date": {"sam. 20.09.2008": {"year": 2008, "day": 20, "month": 9, "categories": {"H-W35": {"distance": 21, "rank": 74, "pace": 305000000000, "time": 6455.5}}, "weekday": "saturday", "livingplace": "Lyss"}}, "location": "Uster"}}, "birth": 1973}