{"name": "Schwab Patrick", "sex": "M", "races": {"Bl\u00fcemlisalp-Lauf, Reichenbach": {"latitude": 46.6254387, "longitude": 7.6940529, "race": "Bl\u00fcemlisalp-Lauf, Reichenbach", "date": {"dim. 31.05.2009": {"year": 2009, "day": 31, "month": 5, "categories": {"MJun": {"distance": 16, "rank": 2, "pace": 329000000000, "time": 5304.3}}, "weekday": "sunday", "livingplace": "Busswil b. Buren"}}, "location": "Reichenbach im Kandertal"}, "Luzerner Stadtlauf": {"latitude": 47.05016819999999, "longitude": 8.3093072, "race": "Luzerner Stadtlauf", "date": {"sam. 24.04.2010": {"year": 2010, "day": 24, "month": 4, "categories": {"K-20": {"distance": 4, "rank": 8, "pace": 218000000000, "time": 845.7}}, "weekday": "saturday", "livingplace": "Busswil b. Buren"}}, "location": "Luzern"}, "Ch\u00e4sitzerlouf, Kehrsatz": {"latitude": NaN, "longitude": NaN, "race": "Ch\u00e4sitzerlouf, Kehrsatz", "date": {"sam. 08.05.2010": {"year": 2010, "day": 8, "month": 5, "categories": {"12-JunM": {"distance": 12, "rank": 4, "pace": 238000000000, "time": 2861.6}}, "weekday": "saturday", "livingplace": "Busswil b. Buren"}}, "location": "Kehrsatz"}, "Int  Bieler Cross, Biel-Bienne": {"latitude": 47.1367785, "longitude": 7.2467909, "race": "Int  Bieler Cross, Biel-Bienne", "date": {"dim. 14.11.2010": {"year": 2010, "day": 14, "month": 11, "categories": {"M20": {"distance": 6, "rank": 15, "pace": 243000000000, "time": 1560.7}}, "weekday": "sunday", "livingplace": "Biel"}, "dim. 29.11.2009": {"year": 2009, "day": 29, "month": 11, "categories": {"M20": {"distance": 6, "rank": 12, "pace": 228000000000, "time": 1461.9}}, "weekday": "sunday", "livingplace": "Biel"}}, "location": "Biel/Bienne"}, "Run&Walk; Event Rothenburg": {"latitude": 49.3801834, "longitude": 10.1867388, "race": "Run&Walk; Event Rothenburg", "date": {"dim. 30.08.2009": {"year": 2009, "day": 30, "month": 8, "categories": {"Jun_A_K": {"distance": 8, "rank": 1, "pace": 232000000000, "time": 1859.0}}, "weekday": "sunday", "livingplace": "Busswil b. Buren"}}, "location": "Rothenburg"}, "Z\u00fcrich Marathon, Teamrun und Cityrun": {"latitude": 47.3768866, "longitude": 8.541694, "race": "Z\u00fcrich Marathon, Teamrun und Cityrun", "date": {"dim. 26.04.2009": {"year": 2009, "day": 26, "month": 4, "categories": {"M18": {"distance": 42, "rank": 10, "pace": 347000000000, "time": 14649.0}}, "weekday": "sunday", "livingplace": "Busswil b. Buren"}}, "location": "Z\u00fcrich"}, "Z\u00fcrcher Silvesterlauf, Z\u00fcrich": {"latitude": 47.3768866, "longitude": 8.541694, "race": "Z\u00fcrcher Silvesterlauf, Z\u00fcrich", "date": {"dim. 11.12.2011": {"year": 2011, "day": 11, "month": 12, "categories": {"8-MenHK": {"distance": 9, "rank": 164, "pace": 254000000000, "time": 2189.9}}, "weekday": "sunday", "livingplace": "Busswil b. Buren"}}, "location": "Z\u00fcrich"}, "Bieler Lauftage, Biel Bienne": {"latitude": 47.1367785, "longitude": 7.2467909, "race": "Bieler Lauftage, Biel Bienne", "date": {"ven. 12.06.2009": {"year": 2009, "day": 12, "month": 6, "categories": {"S100/M": {"distance": 100, "rank": 9, "pace": 263000000000, "time": 26320.9}}, "weekday": "friday", "livingplace": "Busswil b. Buren"}}, "location": "Biel/Bienne"}, "Int Greifenseelauf, Uster": {"latitude": 47.3482747, "longitude": 8.717873899999999, "race": "Int Greifenseelauf, Uster", "date": {"sam. 19.09.2009": {"year": 2009, "day": 19, "month": 9, "categories": {"H-MJ": {"distance": 21, "rank": 17, "pace": 280000000000, "time": 5911.1}}, "weekday": "saturday", "livingplace": "Busswil b. Buren"}}, "location": "Uster"}}, "birth": 1991}