{"name": "Schwartzmann Megan", "sex": "F", "races": {"BCN Tour La Chaux-de-Fonds": {"latitude": 47.1034892, "longitude": 6.832783800000001, "race": "BCN Tour La Chaux-de-Fonds", "date": {"mer. 11.05.2011": {"year": 2011, "day": 11, "month": 5, "categories": {"DJ": {"distance": 11, "rank": 28, "pace": 434000000000, "time": 4647.1}}, "weekday": "wednesday", "livingplace": "Morteau"}}, "location": "La Chaux-de-Fonds"}, "BCN Tour La Br\u00e9vine": {"latitude": 46.999113, "longitude": 6.733554799999999, "race": "BCN Tour La Br\u00e9vine", "date": {"mer. 04.05.2011": {"year": 2011, "day": 4, "month": 5, "categories": {"DJ": {"distance": 10, "rank": 25, "pace": 362000000000, "time": 3629.7}}, "weekday": "wednesday", "livingplace": "Morteau"}}, "location": "Les Ponts-de-Martel"}, "BCN Tour Fontaine Cernier": {"latitude": 47.0624261, "longitude": 6.9175754, "race": "BCN Tour Fontaine Cernier", "date": {"mer. 27.04.2011": {"year": 2011, "day": 27, "month": 4, "categories": {"DJ": {"distance": 10, "rank": 20, "pace": 334000000000, "time": 3440.2}}, "weekday": "wednesday", "livingplace": "Morteau"}}, "location": "Ch\u00e9zard-St-Martin"}, "BCN Tour Neuch\u00e2tel": {"latitude": 46.9899874, "longitude": 6.9292732, "race": "BCN Tour Neuch\u00e2tel", "date": {"mer. 25.05.2011": {"year": 2011, "day": 25, "month": 5, "categories": {"DJ": {"distance": 11, "rank": 32, "pace": 396000000000, "time": 4524.3}}, "weekday": "wednesday", "livingplace": "Morteau"}}, "location": "Neuch\u00e2tel"}, "BCN Tour Les Ponts de Martel": {"latitude": 46.9262933, "longitude": 6.6324944, "race": "BCN Tour Les Ponts de Martel", "date": {"mer. 18.05.2011": {"year": 2011, "day": 18, "month": 5, "categories": {"DJ": {"distance": 13, "rank": 37, "pace": 408000000000, "time": 5227.6}}, "weekday": "wednesday", "livingplace": "Morteau"}}, "location": "Couvet"}, "BCN Tour Auvernier": {"latitude": 46.9668714, "longitude": 6.8589727, "race": "BCN Tour Auvernier", "date": {"mer. 20.04.2011": {"year": 2011, "day": 20, "month": 4, "categories": {"DJ": {"distance": 11, "rank": 18, "pace": 379000000000, "time": 4098.9}}, "weekday": "wednesday", "livingplace": "Morteau"}}, "location": "Colombier NE"}}, "birth": 1994}