{"name": "Schwab C\u00e9dric", "sex": "M", "races": {"Grand Prix Craft, Neuch\u00e2tel": {"latitude": 46.9899874, "longitude": 6.9292732, "race": "Grand Prix Craft, Neuch\u00e2tel", "date": {"dim. 16.12.2007": {"year": 2007, "day": 16, "month": 12, "categories": {"HS1": {"distance": 7, "rank": 28, "pace": 230000000000, "time": 1615.2}}, "weekday": "sunday", "livingplace": "Les Ponts de Martel"}, "dim. 17.12.2006": {"year": 2006, "day": 17, "month": 12, "categories": {"HS1": {"distance": 7, "rank": 20, "pace": 219000000000, "time": 1538.9}}, "weekday": "sunday", "livingplace": "Ponts de Martel"}}, "location": "Neuch\u00e2tel"}, "BCN Tour M\u00f4tier": {"latitude": 46.9262933, "longitude": 6.6324944, "race": "BCN Tour M\u00f4tier", "date": {"mer. 19.05.2010": {"year": 2010, "day": 19, "month": 5, "categories": {"HS1": {"distance": 10, "rank": 21, "pace": 233000000000, "time": 2310.9}}, "weekday": "wednesday", "livingplace": "Les Ponts de Martel"}}, "location": "Couvet"}, "BCN Tour Le Landeron": {"latitude": 46.9668714, "longitude": 6.8589727, "race": "BCN Tour Le Landeron", "date": {"mer. 22.04.2009": {"year": 2009, "day": 22, "month": 4, "categories": {"HS1": {"distance": 11, "rank": 55, "pace": 264000000000, "time": 2935.7}}, "weekday": "wednesday", "livingplace": "Club"}}, "location": "Colombier NE"}, "BCN Tour Le Locle": {"latitude": 46.999113, "longitude": 6.733554799999999, "race": "BCN Tour Le Locle", "date": {"mer. 05.05.2010": {"year": 2010, "day": 5, "month": 5, "categories": {"HS1": {"distance": 11, "rank": 26, "pace": 245000000000, "time": 2676.1}}, "weekday": "wednesday", "livingplace": "Les Ponts de Martel"}}, "location": "Les Ponts-de-Martel"}, "BCN Tour Ponts-de-Martel": {"latitude": 47.0624261, "longitude": 6.9175754, "race": "BCN Tour Ponts-de-Martel", "date": {"mer. 28.04.2010": {"year": 2010, "day": 28, "month": 4, "categories": {"HS1": {"distance": 11, "rank": 24, "pace": 251000000000, "time": 2822.0}}, "weekday": "wednesday", "livingplace": "Les Ponts de Martel"}}, "location": "Ch\u00e9zard-St-Martin"}, "BCN Tour #6 Neuch\u00e2tel": {"latitude": 46.9899874, "longitude": 6.9292732, "race": "BCN Tour #6 Neuch\u00e2tel", "date": {"mer. 29.05.2013": {"year": 2013, "day": 29, "month": 5, "categories": {"HS2": {"distance": 11, "rank": 75, "pace": 282000000000, "time": 3103.6}}, "weekday": "wednesday", "livingplace": "Les Ponts de Martel"}}, "location": "Neuch\u00e2tel"}, "BCN Tour La Br\u00e9vine": {"latitude": 46.999113, "longitude": 6.733554799999999, "race": "BCN Tour La Br\u00e9vine", "date": {"mer. 04.05.2011": {"year": 2011, "day": 4, "month": 5, "categories": {"HS1": {"distance": 10, "rank": 58, "pace": 273000000000, "time": 2736.9}}, "weekday": "wednesday", "livingplace": "Les Ponts de Martel"}}, "location": "Les Ponts-de-Martel"}, "BCN Tour Neuch\u00e2tel": {"latitude": 46.9899874, "longitude": 6.9292732, "race": "BCN Tour Neuch\u00e2tel", "date": {"mer. 26.05.2010": {"year": 2010, "day": 26, "month": 5, "categories": {"HS1": {"distance": 10, "rank": 19, "pace": 253000000000, "time": 2457.0}}, "weekday": "wednesday", "livingplace": "Les Ponts de Martel"}}, "location": "Neuch\u00e2tel"}, "BCN Tour Les Ponts de Martel": {"latitude": 46.9262933, "longitude": 6.6324944, "race": "BCN Tour Les Ponts de Martel", "date": {"mer. 18.05.2011": {"year": 2011, "day": 18, "month": 5, "categories": {"HS1": {"distance": 13, "rank": 72, "pace": 281000000000, "time": 3598.7}}, "weekday": "wednesday", "livingplace": "Les Ponts de Martel"}}, "location": "Couvet"}, "BCN Tour Boudry": {"latitude": 46.9668714, "longitude": 6.8589727, "race": "BCN Tour Boudry", "date": {"mer. 26.04.2006": {"year": 2006, "day": 26, "month": 4, "categories": {"HS1": {"distance": 10, "rank": 37, "pace": 254000000000, "time": 2598.9}}, "weekday": "wednesday", "livingplace": "Ponts de Martel"}}, "location": "Colombier NE"}, "BCN Tour La Chaux-de-fonds": {"latitude": 47.1034892, "longitude": 6.832783800000001, "race": "BCN Tour La Chaux-de-fonds", "date": {"mer. 12.05.2010": {"year": 2010, "day": 12, "month": 5, "categories": {"HS1": {"distance": 11, "rank": 22, "pace": 298000000000, "time": 3195.4}}, "weekday": "wednesday", "livingplace": "Les Ponts de Martel"}}, "location": "La Chaux-de-Fonds"}, "BCN Tour Colombier": {"latitude": 46.9668714, "longitude": 6.8589727, "race": "BCN Tour Colombier", "date": {"mer. 23.04.2008": {"year": 2008, "day": 23, "month": 4, "categories": {"HS1": {"distance": 10, "rank": 30, "pace": 255000000000, "time": 2601.3}}, "weekday": "wednesday", "livingplace": "SC la Brevine"}, "mer. 21.04.2010": {"year": 2010, "day": 21, "month": 4, "categories": {"HS1": {"distance": 10, "rank": 29, "pace": 272000000000, "time": 2721.0}}, "weekday": "wednesday", "livingplace": "Les Ponts de Martel"}}, "location": "Colombier NE"}}, "birth": 1972}