{"name": "Schwab Johann", "sex": "M", "races": {"Tour du Pays de Vaud etape 5 - La Sarraz": {"latitude": 46.5993131, "longitude": 6.539251200000001, "race": "Tour du Pays de Vaud etape 5 - La Sarraz", "date": {"mer. 09.09.2009": {"year": 2009, "day": 9, "month": 9, "categories": {"HJun": {"distance": 9, "rank": 12, "pace": 280000000000, "time": 2354.4}}, "weekday": "wednesday", "livingplace": "Ferreyres"}, "mer. 10.09.2008": {"year": 2008, "day": 10, "month": 9, "categories": {"HomJun": {"distance": 9, "rank": 10, "pace": 261000000000, "time": 2246.9}}, "weekday": "wednesday", "livingplace": "Ferreyres"}}, "location": "Penthaz"}, "Tour du Pays de Vaud #2 - Genolier": {"latitude": 46.5955273, "longitude": 6.7702883, "race": "Tour du Pays de Vaud #2 - Genolier", "date": {"mer. 18.08.2010": {"year": 2010, "day": 18, "month": 8, "categories": {"HJun": {"distance": 8, "rank": 3, "pace": 268000000000, "time": 2171.2}}, "weekday": "wednesday", "livingplace": "Ferreyres"}}, "location": "M\u00e9zi\u00e8res VD"}, "Tour du pays de Vaud #6 - St  Prex": {"latitude": 46.4829113, "longitude": 6.458343500000001, "race": "Tour du pays de Vaud #6 - St  Prex", "date": {"mer. 14.09.2011": {"year": 2011, "day": 14, "month": 9, "categories": {"H-Jun": {"distance": 9, "rank": 10, "pace": 264000000000, "time": 2276.3}}, "weekday": "wednesday", "livingplace": "Ferreyres"}}, "location": "St-Prex"}, "Tour du Pays de Vaud etape 2 - Genolier": {"latitude": 46.5955273, "longitude": 6.7702883, "race": "Tour du Pays de Vaud etape 2 - Genolier", "date": {"mer. 20.08.2008": {"year": 2008, "day": 20, "month": 8, "categories": {"HomJun": {"distance": 8, "rank": 9, "pace": 279000000000, "time": 2319.5}}, "weekday": "wednesday", "livingplace": "Ferreyres"}, "mer. 19.08.2009": {"year": 2009, "day": 19, "month": 8, "categories": {"HJun": {"distance": 8, "rank": 8, "pace": 284000000000, "time": 2304.1}}, "weekday": "wednesday", "livingplace": "Ferreyres"}}, "location": "M\u00e9zi\u00e8res VD"}, "Tour du Pays de Vaud etape 3 - Aubonne": {"latitude": 46.7829756, "longitude": 6.5728678, "race": "Tour du Pays de Vaud etape 3 - Aubonne", "date": {"mer. 27.08.2008": {"year": 2008, "day": 27, "month": 8, "categories": {"HomJun": {"distance": 8, "rank": 11, "pace": 288000000000, "time": 2251.8}}, "weekday": "wednesday", "livingplace": "Ferreyres"}}, "location": "Champvent"}, "Tour du Pays de Vaud etape 1 - Le Mont sur Lausanne": {"latitude": 46.7784736, "longitude": 6.641183, "race": "Tour du Pays de Vaud etape 1 - Le Mont sur Lausanne", "date": {"mer. 12.08.2009": {"year": 2009, "day": 12, "month": 8, "categories": {"HJun": {"distance": 9, "rank": 8, "pace": 280000000000, "time": 2607.5}}, "weekday": "wednesday", "livingplace": "Ferreyres"}}, "location": "Yverdon-les-Bains"}, "20km de Lausanne": {"latitude": 46.5196535, "longitude": 6.6322734, "race": "20km de Lausanne", "date": {"sam. 30.04.2011": {"year": 2011, "day": 30, "month": 4, "categories": {"10-Hesp": {"distance": 10, "rank": 49, "pace": 271000000000, "time": 2710.6}}, "weekday": "saturday", "livingplace": "Ferreyres"}, "sam. 26.04.2014": {"year": 2014, "day": 26, "month": 4, "categories": {"10-H20": {"distance": 10, "rank": 264, "pace": 287000000000, "time": 2873.3}}, "weekday": "saturday", "livingplace": "Ferreyres"}}, "location": "Lausanne"}, "Tour du pays de Vaud #1 - Mezi\u00e8res": {"latitude": 46.7784736, "longitude": 6.641183, "race": "Tour du pays de Vaud #1 - Mezi\u00e8res", "date": {"mer. 10.08.2011": {"year": 2011, "day": 10, "month": 8, "categories": {"H-Jun": {"distance": 9, "rank": 11, "pace": 275000000000, "time": 2338.1}}, "weekday": "wednesday", "livingplace": "Ferreyres"}}, "location": "Yverdon-les-Bains"}, "Kerzerslauf": {"latitude": 46.97488999999999, "longitude": 7.1954365, "race": "Kerzerslauf", "date": {"sam. 18.03.2006": {"year": 2006, "day": 18, "month": 3, "categories": {"M14": {"distance": 2, "rank": 22, "pace": 247000000000, "time": 593.8}}, "weekday": "saturday", "livingplace": "Ferreyres"}, "sam. 15.03.2008": {"year": 2008, "day": 15, "month": 3, "categories": {"5/M05": {"distance": 5, "rank": 41, "pace": 250000000000, "time": 1253.1}}, "weekday": "saturday", "livingplace": "Ferreyres"}, "sam. 17.03.2007": {"year": 2007, "day": 17, "month": 3, "categories": {"MJKU": {"distance": 5, "rank": 17, "pace": 251000000000, "time": 1255.0}}, "weekday": "saturday", "livingplace": "Ferreyres"}}, "location": "Kerzers"}, "Tour du pays de Vaud #1 \u2013 St  Prex": {"latitude": 46.7784736, "longitude": 6.641183, "race": "Tour du pays de Vaud #1 \u2013 St  Prex", "date": {"mer. 11.08.2010": {"year": 2010, "day": 11, "month": 8, "categories": {"HJun": {"distance": 8, "rank": 4, "pace": 270000000000, "time": 2276.0}}, "weekday": "wednesday", "livingplace": "Ferreyres"}}, "location": "Yverdon-les-Bains"}}, "birth": 1992}