{"name": "Sciboz Lucien", "sex": "M", "races": {"20km de Lausanne": {"latitude": 46.5196535, "longitude": 6.6322734, "race": "20km de Lausanne", "date": {"sam. 25.04.2015": {"year": 2015, "day": 25, "month": 4, "categories": {"10-H45": {"distance": 10, "rank": 344, "pace": 338000000000, "time": 3388.0}}, "weekday": "saturday", "livingplace": "Ecuvillens"}}, "location": "Lausanne"}, "Morat-Fribourg": {"latitude": 46.92922110000001, "longitude": 7.120184, "race": "Morat-Fribourg", "date": {"sam. 03.10.2015": {"year": 2015, "day": 3, "month": 10, "categories": {"17-M45": {"distance": 17, "rank": 528, "pace": 353000000000, "time": 6076.8}}, "weekday": "saturday", "livingplace": "Ecuvillens"}}, "location": "Murten"}, "Kerzerslauf": {"latitude": 46.97488999999999, "longitude": 7.1954365, "race": "Kerzerslauf", "date": {"sam. 21.03.2015": {"year": 2015, "day": 21, "month": 3, "categories": {"15-M45": {"distance": 15, "rank": 499, "pace": 350000000000, "time": 5263.2}}, "weekday": "saturday", "livingplace": "Ecuvillens"}}, "location": "Kerzers"}, "Corrida Bulloise, Bulle": {"latitude": 46.6154512, "longitude": 7.057726799999999, "race": "Corrida Bulloise, Bulle", "date": {"sam. 21.11.2015": {"year": 2015, "day": 21, "month": 11, "categories": {"8-M40": {"distance": 8, "rank": 151, "pace": 331000000000, "time": 2698.9}}, "weekday": "saturday", "livingplace": "Ecuvillens"}}, "location": "Bulle"}, "Les Traine-Savates, Cheseaux-sur-Lausanne": {"latitude": 46.585452, "longitude": 6.6047712, "race": "Les Traine-Savates, Cheseaux-sur-Lausanne", "date": {"sam. 18.04.2015": {"year": 2015, "day": 18, "month": 4, "categories": {"10-M40": {"distance": 10, "rank": 195, "pace": 329000000000, "time": 3398.9}}, "weekday": "saturday", "livingplace": "Ecuvillens"}}, "location": "Cheseaux-sur-Lausanne"}}, "birth": 1970}