{"name": "Sciboz Lea", "sex": "F", "races": {"Morat-Fribourg": {"latitude": 46.92922110000001, "longitude": 7.120184, "race": "Morat-Fribourg", "date": {"sam. 05.10.2013": {"year": 2013, "day": 5, "month": 10, "categories": {"17-W20": {"distance": 17, "rank": 595, "pace": 396000000000, "time": 6926.1}}, "weekday": "saturday", "livingplace": "Treyvaux"}, "sam. 01.10.2011": {"year": 2011, "day": 1, "month": 10, "categories": {"17-JunF": {"distance": 17, "rank": 4, "pace": 303000000000, "time": 5203.2}}, "weekday": "saturday", "livingplace": "Treyvaux"}, "sam. 06.10.2012": {"year": 2012, "day": 6, "month": 10, "categories": {"17-JunF": {"distance": 17, "rank": 6, "pace": 340000000000, "time": 5946.3}}, "weekday": "saturday", "livingplace": "Treyvaux"}, "sam. 03.10.2015": {"year": 2015, "day": 3, "month": 10, "categories": {"17-W20": {"distance": 17, "rank": 33, "pace": 281000000000, "time": 4828.3}}, "weekday": "saturday", "livingplace": "Treyvaux"}}, "location": "Murten"}, "Groupe E Tour Fribourg #5 Fribourg": {"latitude": 46.8128615, "longitude": 7.131657799999999, "race": "Groupe E Tour Fribourg #5 Fribourg", "date": {"mer. 26.09.2012": {"year": 2012, "day": 26, "month": 9, "categories": {"DJ": {"distance": 11, "rank": 3, "pace": 319000000000, "time": 3423.9}}, "weekday": "wednesday", "livingplace": "Treyvaux"}}, "location": "Givisiez"}, "Groupe E Tour Fribourg #3 Estavayer-le-Lac": {"latitude": 46.97488999999999, "longitude": 7.1954365, "race": "Groupe E Tour Fribourg #3 Estavayer-le-Lac", "date": {"mer. 12.09.2012": {"year": 2012, "day": 12, "month": 9, "categories": {"DJ": {"distance": 10, "rank": 1, "pace": 309000000000, "time": 3054.2}}, "weekday": "wednesday", "livingplace": "Treyvaux"}}, "location": "Kerzers"}, "20km de Lausanne": {"latitude": 46.5196535, "longitude": 6.6322734, "race": "20km de Lausanne", "date": {"sam. 25.04.2015": {"year": 2015, "day": 25, "month": 4, "categories": {"10-F20": {"distance": 10, "rank": 85, "pace": 297000000000, "time": 2976.7}}, "weekday": "saturday", "livingplace": "Trilogie Running Team"}, "sam. 26.04.2014": {"year": 2014, "day": 26, "month": 4, "categories": {"10-F20": {"distance": 10, "rank": 300, "pace": 337000000000, "time": 3375.1}}, "weekday": "saturday", "livingplace": "Treyvaux"}}, "location": "Lausanne"}, "Groupe E Tour Fribourg #2 Plafayon": {"latitude": 46.6175845, "longitude": 7.1654493, "race": "Groupe E Tour Fribourg #2 Plafayon", "date": {"mer. 05.09.2012": {"year": 2012, "day": 5, "month": 9, "categories": {"DJ": {"distance": 9, "rank": 3, "pace": 327000000000, "time": 3065.9}}, "weekday": "wednesday", "livingplace": "Treyvaux"}}, "location": "Charmey (Gruy\u00e8re)"}, "Groupe E Tour Fribourg #4 Siviriez": {"latitude": 46.6585092, "longitude": 6.877722, "race": "Groupe E Tour Fribourg #4 Siviriez", "date": {"mer. 19.09.2012": {"year": 2012, "day": 19, "month": 9, "categories": {"DJ": {"distance": 9, "rank": 1, "pace": 338000000000, "time": 3182.6}}, "weekday": "wednesday", "livingplace": "Treyvaux"}}, "location": "Siviriez"}, "Course de l'Avent, Fribourg": {"latitude": 46.8064773, "longitude": 7.161971899999999, "race": "Course de l'Avent, Fribourg", "date": {"dim. 23.11.2014": {"year": 2014, "day": 23, "month": 11, "categories": {"P-F20": {"distance": 6, "rank": 15, "pace": 310000000000, "time": 1955.3}}, "weekday": "sunday", "livingplace": "Treyvaux"}}, "location": "Fribourg"}, "Kerzerslauf": {"latitude": 46.97488999999999, "longitude": 7.1954365, "race": "Kerzerslauf", "date": {"sam. 17.03.2012": {"year": 2012, "day": 17, "month": 3, "categories": {"15-F19": {"distance": 15, "rank": 13, "pace": 360000000000, "time": 5402.0}}, "weekday": "saturday", "livingplace": "Treyvaux"}, "sam. 16.03.2013": {"year": 2013, "day": 16, "month": 3, "categories": {"15-F20": {"distance": 15, "rank": 314, "pace": 362000000000, "time": 5435.9}}, "weekday": "saturday", "livingplace": "Treyvaux"}}, "location": "Kerzers"}}, "birth": 1993}