{"name": "Seeberger David", "sex": "M", "races": {"Groupe E Tour Fribourg #5, Givisiez": {"latitude": 46.8128615, "longitude": 7.131657799999999, "race": "Groupe E Tour Fribourg #5, Givisiez", "date": {"mer. 17.09.2014": {"year": 2014, "day": 17, "month": 9, "categories": {"H-Sen1": {"distance": 10, "rank": 102, "pace": 343000000000, "time": 3526.7}}, "weekday": "wednesday", "livingplace": "Gampelen"}}, "location": "Givisiez"}, "Morat-Fribourg": {"latitude": 46.92922110000001, "longitude": 7.120184, "race": "Morat-Fribourg", "date": {"sam. 06.10.2012": {"year": 2012, "day": 6, "month": 10, "categories": {"17-M20": {"distance": 17, "rank": 1821, "pace": 369000000000, "time": 6454.9}}, "weekday": "saturday", "livingplace": "Gampelen"}}, "location": "Murten"}, "BCN Tour #6 Neuch\u00e2tel": {"latitude": 46.9899874, "longitude": 6.9292732, "race": "BCN Tour #6 Neuch\u00e2tel", "date": {"mer. 29.05.2013": {"year": 2013, "day": 29, "month": 5, "categories": {"HS1": {"distance": 11, "rank": 264, "pace": 388000000000, "time": 4278.0}}, "weekday": "wednesday", "livingplace": "Gampelen"}}, "location": "Neuch\u00e2tel"}, "La Trotteuse-Tissot, La Chaux-de-Fonds": {"latitude": 47.1034892, "longitude": 6.832783800000001, "race": "La Trotteuse-Tissot, La Chaux-de-Fonds", "date": {"sam. 14.12.2013": {"year": 2013, "day": 14, "month": 12, "categories": {"GC-H30": {"distance": 8, "rank": 144, "pace": 351000000000, "time": 2808.5}}, "weekday": "saturday", "livingplace": "Gampelen"}, "sam. 12.12.2015": {"year": 2015, "day": 12, "month": 12, "categories": {"GC-H40": {"distance": 8, "rank": 239, "pace": 350000000000, "time": 2803.9}}, "weekday": "saturday", "livingplace": "Gampelen"}}, "location": "La Chaux-de-Fonds"}, "Groupe E Tour Fribourg #3, Kerzers": {"latitude": 46.97488999999999, "longitude": 7.1954365, "race": "Groupe E Tour Fribourg #3, Kerzers", "date": {"mer. 03.09.2014": {"year": 2014, "day": 3, "month": 9, "categories": {"H-Sen1": {"distance": 10, "rank": 78, "pace": 321000000000, "time": 3266.8}}, "weekday": "wednesday", "livingplace": "Gampelen"}}, "location": "Kerzers"}, "BCN Tour #5 Colombier": {"latitude": 46.9262933, "longitude": 6.6324944, "race": "BCN Tour #5 Colombier", "date": {"mer. 22.05.2013": {"year": 2013, "day": 22, "month": 5, "categories": {"HS1": {"distance": 11, "rank": 269, "pace": 321000000000, "time": 3374.0}}, "weekday": "wednesday", "livingplace": "Gampelen"}}, "location": "Couvet"}, "BCN Tour #1 Corcelles": {"latitude": 46.9668714, "longitude": 6.8589727, "race": "BCN Tour #1 Corcelles", "date": {"mer. 24.04.2013": {"year": 2013, "day": 24, "month": 4, "categories": {"HS1": {"distance": 10, "rank": 280, "pace": 364000000000, "time": 3568.1}}, "weekday": "wednesday", "livingplace": "Gampelen"}}, "location": "Colombier NE"}, "BCN Tour Colombier": {"latitude": 47.1034892, "longitude": 6.832783800000001, "race": "BCN Tour Colombier", "date": {"mer. 16.05.2012": {"year": 2012, "day": 16, "month": 5, "categories": {"HS1": {"distance": 11, "rank": 275, "pace": 391000000000, "time": 4225.4}}, "weekday": "wednesday", "livingplace": "Gampelen"}}, "location": "La Chaux-de-Fonds"}, "Kerzerslauf": {"latitude": 46.97488999999999, "longitude": 7.1954365, "race": "Kerzerslauf", "date": {"sam. 21.03.2015": {"year": 2015, "day": 21, "month": 3, "categories": {"15-M40": {"distance": 15, "rank": 476, "pace": 340000000000, "time": 5114.9}}, "weekday": "saturday", "livingplace": "Gampelen"}, "sam. 15.03.2014": {"year": 2014, "day": 15, "month": 3, "categories": {"15-M35": {"distance": 15, "rank": 362, "pace": 327000000000, "time": 4910.8}}, "weekday": "saturday", "livingplace": "Gampelen"}, "sam. 16.03.2013": {"year": 2013, "day": 16, "month": 3, "categories": {"15-M35": {"distance": 15, "rank": 318, "pace": 339000000000, "time": 5098.5}}, "weekday": "saturday", "livingplace": "Gampelen"}}, "location": "Kerzers"}}, "birth": 1975}