{"name": "Seekopp Pia", "sex": "F", "races": {"Tour du Pays de Vaud #2 - Genolier": {"latitude": 46.5955273, "longitude": 6.7702883, "race": "Tour du Pays de Vaud #2 - Genolier", "date": {"mer. 17.08.2011": {"year": 2011, "day": 17, "month": 8, "categories": {"D-Sen2": {"distance": 9, "rank": 58, "pace": 379000000000, "time": 3227.0}}, "weekday": "wednesday", "livingplace": "Cully"}}, "location": "M\u00e9zi\u00e8res VD"}, "Tour du Pays de Vaud #3 - Mezi\u00e8res": {"latitude": 46.7784736, "longitude": 6.641183, "race": "Tour du Pays de Vaud #3 - Mezi\u00e8res", "date": {"mer. 22.08.2012": {"year": 2012, "day": 22, "month": 8, "categories": {"D-Sen2": {"distance": 8, "rank": 70, "pace": 451000000000, "time": 3792.3}}, "weekday": "wednesday", "livingplace": "Cully"}}, "location": "Yverdon-les-Bains"}, "Tour du pays de Vaud #6 - St  Prex": {"latitude": 46.4829113, "longitude": 6.458343500000001, "race": "Tour du pays de Vaud #6 - St  Prex", "date": {"mer. 14.09.2011": {"year": 2011, "day": 14, "month": 9, "categories": {"D-Sen2": {"distance": 9, "rank": 74, "pace": 370000000000, "time": 3188.8}}, "weekday": "wednesday", "livingplace": "Cully"}}, "location": "St-Prex"}, "Tour du pays de Vaud #5 - Penthaz": {"latitude": 46.5993131, "longitude": 6.539251200000001, "race": "Tour du pays de Vaud #5 - Penthaz", "date": {"mer. 07.09.2011": {"year": 2011, "day": 7, "month": 9, "categories": {"D-Sen2": {"distance": 8, "rank": 52, "pace": 409000000000, "time": 3423.1}}, "weekday": "wednesday", "livingplace": "Cully"}}, "location": "Penthaz"}, "Morat-Fribourg": {"latitude": 46.92922110000001, "longitude": 7.120184, "race": "Morat-Fribourg", "date": {"sam. 01.10.2011": {"year": 2011, "day": 1, "month": 10, "categories": {"17-W40": {"distance": 17, "rank": 235, "pace": 383000000000, "time": 6586.2}}, "weekday": "saturday", "livingplace": "Cully"}}, "location": "Murten"}, "20km de Lausanne": {"latitude": 46.5196535, "longitude": 6.6322734, "race": "20km de Lausanne", "date": {"sam. 30.04.2011": {"year": 2011, "day": 30, "month": 4, "categories": {"10-F40": {"distance": 10, "rank": 70, "pace": 330000000000, "time": 3307.5}}, "weekday": "saturday", "livingplace": "Epalinges"}, "sam. 24.04.2010": {"year": 2010, "day": 24, "month": 4, "categories": {"10-F40": {"distance": 10, "rank": 324, "pace": 448000000000, "time": 4481.0}}, "weekday": "saturday", "livingplace": "Ton Hopital se bouge"}}, "location": "Lausanne"}, "Tour du pays de Vaud #1 - Penthaz": {"latitude": 46.5993131, "longitude": 6.539251200000001, "race": "Tour du pays de Vaud #1 - Penthaz", "date": {"mer. 08.08.2012": {"year": 2012, "day": 8, "month": 8, "categories": {"D-Sen2": {"distance": 9, "rank": 67, "pace": 399000000000, "time": 3407.5}}, "weekday": "wednesday", "livingplace": "Cully"}}, "location": "Penthaz"}}, "birth": 1968}