{"name": "Senften Christoph", "sex": "M", "races": {"M\u00e4nned\u00f6rfler Waldlauf": {"latitude": 47.2574625, "longitude": 8.6946733, "race": "M\u00e4nned\u00f6rfler Waldlauf", "date": {"sam. 29.03.2014": {"year": 2014, "day": 29, "month": 3, "categories": {"C": {"distance": 12, "rank": 112, "pace": 307000000000, "time": 3533.3}}, "weekday": "saturday", "livingplace": "Zurich"}}, "location": "M\u00e4nnedorf"}, "T\u00fcrlerseelauf Affoltern am Albis": {"latitude": 47.2795081, "longitude": 8.4540083, "race": "T\u00fcrlerseelauf Affoltern am Albis", "date": {"sam. 31.08.2013": {"year": 2013, "day": 31, "month": 8, "categories": {"C": {"distance": 14, "rank": 94, "pace": 315000000000, "time": 4447.1}}, "weekday": "saturday", "livingplace": "Zurich"}, "sam. 30.08.2014": {"year": 2014, "day": 30, "month": 8, "categories": {"C": {"distance": 14, "rank": 65, "pace": 316000000000, "time": 4465.0}}, "weekday": "saturday", "livingplace": "Zurich"}}, "location": "Affoltern am Albis"}, "ASICS Bremgarter Reusslauf": {"latitude": 47.34917739999999, "longitude": 8.3397905, "race": "ASICS Bremgarter Reusslauf", "date": {"sam. 22.02.2014": {"year": 2014, "day": 22, "month": 2, "categories": {"11-M40": {"distance": 11, "rank": 415, "pace": 301000000000, "time": 3312.0}}, "weekday": "saturday", "livingplace": "Zurich"}}, "location": "Bremgarten AG"}, "Gurtenclassic, Wabern": {"latitude": 46.92901639999999, "longitude": 7.448973199999999, "race": "Gurtenclassic, Wabern", "date": {"dim. 03.11.2013": {"year": 2013, "day": 3, "month": 11, "categories": {"M40": {"distance": 15, "rank": 109, "pace": 359000000000, "time": 5390.2}}, "weekday": "sunday", "livingplace": "Zurich"}, "dim. 06.11.2011": {"year": 2011, "day": 6, "month": 11, "categories": {"M40": {"distance": 15, "rank": 108, "pace": 357000000000, "time": 5366.3}}, "weekday": "sunday", "livingplace": "Zurich"}}, "location": "Wabern"}, "Kerzerslauf": {"latitude": 46.97488999999999, "longitude": 7.1954365, "race": "Kerzerslauf", "date": {"sam. 17.03.2012": {"year": 2012, "day": 17, "month": 3, "categories": {"15-M40": {"distance": 15, "rank": 446, "pace": 316000000000, "time": 4752.3}}, "weekday": "saturday", "livingplace": "Zurich"}, "sam. 16.03.2013": {"year": 2013, "day": 16, "month": 3, "categories": {"15-M45": {"distance": 15, "rank": 403, "pace": 309000000000, "time": 4646.5}}, "weekday": "saturday", "livingplace": "Zurich"}}, "location": "Kerzers"}, "Z\u00fcrcher Silvesterlauf, Z\u00fcrich": {"latitude": 47.3768866, "longitude": 8.541694, "race": "Z\u00fcrcher Silvesterlauf, Z\u00fcrich", "date": {"dim. 15.12.2013": {"year": 2013, "day": 15, "month": 12, "categories": {"10-M40": {"distance": 10, "rank": 691, "pace": 297000000000, "time": 2974.5}}, "weekday": "sunday", "livingplace": "Zurich"}}, "location": "Z\u00fcrich"}}, "birth": 1968}