{"name": "Serra Tassio", "sex": "M", "races": {"Tour du Chablais #2 Rennaz": {"latitude": 46.3835529, "longitude": 6.854975199999999, "race": "Tour du Chablais #2 Rennaz", "date": {"mer. 04.05.2011": {"year": 2011, "day": 4, "month": 5, "categories": {"M-EC1": {"distance": 3, "rank": 3, "pace": 214000000000, "time": 684.2}}, "weekday": "wednesday", "livingplace": "Chateau d'Oex"}}, "location": "Bouveret"}, "Course de l'Escalade, Gen\u00e8ve": {"latitude": 46.2043907, "longitude": 6.1431577, "race": "Course de l'Escalade, Gen\u00e8ve", "date": {"sam. 04.12.2010": {"year": 2010, "day": 4, "month": 12, "categories": {"H-CB": {"distance": 5, "rank": 18, "pace": 215000000000, "time": 1029.0}}, "weekday": "saturday", "livingplace": "Chateau d'Oex"}}, "location": "Gen\u00e8ve"}, "Corrida Bulloise, Bulle": {"latitude": 46.6154512, "longitude": 7.057726799999999, "race": "Corrida Bulloise, Bulle", "date": {"sam. 20.11.2010": {"year": 2010, "day": 20, "month": 11, "categories": {"CMB": {"distance": 3, "rank": 7, "pace": 221000000000, "time": 698.6}}, "weekday": "saturday", "livingplace": "Chateau d'Oex"}, "sam. 15.11.2008": {"year": 2008, "day": 15, "month": 11, "categories": {"EA": {"distance": 3, "rank": 17, "pace": 241000000000, "time": 724.3}}, "weekday": "saturday", "livingplace": "Ch"}}, "location": "Bulle"}, "Tour du Chablais #4 Morgins": {"latitude": NaN, "longitude": NaN, "race": "Tour du Chablais #4 Morgins", "date": {"mer. 18.05.2011": {"year": 2011, "day": 18, "month": 5, "categories": {"M-EC1": {"distance": 4, "rank": 3, "pace": 242000000000, "time": 872.6}}, "weekday": "wednesday", "livingplace": "Chateau d'Oex"}}, "location": "Les Mosses"}, "Sierre-Zinal, Sierre": {"latitude": 46.29413110000001, "longitude": 7.533536199999999, "race": "Sierre-Zinal, Sierre", "date": {"dim. 11.08.2013": {"year": 2013, "day": 11, "month": 8, "categories": {"Jun_Homm": {"distance": 19, "rank": 60, "pace": 453000000000, "time": 8610.6}}, "weekday": "sunday", "livingplace": "Ch"}}, "location": "Sierre"}, "20km de Lausanne": {"latitude": 46.5196535, "longitude": 6.6322734, "race": "20km de Lausanne", "date": {"sam. 30.04.2011": {"year": 2011, "day": 30, "month": 4, "categories": {"4-CadM": {"distance": 4, "rank": 9, "pace": 224000000000, "time": 897.8}}, "weekday": "saturday", "livingplace": "Chateau d'Oex"}}, "location": "Lausanne"}, "Tour du Chablais #5 Leysin": {"latitude": 46.3603257, "longitude": 6.931504599999999, "race": "Tour du Chablais #5 Leysin", "date": {"mer. 05.05.2010": {"year": 2010, "day": 5, "month": 5, "categories": {"M-EC2": {"distance": 4, "rank": 3, "pace": 239000000000, "time": 848.9}}, "weekday": "wednesday", "livingplace": "Chateau d'Oex"}}, "location": "Roche VD"}, "Tour du Chablais #6 Mouthey": {"latitude": 46.3190253, "longitude": 6.970566, "race": "Tour du Chablais #6 Mouthey", "date": {"mer. 12.05.2010": {"year": 2010, "day": 12, "month": 5, "categories": {"M-EC2": {"distance": 3, "rank": 4, "pace": 220000000000, "time": 704.6}}, "weekday": "wednesday", "livingplace": "Chateau d'Oex"}}, "location": "Aigle"}, "Morat-Fribourg": {"latitude": 46.92922110000001, "longitude": 7.120184, "race": "Morat-Fribourg", "date": {"sam. 01.10.2011": {"year": 2011, "day": 1, "month": 10, "categories": {"8-JoggM": {"distance": 9, "rank": 126, "pace": 356000000000, "time": 3068.2}}, "weekday": "saturday", "livingplace": "Chateau d'Oex"}}, "location": "Murten"}, "Lausanne Marathon": {"latitude": 46.5196535, "longitude": 6.6322734, "race": "Lausanne Marathon", "date": {"dim. 31.10.2010": {"year": 2010, "day": 31, "month": 10, "categories": {"4-K4": {"distance": 4, "rank": 3, "pace": 216000000000, "time": 909.5}}, "weekday": "sunday", "livingplace": "Chateau d'Oex"}}, "location": "Lausanne"}, "Tour du Chablais #6 Aigle": {"latitude": 46.3190253, "longitude": 6.970566, "race": "Tour du Chablais #6 Aigle", "date": {"mer. 01.06.2011": {"year": 2011, "day": 1, "month": 6, "categories": {"M-EC1": {"distance": 5, "rank": 4, "pace": 227000000000, "time": 1091.1}}, "weekday": "wednesday", "livingplace": "Chateau d'Oex"}}, "location": "Aigle"}, "Tour du Chablais #4 Yvorne": {"latitude": NaN, "longitude": NaN, "race": "Tour du Chablais #4 Yvorne", "date": {"mer. 28.04.2010": {"year": 2010, "day": 28, "month": 4, "categories": {"M-EC2": {"distance": 3, "rank": 1, "pace": 227000000000, "time": 728.0}}, "weekday": "wednesday", "livingplace": "Chateau d'Oex"}}, "location": "Les Mosses"}}, "birth": 1996}