{"name": "Sierro Nathan", "sex": "M", "races": {"BCN Tour M\u00f4tier": {"latitude": 46.9262933, "longitude": 6.6324944, "race": "BCN Tour M\u00f4tier", "date": {"mer. 19.05.2010": {"year": 2010, "day": 19, "month": 5, "categories": {"KG3": {"distance": 4, "rank": 7, "pace": 263000000000, "time": 999.4}}, "weekday": "wednesday", "livingplace": "Diesse"}}, "location": "Couvet"}, "Corrida Bulloise, Bulle": {"latitude": 46.6154512, "longitude": 7.057726799999999, "race": "Corrida Bulloise, Bulle", "date": {"sam. 21.11.2009": {"year": 2009, "day": 21, "month": 11, "categories": {"EA": {"distance": 3, "rank": 28, "pace": 251000000000, "time": 793.4}}, "weekday": "saturday", "livingplace": "Diesse"}}, "location": "Bulle"}, "BCN Tour Fontaine Cernier": {"latitude": 47.0624261, "longitude": 6.9175754, "race": "BCN Tour Fontaine Cernier", "date": {"mer. 27.04.2011": {"year": 2011, "day": 27, "month": 4, "categories": {"KG4": {"distance": 3, "rank": 19, "pace": 282000000000, "time": 846.2}}, "weekday": "wednesday", "livingplace": "Diesse"}}, "location": "Ch\u00e9zard-St-Martin"}, "BCN Tour Le Landeron": {"latitude": 46.9668714, "longitude": 6.8589727, "race": "BCN Tour Le Landeron", "date": {"mer. 22.04.2009": {"year": 2009, "day": 22, "month": 4, "categories": {"KG3": {"distance": 4, "rank": 13, "pace": 250000000000, "time": 1001.1}}, "weekday": "wednesday", "livingplace": "Diesse"}}, "location": "Colombier NE"}, "BCN Tour Le Locle": {"latitude": 46.999113, "longitude": 6.733554799999999, "race": "BCN Tour Le Locle", "date": {"mer. 05.05.2010": {"year": 2010, "day": 5, "month": 5, "categories": {"KG3": {"distance": 4, "rank": 9, "pace": 252000000000, "time": 934.7}}, "weekday": "wednesday", "livingplace": "Diesse"}}, "location": "Les Ponts-de-Martel"}, "BCN Tour Neuch\u00e2tel": {"latitude": 46.9899874, "longitude": 6.9292732, "race": "BCN Tour Neuch\u00e2tel", "date": {"mer. 26.05.2010": {"year": 2010, "day": 26, "month": 5, "categories": {"KG3": {"distance": 3, "rank": 12, "pace": 207000000000, "time": 706.9}}, "weekday": "wednesday", "livingplace": "Diesse"}, "mer. 25.05.2011": {"year": 2011, "day": 25, "month": 5, "categories": {"KG4": {"distance": 4, "rank": 18, "pace": 241000000000, "time": 875.6}}, "weekday": "wednesday", "livingplace": "Diesse"}}, "location": "Neuch\u00e2tel"}, "BCN Tour Auvernier": {"latitude": 46.9668714, "longitude": 6.8589727, "race": "BCN Tour Auvernier", "date": {"mer. 20.04.2011": {"year": 2011, "day": 20, "month": 4, "categories": {"KG4": {"distance": 2, "rank": 21, "pace": 236000000000, "time": 556.9}}, "weekday": "wednesday", "livingplace": "Diesse"}}, "location": "Colombier NE"}, "BCN Tour La Chaux-de-Fonds": {"latitude": 47.1034892, "longitude": 6.832783800000001, "race": "BCN Tour La Chaux-de-Fonds", "date": {"mer. 11.05.2011": {"year": 2011, "day": 11, "month": 5, "categories": {"KG4": {"distance": 4, "rank": 17, "pace": 196000000000, "time": 767.2}}, "weekday": "wednesday", "livingplace": "Diesse"}}, "location": "La Chaux-de-Fonds"}, "BCN Tour La Br\u00e9vine": {"latitude": 46.999113, "longitude": 6.733554799999999, "race": "BCN Tour La Br\u00e9vine", "date": {"mer. 04.05.2011": {"year": 2011, "day": 4, "month": 5, "categories": {"KG4": {"distance": 4, "rank": 16, "pace": 253000000000, "time": 964.8}}, "weekday": "wednesday", "livingplace": "Diesse"}}, "location": "Les Ponts-de-Martel"}, "BCN Tour Ponts-de-Martel": {"latitude": 47.0624261, "longitude": 6.9175754, "race": "BCN Tour Ponts-de-Martel", "date": {"mer. 28.04.2010": {"year": 2010, "day": 28, "month": 4, "categories": {"KG3": {"distance": 4, "rank": 8, "pace": 217000000000, "time": 913.7}}, "weekday": "wednesday", "livingplace": "Diesse"}}, "location": "Ch\u00e9zard-St-Martin"}, "BCN Tour Les Ponts de Martel": {"latitude": 46.9262933, "longitude": 6.6324944, "race": "BCN Tour Les Ponts de Martel", "date": {"mer. 18.05.2011": {"year": 2011, "day": 18, "month": 5, "categories": {"KG4": {"distance": 4, "rank": 16, "pace": 237000000000, "time": 924.5}}, "weekday": "wednesday", "livingplace": "Diesse"}}, "location": "Couvet"}, "BCN Tour La Chaux-de-fonds": {"latitude": 47.1034892, "longitude": 6.832783800000001, "race": "BCN Tour La Chaux-de-fonds", "date": {"mer. 12.05.2010": {"year": 2010, "day": 12, "month": 5, "categories": {"KG3": {"distance": 4, "rank": 15, "pace": 249000000000, "time": 971.3}}, "weekday": "wednesday", "livingplace": "Diesse"}}, "location": "La Chaux-de-Fonds"}, "BCN Tour Colombier": {"latitude": 46.9668714, "longitude": 6.8589727, "race": "BCN Tour Colombier", "date": {"mer. 21.04.2010": {"year": 2010, "day": 21, "month": 4, "categories": {"KG3": {"distance": 4, "rank": 12, "pace": 261000000000, "time": 1046.6}}, "weekday": "wednesday", "livingplace": "Diesse"}}, "location": "Colombier NE"}}, "birth": 1997}