{"name": "Sievert Tobias", "sex": "M", "races": {"Zermatt Marathon, Zermatt": {"latitude": NaN, "longitude": NaN, "race": "Zermatt Marathon, Zermatt", "date": {"sam. 06.07.2013": {"year": 2013, "day": 6, "month": 7, "categories": {"M-M20": {"distance": 42, "rank": 4, "pace": 357000000000, "time": 15076.1}}, "weekday": "saturday", "livingplace": "Cyclophile Lausannois"}}, "location": "Zermatt"}, "Morat-Fribourg": {"latitude": 46.92922110000001, "longitude": 7.120184, "race": "Morat-Fribourg", "date": {"sam. 05.10.2013": {"year": 2013, "day": 5, "month": 10, "categories": {"17-M20": {"distance": 17, "rank": 117, "pace": 238000000000, "time": 4167.9}}, "weekday": "saturday", "livingplace": "Epalinges"}, "sam. 04.10.2014": {"year": 2014, "day": 4, "month": 10, "categories": {"17-M20": {"distance": 17, "rank": 95, "pace": 237000000000, "time": 4075.4}}, "weekday": "saturday", "livingplace": "Epalinges"}}, "location": "Murten"}, "Lausanne Marathon": {"latitude": 46.5196535, "longitude": 6.6322734, "race": "Lausanne Marathon", "date": {"dim. 26.10.2014": {"year": 2014, "day": 26, "month": 10, "categories": {"10-H20": {"distance": 10, "rank": 25, "pace": 216000000000, "time": 2161.2}}, "weekday": "sunday", "livingplace": "Epalinges"}, "dim. 27.10.2013": {"year": 2013, "day": 27, "month": 10, "categories": {"10-H1": {"distance": 10, "rank": 35, "pace": 218000000000, "time": 2189.7}}, "weekday": "sunday", "livingplace": "Epalinges"}}, "location": "Lausanne"}, "Tour du Pays de Vaud printanier #3 - Yens": {"latitude": 46.7829756, "longitude": 6.5728678, "race": "Tour du Pays de Vaud printanier #3 - Yens", "date": {"mer. 18.06.2014": {"year": 2014, "day": 18, "month": 6, "categories": {"H-Hom": {"distance": 9, "rank": 9, "pace": 234000000000, "time": 2132.7}}, "weekday": "wednesday", "livingplace": "Epalinges"}}, "location": "Champvent"}, "20km de Lausanne": {"latitude": 46.5196535, "longitude": 6.6322734, "race": "20km de Lausanne", "date": {"sam. 30.04.2011": {"year": 2011, "day": 30, "month": 4, "categories": {"10-Hesp": {"distance": 10, "rank": 179, "pace": 318000000000, "time": 3183.2}}, "weekday": "saturday", "livingplace": "Epalinges"}}, "location": "Lausanne"}, "D\u00e9fi du vignoble, Cully": {"latitude": 45.565921, "longitude": -122.6066627, "race": "D\u00e9fi du vignoble, Cully", "date": {"mer. 14.05.2014": {"year": 2014, "day": 14, "month": 5, "categories": {"M20": {"distance": 4, "rank": 3, "pace": 414000000000, "time": 1510.1}}, "weekday": "wednesday", "livingplace": "Epalinges"}}, "location": "Cully"}, "Eiger Ultra Trail, Grindelwald": {"latitude": 46.624164, "longitude": 8.0413962, "race": "Eiger Ultra Trail, Grindelwald", "date": {"sam. 19.07.2014": {"year": 2014, "day": 19, "month": 7, "categories": {"C-H": {"distance": 16, "rank": 5, "pace": 339000000000, "time": 5428.7}}, "weekday": "saturday", "livingplace": "Epalinges"}}, "location": "Grindelwald"}, "Les Traine-Savates, Cheseaux-sur-Lausanne": {"latitude": 46.585452, "longitude": 6.6047712, "race": "Les Traine-Savates, Cheseaux-sur-Lausanne", "date": {"sam. 13.04.2013": {"year": 2013, "day": 13, "month": 4, "categories": {"10-M20": {"distance": 10, "rank": 25, "pace": 232000000000, "time": 2396.2}}, "weekday": "saturday", "livingplace": "Epalinges"}, "sam. 12.04.2014": {"year": 2014, "day": 12, "month": 4, "categories": {"10-M20": {"distance": 10, "rank": 17, "pace": 226000000000, "time": 2330.2}}, "weekday": "saturday", "livingplace": "Epalinges"}}, "location": "Cheseaux-sur-Lausanne"}, "Course de l'Escalade, Gen\u00e8ve": {"latitude": 46.2043907, "longitude": 6.1431577, "race": "Course de l'Escalade, Gen\u00e8ve", "date": {"sam. 05.12.2015": {"year": 2015, "day": 5, "month": 12, "categories": {"Elite-M": {"distance": 7, "rank": 210, "pace": 223000000000, "time": 1639.1}}, "weekday": "saturday", "livingplace": "Epalinges"}}, "location": "Gen\u00e8ve"}}, "birth": 1992}