{"name": "Sigrist Xavier", "sex": "M", "races": {"Grand Prix Craft, Neuch\u00e2tel": {"latitude": 46.9899874, "longitude": 6.9292732, "race": "Grand Prix Craft, Neuch\u00e2tel", "date": {"dim. 16.12.2007": {"year": 2007, "day": 16, "month": 12, "categories": {"HE": {"distance": 7, "rank": 3, "pace": 190000000000, "time": 1331.0}}, "weekday": "sunday", "livingplace": "La Sagne"}, "dim. 17.12.2006": {"year": 2006, "day": 17, "month": 12, "categories": {"HE": {"distance": 7, "rank": 11, "pace": 190000000000, "time": 1334.4}}, "weekday": "sunday", "livingplace": "La Sagne"}}, "location": "Neuch\u00e2tel"}, "BCN Tour Couvet": {"latitude": 47.0624261, "longitude": 6.9175754, "race": "BCN Tour Couvet", "date": {"mer. 02.05.2012": {"year": 2012, "day": 2, "month": 5, "categories": {"HS1": {"distance": 11, "rank": 21, "pace": 249000000000, "time": 2776.7}}, "weekday": "wednesday", "livingplace": "La Sagne"}}, "location": "Ch\u00e9zard-St-Martin"}, "BCN Tour La Chaux-de-Fonds": {"latitude": 46.9262933, "longitude": 6.6324944, "race": "BCN Tour La Chaux-de-Fonds", "date": {"mer. 23.05.2012": {"year": 2012, "day": 23, "month": 5, "categories": {"HS1": {"distance": 11, "rank": 6, "pace": 221000000000, "time": 2392.8}}, "weekday": "wednesday", "livingplace": "La Sagne"}}, "location": "Couvet"}, "BCN Tour Neuch\u00e2tel": {"latitude": 46.9899874, "longitude": 6.9292732, "race": "BCN Tour Neuch\u00e2tel", "date": {"mer. 30.05.2012": {"year": 2012, "day": 30, "month": 5, "categories": {"HS1": {"distance": 11, "rank": 8, "pace": 233000000000, "time": 2620.7}}, "weekday": "wednesday", "livingplace": "La Sagne"}, "mer. 25.05.2011": {"year": 2011, "day": 25, "month": 5, "categories": {"HS1": {"distance": 11, "rank": 5, "pace": 227000000000, "time": 2594.7}}, "weekday": "wednesday", "livingplace": "La Sagne"}}, "location": "Neuch\u00e2tel"}, "BCN Tour Boudry": {"latitude": 46.9668714, "longitude": 6.8589727, "race": "BCN Tour Boudry", "date": {"mer. 26.04.2006": {"year": 2006, "day": 26, "month": 4, "categories": {"HE": {"distance": 10, "rank": 3, "pace": 211000000000, "time": 2161.8}}, "weekday": "wednesday", "livingplace": "La Sagne"}}, "location": "Colombier NE"}, "BCN Tour Le Landeron": {"latitude": 46.9668714, "longitude": 6.8589727, "race": "BCN Tour Le Landeron", "date": {"mer. 22.04.2009": {"year": 2009, "day": 22, "month": 4, "categories": {"HS1": {"distance": 11, "rank": 4, "pace": 215000000000, "time": 2396.7}}, "weekday": "wednesday", "livingplace": "La Sagne"}}, "location": "Colombier NE"}, "BCN Tour Cornaux": {"latitude": 46.9668714, "longitude": 6.8589727, "race": "BCN Tour Cornaux", "date": {"mer. 25.04.2012": {"year": 2012, "day": 25, "month": 4, "categories": {"HS1": {"distance": 11, "rank": 5, "pace": 238000000000, "time": 2619.8}}, "weekday": "wednesday", "livingplace": "La Sagne"}}, "location": "Colombier NE"}, "BCN Tour Colombier": {"latitude": 47.1034892, "longitude": 6.832783800000001, "race": "BCN Tour Colombier", "date": {"mer. 16.05.2012": {"year": 2012, "day": 16, "month": 5, "categories": {"HS1": {"distance": 11, "rank": 4, "pace": 218000000000, "time": 2364.7}}, "weekday": "wednesday", "livingplace": "La Sagne"}}, "location": "La Chaux-de-Fonds"}}, "birth": 1979}