{"name": "Sigrist Jeannette", "sex": "F", "races": {"Lucerne Marathon, Luzern": {"latitude": 47.05016819999999, "longitude": 8.3093072, "race": "Lucerne Marathon, Luzern", "date": {"dim. 31.10.2010": {"year": 2010, "day": 31, "month": 10, "categories": {"H-F30": {"distance": 21, "rank": 105, "pace": 305000000000, "time": 6438.0}}, "weekday": "sunday", "livingplace": "Oberwil"}}, "location": "Luzern"}, "Gippinger Stauseelauf": {"latitude": 47.5810513, "longitude": 8.2152586, "race": "Gippinger Stauseelauf", "date": {"ven. 31.12.2010": {"year": 2010, "day": 31, "month": 12, "categories": {"7-F30": {"distance": 8, "rank": 6, "pace": 268000000000, "time": 2025.4}}, "weekday": "friday", "livingplace": "Oberwil"}}, "location": "Leuggern"}, "ASICS Bremgarter Reusslauf": {"latitude": 47.34917739999999, "longitude": 8.3397905, "race": "ASICS Bremgarter Reusslauf", "date": {"sam. 28.02.2015": {"year": 2015, "day": 28, "month": 2, "categories": {"11-F30": {"distance": 11, "rank": 40, "pace": 279000000000, "time": 3070.9}}, "weekday": "saturday", "livingplace": "Rodersdorf"}}, "location": "Bremgarten AG"}, "Basler Stadtlauf": {"latitude": 47.5595986, "longitude": 7.5885761, "race": "Basler Stadtlauf", "date": {"sam. 29.11.2014": {"year": 2014, "day": 29, "month": 11, "categories": {"F35": {"distance": 6, "rank": 31, "pace": 276000000000, "time": 1521.2}}, "weekday": "saturday", "livingplace": "Rodersdorf"}, "sam. 30.11.2013": {"year": 2013, "day": 30, "month": 11, "categories": {"F35": {"distance": 6, "rank": 34, "pace": 279000000000, "time": 1535.6}}, "weekday": "saturday", "livingplace": "Rodersdorf"}, "sam. 24.11.2012": {"year": 2012, "day": 24, "month": 11, "categories": {"F35": {"distance": 6, "rank": 38, "pace": 281000000000, "time": 1547.8}}, "weekday": "saturday", "livingplace": "Rodersdorf"}}, "location": "Basel"}, "Schweizer Frauenlauf Bern": {"latitude": 46.9479739, "longitude": 7.4474468, "race": "Schweizer Frauenlauf Bern", "date": {"dim. 14.06.2015": {"year": 2015, "day": 14, "month": 6, "categories": {"10-W35": {"distance": 10, "rank": 42, "pace": 289000000000, "time": 2897.5}}, "weekday": "sunday", "livingplace": "Rodersdorf"}}, "location": "Bern"}, "Kerzerslauf": {"latitude": 46.97488999999999, "longitude": 7.1954365, "race": "Kerzerslauf", "date": {"sam. 21.03.2015": {"year": 2015, "day": 21, "month": 3, "categories": {"15-F35": {"distance": 15, "rank": 36, "pace": 290000000000, "time": 4360.7}}, "weekday": "saturday", "livingplace": "Rodersdorf"}}, "location": "Kerzers"}, "Hallwilerseelauf, Beinwil am See": {"latitude": NaN, "longitude": NaN, "race": "Hallwilerseelauf, Beinwil am See", "date": {"sam. 16.10.2010": {"year": 2010, "day": 16, "month": 10, "categories": {"21-F30": {"distance": 21, "rank": 41, "pace": 284000000000, "time": 6011.5}}, "weekday": "saturday", "livingplace": "Oberwil"}}, "location": "Beinwil am See"}, "Z\u00fcrcher Silvesterlauf, Z\u00fcrich": {"latitude": 47.3768866, "longitude": 8.541694, "race": "Z\u00fcrcher Silvesterlauf, Z\u00fcrich", "date": {"dim. 14.12.2014": {"year": 2014, "day": 14, "month": 12, "categories": {"10-F30": {"distance": 10, "rank": 59, "pace": 283000000000, "time": 2831.2}}, "weekday": "sunday", "livingplace": "Rodersdorf"}}, "location": "Z\u00fcrich"}, "Z\u00fcrich Marathon, Teamrun und Cityrun": {"latitude": 47.3768866, "longitude": 8.541694, "race": "Z\u00fcrich Marathon, Teamrun und Cityrun", "date": {"dim. 17.04.2011": {"year": 2011, "day": 17, "month": 4, "categories": {"42-W30": {"distance": 42, "rank": 39, "pace": 308000000000, "time": 12999.8}}, "weekday": "sunday", "livingplace": "Oberwil"}}, "location": "Z\u00fcrich"}}, "birth": 1976}