{"name": "Simon-Vermot Emmanuel", "sex": "M", "races": {"BCN Tour Les Ponts-de-Martel": {"latitude": 46.999113, "longitude": 6.733554799999999, "race": "BCN Tour Les Ponts-de-Martel", "date": {"mer. 09.05.2012": {"year": 2012, "day": 9, "month": 5, "categories": {"HS2": {"distance": 10, "rank": 151, "pace": 311000000000, "time": 3211.0}}, "weekday": "wednesday", "livingplace": "Savagnier"}}, "location": "Les Ponts-de-Martel"}, "BCN Tour M\u00f4tier": {"latitude": 46.9262933, "longitude": 6.6324944, "race": "BCN Tour M\u00f4tier", "date": {"mer. 19.05.2010": {"year": 2010, "day": 19, "month": 5, "categories": {"HS2": {"distance": 10, "rank": 159, "pace": 300000000000, "time": 2979.8}}, "weekday": "wednesday", "livingplace": "Savagnier"}}, "location": "Couvet"}, "BCN Tour La Br\u00e9vine": {"latitude": 46.999113, "longitude": 6.733554799999999, "race": "BCN Tour La Br\u00e9vine", "date": {"mer. 04.05.2011": {"year": 2011, "day": 4, "month": 5, "categories": {"HS2": {"distance": 10, "rank": 152, "pace": 313000000000, "time": 3136.4}}, "weekday": "wednesday", "livingplace": "Savagnier"}}, "location": "Les Ponts-de-Martel"}, "BCN Tour Fontaine Cernier": {"latitude": 47.0624261, "longitude": 6.9175754, "race": "BCN Tour Fontaine Cernier", "date": {"mer. 27.04.2011": {"year": 2011, "day": 27, "month": 4, "categories": {"HS2": {"distance": 10, "rank": 162, "pace": 296000000000, "time": 3055.7}}, "weekday": "wednesday", "livingplace": "Savagnier"}}, "location": "Ch\u00e9zard-St-Martin"}, "BCN Tour Neuch\u00e2tel": {"latitude": 46.9899874, "longitude": 6.9292732, "race": "BCN Tour Neuch\u00e2tel", "date": {"mer. 26.05.2010": {"year": 2010, "day": 26, "month": 5, "categories": {"HS2": {"distance": 10, "rank": 147, "pace": 353000000000, "time": 3426.6}}, "weekday": "wednesday", "livingplace": "Savagnier"}, "mer. 30.05.2012": {"year": 2012, "day": 30, "month": 5, "categories": {"HS2": {"distance": 11, "rank": 143, "pace": 319000000000, "time": 3574.0}}, "weekday": "wednesday", "livingplace": "Savagnier"}, "mer. 25.05.2011": {"year": 2011, "day": 25, "month": 5, "categories": {"HS2": {"distance": 11, "rank": 164, "pace": 322000000000, "time": 3680.0}}, "weekday": "wednesday", "livingplace": "Savagnier"}}, "location": "Neuch\u00e2tel"}, "BCN Tour Les Ponts de Martel": {"latitude": 46.9262933, "longitude": 6.6324944, "race": "BCN Tour Les Ponts de Martel", "date": {"mer. 18.05.2011": {"year": 2011, "day": 18, "month": 5, "categories": {"HS2": {"distance": 13, "rank": 160, "pace": 318000000000, "time": 4072.9}}, "weekday": "wednesday", "livingplace": "Savagnier"}}, "location": "Couvet"}, "BCN Tour La Chaux-de-Fonds": {"latitude": 46.9262933, "longitude": 6.6324944, "race": "BCN Tour La Chaux-de-Fonds", "date": {"mer. 23.05.2012": {"year": 2012, "day": 23, "month": 5, "categories": {"HS2": {"distance": 11, "rank": 160, "pace": 313000000000, "time": 3381.5}}, "weekday": "wednesday", "livingplace": "Savagnier"}}, "location": "Couvet"}, "BCN Tour Le Locle": {"latitude": 46.999113, "longitude": 6.733554799999999, "race": "BCN Tour Le Locle", "date": {"mer. 05.05.2010": {"year": 2010, "day": 5, "month": 5, "categories": {"HS2": {"distance": 11, "rank": 154, "pace": 316000000000, "time": 3448.7}}, "weekday": "wednesday", "livingplace": "Savagnier"}}, "location": "Les Ponts-de-Martel"}, "BCN Tour Colombier": {"latitude": 47.1034892, "longitude": 6.832783800000001, "race": "BCN Tour Colombier", "date": {"mer. 16.05.2012": {"year": 2012, "day": 16, "month": 5, "categories": {"HS2": {"distance": 11, "rank": 156, "pace": 301000000000, "time": 3254.5}}, "weekday": "wednesday", "livingplace": "Savagnier"}}, "location": "La Chaux-de-Fonds"}}, "birth": 1968}