{"name": "Smania Alexis", "sex": "M", "races": {"BCN Tour #1 Corcelles": {"latitude": 46.9668714, "longitude": 6.8589727, "race": "BCN Tour #1 Corcelles", "date": {"mer. 24.04.2013": {"year": 2013, "day": 24, "month": 4, "categories": {"KG1": {"distance": 2, "rank": 30, "pace": 351000000000, "time": 526.8}}, "weekday": "wednesday", "livingplace": "Cormondreche"}}, "location": "Colombier NE"}, "BCN Tour M\u00f4tier": {"latitude": 46.9262933, "longitude": 6.6324944, "race": "BCN Tour M\u00f4tier", "date": {"mer. 19.05.2010": {"year": 2010, "day": 19, "month": 5, "categories": {"KG1": {"distance": 2, "rank": 104, "pace": 359000000000, "time": 646.6}}, "weekday": "wednesday", "livingplace": "Cormondreche"}}, "location": "Couvet"}, "BCN Tour Fontaine Cernier": {"latitude": 47.0624261, "longitude": 6.9175754, "race": "BCN Tour Fontaine Cernier", "date": {"mer. 27.04.2011": {"year": 2011, "day": 27, "month": 4, "categories": {"KG1": {"distance": 2, "rank": 106, "pace": 394000000000, "time": 670.7}}, "weekday": "wednesday", "livingplace": "Cormondreche"}}, "location": "Ch\u00e9zard-St-Martin"}, "BCN Tour Couvet": {"latitude": 47.0624261, "longitude": 6.9175754, "race": "BCN Tour Couvet", "date": {"mer. 02.05.2012": {"year": 2012, "day": 2, "month": 5, "categories": {"KG1": {"distance": 2, "rank": 51, "pace": 314000000000, "time": 565.6}}, "weekday": "wednesday", "livingplace": "Cormondreche"}}, "location": "Ch\u00e9zard-St-Martin"}, "BCN Tour Auvernier": {"latitude": 46.9668714, "longitude": 6.8589727, "race": "BCN Tour Auvernier", "date": {"mer. 20.04.2011": {"year": 2011, "day": 20, "month": 4, "categories": {"KG1": {"distance": 1, "rank": 71, "pace": 312000000000, "time": 421.5}}, "weekday": "wednesday", "livingplace": "Cormondreche"}}, "location": "Colombier NE"}, "BCN Tour Cornaux": {"latitude": 46.9668714, "longitude": 6.8589727, "race": "BCN Tour Cornaux", "date": {"mer. 25.04.2012": {"year": 2012, "day": 25, "month": 4, "categories": {"KG1": {"distance": 2, "rank": 29, "pace": 292000000000, "time": 439.3}}, "weekday": "wednesday", "livingplace": "Cormondreche"}}, "location": "Colombier NE"}, "BCN Tour La Chaux-de-Fonds": {"latitude": 46.9262933, "longitude": 6.6324944, "race": "BCN Tour La Chaux-de-Fonds", "date": {"mer. 23.05.2012": {"year": 2012, "day": 23, "month": 5, "categories": {"KG1": {"distance": 2, "rank": 60, "pace": 375000000000, "time": 826.9}}, "weekday": "wednesday", "livingplace": "Cormondreche"}}, "location": "Couvet"}, "BCN Tour #6 Neuch\u00e2tel": {"latitude": 46.9899874, "longitude": 6.9292732, "race": "BCN Tour #6 Neuch\u00e2tel", "date": {"mer. 29.05.2013": {"year": 2013, "day": 29, "month": 5, "categories": {"KG1": {"distance": 1, "rank": 70, "pace": 288000000000, "time": 375.1}}, "weekday": "wednesday", "livingplace": "Cormondreche"}}, "location": "Neuch\u00e2tel"}, "BCN Tour Neuch\u00e2tel": {"latitude": 46.9899874, "longitude": 6.9292732, "race": "BCN Tour Neuch\u00e2tel", "date": {"mer. 26.05.2010": {"year": 2010, "day": 26, "month": 5, "categories": {"KG1": {"distance": 2, "rank": 135, "pace": 354000000000, "time": 532.2}}, "weekday": "wednesday", "livingplace": "Cormondreche"}, "mer. 30.05.2012": {"year": 2012, "day": 30, "month": 5, "categories": {"KG1": {"distance": 2, "rank": 45, "pace": 298000000000, "time": 523.2}}, "weekday": "wednesday", "livingplace": "Cormondreche"}, "mer. 25.05.2011": {"year": 2011, "day": 25, "month": 5, "categories": {"KG1": {"distance": 2, "rank": 117, "pace": 331000000000, "time": 662.5}}, "weekday": "wednesday", "livingplace": "Cormondreche"}}, "location": "Neuch\u00e2tel"}, "BCN Tour Les Ponts de Martel": {"latitude": 46.9262933, "longitude": 6.6324944, "race": "BCN Tour Les Ponts de Martel", "date": {"mer. 18.05.2011": {"year": 2011, "day": 18, "month": 5, "categories": {"KG1": {"distance": 2, "rank": 119, "pace": 354000000000, "time": 698.5}}, "weekday": "wednesday", "livingplace": "Cormondreche"}}, "location": "Couvet"}, "BCN Tour Ponts-de-Martel": {"latitude": 47.0624261, "longitude": 6.9175754, "race": "BCN Tour Ponts-de-Martel", "date": {"mer. 28.04.2010": {"year": 2010, "day": 28, "month": 4, "categories": {"KG1": {"distance": 2, "rank": 146, "pace": 347000000000, "time": 764.4}}, "weekday": "wednesday", "livingplace": "Cormondreche"}}, "location": "Ch\u00e9zard-St-Martin"}, "BCN Tour #2 La Chaux-de-Fonds": {"latitude": 47.0624261, "longitude": 6.9175754, "race": "BCN Tour #2 La Chaux-de-Fonds", "date": {"mer. 01.05.2013": {"year": 2013, "day": 1, "month": 5, "categories": {"KG1": {"distance": 1, "rank": 42, "pace": 283000000000, "time": 368.8}}, "weekday": "wednesday", "livingplace": "Cormondreche"}}, "location": "Ch\u00e9zard-St-Martin"}, "BCN Tour La Chaux-de-fonds": {"latitude": 47.1034892, "longitude": 6.832783800000001, "race": "BCN Tour La Chaux-de-fonds", "date": {"mer. 12.05.2010": {"year": 2010, "day": 12, "month": 5, "categories": {"KG1": {"distance": 1, "rank": 92, "pace": 1085000000000, "time": 1053.1}}, "weekday": "wednesday", "livingplace": "Cormondreche"}}, "location": "La Chaux-de-Fonds"}, "BCN Tour Colombier": {"latitude": 46.9668714, "longitude": 6.8589727, "race": "BCN Tour Colombier", "date": {"mer. 16.05.2012": {"year": 2012, "day": 16, "month": 5, "categories": {"KG1": {"distance": 2, "rank": 69, "pace": 372000000000, "time": 558.6}}, "weekday": "wednesday", "livingplace": "Cormondreche"}, "mer. 21.04.2010": {"year": 2010, "day": 21, "month": 4, "categories": {"KG1": {"distance": 2, "rank": 85, "pace": 440000000000, "time": 881.4}}, "weekday": "wednesday", "livingplace": "Cormondreche"}}, "location": "Colombier NE"}}, "birth": 2005}