{"name": "Soguel Archibald", "sex": "M", "races": {"Grand Prix Craft, Neuch\u00e2tel": {"latitude": 46.9899874, "longitude": 6.9292732, "race": "Grand Prix Craft, Neuch\u00e2tel", "date": {"dim. 16.12.2007": {"year": 2007, "day": 16, "month": 12, "categories": {"KG2": {"distance": 1, "rank": 2, "pace": 218000000000, "time": 305.7}}, "weekday": "sunday", "livingplace": "Anco"}, "dim. 17.12.2006": {"year": 2006, "day": 17, "month": 12, "categories": {"KG2": {"distance": 1, "rank": 3, "pace": 201000000000, "time": 281.5}}, "weekday": "sunday", "livingplace": "Neuchatel"}}, "location": "Neuch\u00e2tel"}, "BCN Tour Neuch\u00e2tel": {"latitude": 46.9899874, "longitude": 6.9292732, "race": "BCN Tour Neuch\u00e2tel", "date": {"mer. 26.05.2010": {"year": 2010, "day": 26, "month": 5, "categories": {"HJ": {"distance": 10, "rank": 12, "pace": 280000000000, "time": 2719.6}}, "weekday": "wednesday", "livingplace": "Neuchatel"}, "mer. 25.05.2011": {"year": 2011, "day": 25, "month": 5, "categories": {"HJ": {"distance": 11, "rank": 40, "pace": 302000000000, "time": 3443.0}}, "weekday": "wednesday", "livingplace": "Neuchatel"}}, "location": "Neuch\u00e2tel"}, "BCN Tour Le Landeron": {"latitude": 46.9668714, "longitude": 6.8589727, "race": "BCN Tour Le Landeron", "date": {"mer. 22.04.2009": {"year": 2009, "day": 22, "month": 4, "categories": {"KG3": {"distance": 4, "rank": 4, "pace": 232000000000, "time": 930.5}}, "weekday": "wednesday", "livingplace": "Anco"}}, "location": "Colombier NE"}, "Groupe E Tour Fribourg #2 Kerzers": {"latitude": 46.6175845, "longitude": 7.1654493, "race": "Groupe E Tour Fribourg #2 Kerzers", "date": {"mer. 28.08.2013": {"year": 2013, "day": 28, "month": 8, "categories": {"HJ": {"distance": 12, "rank": 1, "pace": 219000000000, "time": 2604.3}}, "weekday": "wednesday", "livingplace": "Neuchatel"}}, "location": "Charmey (Gruy\u00e8re)"}, "20km de Lausanne": {"latitude": 46.5196535, "longitude": 6.6322734, "race": "20km de Lausanne", "date": {"sam. 24.04.2010": {"year": 2010, "day": 24, "month": 4, "categories": {"4-CadM": {"distance": 4, "rank": 24, "pace": 229000000000, "time": 916.3}}, "weekday": "saturday", "livingplace": "Neuchatel"}, "sam. 25.04.2009": {"year": 2009, "day": 25, "month": 4, "categories": {"EcolA-M": {"distance": 4, "rank": 10, "pace": 237000000000, "time": 950.9}}, "weekday": "saturday", "livingplace": "Neuchatel"}}, "location": "Lausanne"}, "BCN Tour #1 Corcelles": {"latitude": 46.9668714, "longitude": 6.8589727, "race": "BCN Tour #1 Corcelles", "date": {"mer. 24.04.2013": {"year": 2013, "day": 24, "month": 4, "categories": {"HJ": {"distance": 10, "rank": 6, "pace": 241000000000, "time": 2367.1}}, "weekday": "wednesday", "livingplace": "Neuchatel"}}, "location": "Colombier NE"}, "BCN Tour Auvernier": {"latitude": 46.9668714, "longitude": 6.8589727, "race": "BCN Tour Auvernier", "date": {"mer. 20.04.2011": {"year": 2011, "day": 20, "month": 4, "categories": {"HJ": {"distance": 11, "rank": 17, "pace": 285000000000, "time": 3083.5}}, "weekday": "wednesday", "livingplace": "Neuchatel"}}, "location": "Colombier NE"}, "BCN Tour #4 Fleurier": {"latitude": 47.1034892, "longitude": 6.832783800000001, "race": "BCN Tour #4 Fleurier", "date": {"mer. 15.05.2013": {"year": 2013, "day": 15, "month": 5, "categories": {"HJ": {"distance": 9, "rank": 5, "pace": 229000000000, "time": 1988.4}}, "weekday": "wednesday", "livingplace": "Neuchatel"}}, "location": "La Chaux-de-Fonds"}, "BCN Tour #2 La Chaux-de-Fonds": {"latitude": 47.0624261, "longitude": 6.9175754, "race": "BCN Tour #2 La Chaux-de-Fonds", "date": {"mer. 01.05.2013": {"year": 2013, "day": 1, "month": 5, "categories": {"HJ": {"distance": 11, "rank": 6, "pace": 231000000000, "time": 2481.6}}, "weekday": "wednesday", "livingplace": "Neuchatel"}}, "location": "Ch\u00e9zard-St-Martin"}, "BCN Tour La Chaux-de-Fonds": {"latitude": 47.1034892, "longitude": 6.832783800000001, "race": "BCN Tour La Chaux-de-Fonds", "date": {"mer. 23.05.2012": {"year": 2012, "day": 23, "month": 5, "categories": {"HJ": {"distance": 11, "rank": 6, "pace": 241000000000, "time": 2609.8}}, "weekday": "wednesday", "livingplace": "Neuchatel"}, "mer. 11.05.2011": {"year": 2011, "day": 11, "month": 5, "categories": {"KG4": {"distance": 4, "rank": 6, "pace": 175000000000, "time": 686.2}}, "weekday": "wednesday", "livingplace": "Neuchatel"}}, "location": "La Chaux-de-Fonds"}, "BCN Tour Les Ponts-de-Martel": {"latitude": 46.999113, "longitude": 6.733554799999999, "race": "BCN Tour Les Ponts-de-Martel", "date": {"mer. 09.05.2012": {"year": 2012, "day": 9, "month": 5, "categories": {"HJ": {"distance": 10, "rank": 10, "pace": 261000000000, "time": 2692.0}}, "weekday": "wednesday", "livingplace": "Neuchatel"}}, "location": "Les Ponts-de-Martel"}, "BCN Tour Ponts-de-Martel": {"latitude": 47.0624261, "longitude": 6.9175754, "race": "BCN Tour Ponts-de-Martel", "date": {"mer. 28.04.2010": {"year": 2010, "day": 28, "month": 4, "categories": {"HJ": {"distance": 11, "rank": 15, "pace": 275000000000, "time": 3084.8}}, "weekday": "wednesday", "livingplace": "Neuchatel"}}, "location": "Ch\u00e9zard-St-Martin"}, "BCN Tour #5 Colombier": {"latitude": 46.9262933, "longitude": 6.6324944, "race": "BCN Tour #5 Colombier", "date": {"mer. 22.05.2013": {"year": 2013, "day": 22, "month": 5, "categories": {"HJ": {"distance": 11, "rank": 5, "pace": 219000000000, "time": 2303.8}}, "weekday": "wednesday", "livingplace": "Neuchatel"}}, "location": "Couvet"}, "Kerzerslauf": {"latitude": 46.97488999999999, "longitude": 7.1954365, "race": "Kerzerslauf", "date": {"sam. 15.03.2008": {"year": 2008, "day": 15, "month": 3, "categories": {"2/M13": {"distance": 1, "rank": 12, "pace": 199000000000, "time": 279.1}}, "weekday": "saturday", "livingplace": "Neuchatel"}, "sam. 17.03.2007": {"year": 2007, "day": 17, "month": 3, "categories": {"M11": {"distance": 1, "rank": 5, "pace": 212000000000, "time": 296.8}}, "weekday": "saturday", "livingplace": "Neuchatel"}}, "location": "Kerzers"}, "Course p\u00e9destre Thyon-Dixence, Thyon": {"latitude": NaN, "longitude": NaN, "race": "Course p\u00e9destre Thyon-Dixence, Thyon", "date": {"dim. 05.08.2012": {"year": 2012, "day": 5, "month": 8, "categories": {"JunHom": {"distance": 16, "rank": 1, "pace": 335000000000, "time": 5487.4}}, "weekday": "sunday", "livingplace": "Neuchatel"}, "dim. 03.08.2014": {"year": 2014, "day": 3, "month": 8, "categories": {"JunHom": {"distance": 16, "rank": 3, "pace": 317000000000, "time": 5196.3}}, "weekday": "sunday", "livingplace": "Neuchatel"}}, "location": "Thyon-Les Collons"}, "Gempenlauf, Dornach": {"latitude": 47.4790491, "longitude": 7.6170412, "race": "Gempenlauf, Dornach", "date": {"mer. 29.05.2013": {"year": 2013, "day": 29, "month": 5, "categories": {"M18": {"distance": 8, "rank": 17, "pace": 260000000000, "time": 2032.9}}, "weekday": "wednesday", "livingplace": "Neuchatel"}, "mer. 04.06.2014": {"year": 2014, "day": 4, "month": 6, "categories": {"M18": {"distance": 8, "rank": 21, "pace": 265000000000, "time": 2069.9}}, "weekday": "wednesday", "livingplace": "Neuchatel"}}, "location": "Dornach"}, "Course de l'Escalade, Gen\u00e8ve": {"latitude": 46.2043907, "longitude": 6.1431577, "race": "Course de l'Escalade, Gen\u00e8ve", "date": {"sam. 01.12.2007": {"year": 2007, "day": 1, "month": 12, "categories": {"HEcolB": {"distance": 2, "rank": 18, "pace": 232000000000, "time": 538.3}}, "weekday": "saturday", "livingplace": "Neuchatel"}, "sam. 02.12.2006": {"year": 2006, "day": 2, "month": 12, "categories": {"HEcolB": {"distance": 2, "rank": 7, "pace": 226000000000, "time": 525.5}}, "weekday": "saturday", "livingplace": "Neuchatel"}, "sam. 03.12.2005": {"year": 2005, "day": 3, "month": 12, "categories": {"HEcolB": {"distance": 2, "rank": 11, "pace": 236000000000, "time": 549.1}}, "weekday": "saturday", "livingplace": "Neuchatel"}, "sam. 05.12.2015": {"year": 2015, "day": 5, "month": 12, "categories": {"Elite-M": {"distance": 7, "rank": 111, "pace": 207000000000, "time": 1521.2}}, "weekday": "saturday", "livingplace": "Neuchatel"}, "sam. 04.12.2010": {"year": 2010, "day": 4, "month": 12, "categories": {"H-CB": {"distance": 5, "rank": 54, "pace": 230000000000, "time": 1101.2}}, "weekday": "saturday", "livingplace": "Neuchatel"}}, "location": "Gen\u00e8ve"}, "BCN Tour Fontaine Cernier": {"latitude": 47.0624261, "longitude": 6.9175754, "race": "BCN Tour Fontaine Cernier", "date": {"mer. 27.04.2011": {"year": 2011, "day": 27, "month": 4, "categories": {"HJ": {"distance": 10, "rank": 24, "pace": 266000000000, "time": 2748.9}}, "weekday": "wednesday", "livingplace": "Neuchatel"}}, "location": "Ch\u00e9zard-St-Martin"}, "Int  Bieler Cross, Biel-Bienne": {"latitude": 47.1367785, "longitude": 7.2467909, "race": "Int  Bieler Cross, Biel-Bienne", "date": {"dim. 10.11.2013": {"year": 2013, "day": 10, "month": 11, "categories": {"MU18": {"distance": 5, "rank": 3, "pace": 198000000000, "time": 954.4}}, "weekday": "sunday", "livingplace": "Anco"}}, "location": "Biel/Bienne"}, "Sierre-Zinal, Sierre": {"latitude": 46.29413110000001, "longitude": 7.533536199999999, "race": "Sierre-Zinal, Sierre", "date": {"dim. 12.08.2012": {"year": 2012, "day": 12, "month": 8, "categories": {"Jun_Homm": {"distance": 19, "rank": 12, "pace": 330000000000, "time": 6274.5}}, "weekday": "sunday", "livingplace": "Neuchatel"}, "dim. 09.08.2015": {"year": 2015, "day": 9, "month": 8, "categories": {"Jun_Homm": {"distance": 19, "rank": 8, "pace": 290000000000, "time": 5516.5}}, "weekday": "sunday", "livingplace": "Neuchatel"}}, "location": "Sierre"}, "BCN Tour Le Locle": {"latitude": 46.999113, "longitude": 6.733554799999999, "race": "BCN Tour Le Locle", "date": {"mer. 05.05.2010": {"year": 2010, "day": 5, "month": 5, "categories": {"KG4": {"distance": 4, "rank": 5, "pace": 219000000000, "time": 811.1}}, "weekday": "wednesday", "livingplace": "Neuchatel"}}, "location": "Les Ponts-de-Martel"}, "BCN Tour Couvet": {"latitude": 47.0624261, "longitude": 6.9175754, "race": "BCN Tour Couvet", "date": {"mer. 02.05.2012": {"year": 2012, "day": 2, "month": 5, "categories": {"HJ": {"distance": 11, "rank": 4, "pace": 244000000000, "time": 2725.7}}, "weekday": "wednesday", "livingplace": "Neuchatel"}}, "location": "Ch\u00e9zard-St-Martin"}, "Groupe E Tour Fribourg #3, Kerzers": {"latitude": 46.97488999999999, "longitude": 7.1954365, "race": "Groupe E Tour Fribourg #3, Kerzers", "date": {"mer. 03.09.2014": {"year": 2014, "day": 3, "month": 9, "categories": {"H-Jun": {"distance": 10, "rank": 2, "pace": 225000000000, "time": 2290.9}}, "weekday": "wednesday", "livingplace": "Neuchatel"}}, "location": "Kerzers"}, "BCN Tour La Br\u00e9vine": {"latitude": 46.999113, "longitude": 6.733554799999999, "race": "BCN Tour La Br\u00e9vine", "date": {"mer. 04.05.2011": {"year": 2011, "day": 4, "month": 5, "categories": {"HJ": {"distance": 10, "rank": 16, "pace": 274000000000, "time": 2744.8}}, "weekday": "wednesday", "livingplace": "Neuchatel"}}, "location": "Les Ponts-de-Martel"}, "Groupe E Tour Fribourg #5 Fribourg": {"latitude": 46.8128615, "longitude": 7.131657799999999, "race": "Groupe E Tour Fribourg #5 Fribourg", "date": {"mer. 18.09.2013": {"year": 2013, "day": 18, "month": 9, "categories": {"HJ": {"distance": 10, "rank": 2, "pace": 214000000000, "time": 2146.2}}, "weekday": "wednesday", "livingplace": "Neuchatel"}}, "location": "Givisiez"}, "BCN Tour Les Ponts de Martel": {"latitude": 46.9262933, "longitude": 6.6324944, "race": "BCN Tour Les Ponts de Martel", "date": {"mer. 18.05.2011": {"year": 2011, "day": 18, "month": 5, "categories": {"KG4": {"distance": 4, "rank": 7, "pace": 221000000000, "time": 862.1}}, "weekday": "wednesday", "livingplace": "Neuchatel"}}, "location": "Couvet"}, "BCN Tour Boudry": {"latitude": 46.9668714, "longitude": 6.8589727, "race": "BCN Tour Boudry", "date": {"mer. 26.04.2006": {"year": 2006, "day": 26, "month": 4, "categories": {"KG2": {"distance": 2, "rank": 3, "pace": 253000000000, "time": 481.1}}, "weekday": "wednesday", "livingplace": "Neuchatel"}}, "location": "Colombier NE"}, "BCN Tour La Chaux-de-fonds": {"latitude": 47.1034892, "longitude": 6.832783800000001, "race": "BCN Tour La Chaux-de-fonds", "date": {"mer. 12.05.2010": {"year": 2010, "day": 12, "month": 5, "categories": {"HJ": {"distance": 11, "rank": 41, "pace": 362000000000, "time": 3878.9}}, "weekday": "wednesday", "livingplace": "Neuchatel"}}, "location": "La Chaux-de-Fonds"}, "BCN Tour Colombier": {"latitude": 46.9668714, "longitude": 6.8589727, "race": "BCN Tour Colombier", "date": {"mer. 16.05.2012": {"year": 2012, "day": 16, "month": 5, "categories": {"HJ": {"distance": 11, "rank": 6, "pace": 239000000000, "time": 2588.5}}, "weekday": "wednesday", "livingplace": "Neuchatel"}, "mer. 23.04.2008": {"year": 2008, "day": 23, "month": 4, "categories": {"KG3": {"distance": 4, "rank": 5, "pace": 253000000000, "time": 1015.4}}, "weekday": "wednesday", "livingplace": "Anco"}, "mer. 21.04.2010": {"year": 2010, "day": 21, "month": 4, "categories": {"KG4": {"distance": 4, "rank": 7, "pace": 232000000000, "time": 931.2}}, "weekday": "wednesday", "livingplace": "Neuchatel"}}, "location": "Colombier NE"}}, "birth": 1996}