{"name": "Soguel Didier", "sex": "M", "races": {"Morat-Fribourg": {"latitude": 46.92922110000001, "longitude": 7.120184, "race": "Morat-Fribourg", "date": {"sam. 04.10.2014": {"year": 2014, "day": 4, "month": 10, "categories": {"17-M20": {"distance": 17, "rank": 1193, "pace": 310000000000, "time": 5338.0}}, "weekday": "saturday", "livingplace": "Peseux"}}, "location": "Murten"}, "La Trotteuse-Tissot, La Chaux-de-Fonds": {"latitude": 47.1034892, "longitude": 6.832783800000001, "race": "La Trotteuse-Tissot, La Chaux-de-Fonds", "date": {"sam. 14.12.2013": {"year": 2013, "day": 14, "month": 12, "categories": {"GC-H20": {"distance": 8, "rank": 78, "pace": 277000000000, "time": 2221.2}}, "weekday": "saturday", "livingplace": "Peseux"}, "sam. 13.12.2014": {"year": 2014, "day": 13, "month": 12, "categories": {"GC-H20": {"distance": 8, "rank": 109, "pace": 280000000000, "time": 2246.9}}, "weekday": "saturday", "livingplace": "Peseux"}, "sam. 08.12.2012": {"year": 2012, "day": 8, "month": 12, "categories": {"GC-H20": {"distance": 8, "rank": 93, "pace": 357000000000, "time": 2863.3}}, "weekday": "saturday", "livingplace": "Peseux"}, "sam. 12.12.2015": {"year": 2015, "day": 12, "month": 12, "categories": {"GC-H20": {"distance": 8, "rank": 243, "pace": 358000000000, "time": 2867.9}}, "weekday": "saturday", "livingplace": "Peseux"}}, "location": "La Chaux-de-Fonds"}, "BCN Tour #1 Corcelles": {"latitude": 46.9668714, "longitude": 6.8589727, "race": "BCN Tour #1 Corcelles", "date": {"mer. 24.04.2013": {"year": 2013, "day": 24, "month": 4, "categories": {"HE": {"distance": 10, "rank": 209, "pace": 314000000000, "time": 3085.6}}, "weekday": "wednesday", "livingplace": "Peseux"}}, "location": "Colombier NE"}, "BCN Tour #4 Fleurier": {"latitude": 47.1034892, "longitude": 6.832783800000001, "race": "BCN Tour #4 Fleurier", "date": {"mer. 15.05.2013": {"year": 2013, "day": 15, "month": 5, "categories": {"HE": {"distance": 9, "rank": 183, "pace": 298000000000, "time": 2579.6}}, "weekday": "wednesday", "livingplace": "Peseux"}}, "location": "La Chaux-de-Fonds"}, "BCN Tour #2 La Chaux-de-Fonds": {"latitude": 47.0624261, "longitude": 6.9175754, "race": "BCN Tour #2 La Chaux-de-Fonds", "date": {"mer. 01.05.2013": {"year": 2013, "day": 1, "month": 5, "categories": {"HE": {"distance": 11, "rank": 250, "pace": 313000000000, "time": 3351.0}}, "weekday": "wednesday", "livingplace": "Peseux"}}, "location": "Ch\u00e9zard-St-Martin"}, "BCN Tour La Chaux-de-Fonds": {"latitude": 46.9262933, "longitude": 6.6324944, "race": "BCN Tour La Chaux-de-Fonds", "date": {"mer. 23.05.2012": {"year": 2012, "day": 23, "month": 5, "categories": {"HE": {"distance": 11, "rank": 241, "pace": 363000000000, "time": 3928.7}}, "weekday": "wednesday", "livingplace": "Bevaix"}}, "location": "Couvet"}, "BCN Tour #6 Neuch\u00e2tel": {"latitude": 46.9899874, "longitude": 6.9292732, "race": "BCN Tour #6 Neuch\u00e2tel", "date": {"mer. 29.05.2013": {"year": 2013, "day": 29, "month": 5, "categories": {"HE": {"distance": 11, "rank": 235, "pace": 327000000000, "time": 3602.8}}, "weekday": "wednesday", "livingplace": "Peseux"}}, "location": "Neuch\u00e2tel"}, "BCN Tour Les Ponts-de-Martel": {"latitude": 46.999113, "longitude": 6.733554799999999, "race": "BCN Tour Les Ponts-de-Martel", "date": {"mer. 09.05.2012": {"year": 2012, "day": 9, "month": 5, "categories": {"HE": {"distance": 10, "rank": 224, "pace": 347000000000, "time": 3580.9}}, "weekday": "wednesday", "livingplace": "Bevaix"}}, "location": "Les Ponts-de-Martel"}, "BCN Tour Neuch\u00e2tel": {"latitude": 46.9899874, "longitude": 6.9292732, "race": "BCN Tour Neuch\u00e2tel", "date": {"mer. 30.05.2012": {"year": 2012, "day": 30, "month": 5, "categories": {"HE": {"distance": 11, "rank": 247, "pace": 372000000000, "time": 4174.5}}, "weekday": "wednesday", "livingplace": "Bevaix"}}, "location": "Neuch\u00e2tel"}, "Eiger Ultra Trail, Grindelwald": {"latitude": 46.624164, "longitude": 8.0413962, "race": "Eiger Ultra Trail, Grindelwald", "date": {"sam. 18.07.2015": {"year": 2015, "day": 18, "month": 7, "categories": {"C-H": {"distance": 16, "rank": 57, "pace": 480000000000, "time": 7689.7}}, "weekday": "saturday", "livingplace": "Peseux"}}, "location": "Grindelwald"}, "Kerzerslauf": {"latitude": 46.97488999999999, "longitude": 7.1954365, "race": "Kerzerslauf", "date": {"sam. 21.03.2015": {"year": 2015, "day": 21, "month": 3, "categories": {"15-M20": {"distance": 15, "rank": 506, "pace": 314000000000, "time": 4711.0}}, "weekday": "saturday", "livingplace": "Peseux"}}, "location": "Kerzers"}, "BCN Tour #3 Dombresson": {"latitude": 46.999113, "longitude": 6.733554799999999, "race": "BCN Tour #3 Dombresson", "date": {"mer. 08.05.2013": {"year": 2013, "day": 8, "month": 5, "categories": {"HE": {"distance": 10, "rank": 224, "pace": 306000000000, "time": 3032.0}}, "weekday": "wednesday", "livingplace": "Peseux"}}, "location": "Les Ponts-de-Martel"}}, "birth": 1988}