{"name": "Spicher Sven", "sex": "M", "races": {"Groupe E Tour Fribourg #4, Siviriez": {"latitude": 46.6585092, "longitude": 6.877722, "race": "Groupe E Tour Fribourg #4, Siviriez", "date": {"mer. 10.09.2014": {"year": 2014, "day": 10, "month": 9, "categories": {"EcolC-M": {"distance": 1, "rank": 11, "pace": 283000000000, "time": 354.8}}, "weekday": "wednesday", "livingplace": "Schmitten"}}, "location": "Siviriez"}, "Morat-Fribourg": {"latitude": 46.92922110000001, "longitude": 7.120184, "race": "Morat-Fribourg", "date": {"sam. 05.10.2013": {"year": 2013, "day": 5, "month": 10, "categories": {"EcolMD": {"distance": 1, "rank": 60, "pace": 259000000000, "time": 181.5}}, "weekday": "saturday", "livingplace": "Schmitten"}}, "location": "Murten"}, "Groupe E Tour Fribourg #2, Charmey": {"latitude": 46.6175845, "longitude": 7.1654493, "race": "Groupe E Tour Fribourg #2, Charmey", "date": {"mer. 27.08.2014": {"year": 2014, "day": 27, "month": 8, "categories": {"EcolC-M": {"distance": 1, "rank": 6, "pace": 307000000000, "time": 411.6}}, "weekday": "wednesday", "livingplace": "Schmitten"}}, "location": "Charmey (Gruy\u00e8re)"}, "Groupe E Tour Fribourg #5 Fribourg": {"latitude": 46.8128615, "longitude": 7.131657799999999, "race": "Groupe E Tour Fribourg #5 Fribourg", "date": {"mer. 18.09.2013": {"year": 2013, "day": 18, "month": 9, "categories": {"KGP": {"distance": 0, "rank": 1, "pace": 263000000000, "time": 126.5}}, "weekday": "wednesday", "livingplace": "Schmitten"}}, "location": "Givisiez"}, "Groupe E Tour Fribourg #3 Charmey": {"latitude": 46.97488999999999, "longitude": 7.1954365, "race": "Groupe E Tour Fribourg #3 Charmey", "date": {"mer. 04.09.2013": {"year": 2013, "day": 4, "month": 9, "categories": {"KGP": {"distance": 1, "rank": 1, "pace": 286000000000, "time": 157.5}}, "weekday": "wednesday", "livingplace": "Schmitten"}}, "location": "Kerzers"}, "Groupe E Tour Fribourg #2 Kerzers": {"latitude": 46.6175845, "longitude": 7.1654493, "race": "Groupe E Tour Fribourg #2 Kerzers", "date": {"mer. 28.08.2013": {"year": 2013, "day": 28, "month": 8, "categories": {"KGP": {"distance": 1, "rank": 7, "pace": 402000000000, "time": 241.4}}, "weekday": "wednesday", "livingplace": "Schmitten"}}, "location": "Charmey (Gruy\u00e8re)"}, "Groupe E Tour Fribourg #5, Givisiez": {"latitude": 46.8128615, "longitude": 7.131657799999999, "race": "Groupe E Tour Fribourg #5, Givisiez", "date": {"mer. 17.09.2014": {"year": 2014, "day": 17, "month": 9, "categories": {"EcolC-M": {"distance": 2, "rank": 11, "pace": 283000000000, "time": 453.1}}, "weekday": "wednesday", "livingplace": "Schmitten"}}, "location": "Givisiez"}, "Groupe E Tour Fribourg #3, Kerzers": {"latitude": 46.97488999999999, "longitude": 7.1954365, "race": "Groupe E Tour Fribourg #3, Kerzers", "date": {"mer. 03.09.2014": {"year": 2014, "day": 3, "month": 9, "categories": {"EcolC-M": {"distance": 1, "rank": 15, "pace": 331000000000, "time": 398.2}}, "weekday": "wednesday", "livingplace": "Schmitten"}}, "location": "Kerzers"}, "Kerzerslauf": {"latitude": 46.97488999999999, "longitude": 7.1954365, "race": "Kerzerslauf", "date": {"sam. 15.03.2014": {"year": 2014, "day": 15, "month": 3, "categories": {"2-U10M": {"distance": 1, "rank": 85, "pace": 302000000000, "time": 423.6}}, "weekday": "saturday", "livingplace": "Schmitten"}, "sam. 16.03.2013": {"year": 2013, "day": 16, "month": 3, "categories": {"1-U08M": {"distance": 0, "rank": 65, "pace": 281000000000, "time": 84.5}}, "weekday": "saturday", "livingplace": "Schmitten"}}, "location": "Kerzers"}, "Groupe E Tour Fribourg #1, Cousset": {"latitude": 46.81832, "longitude": 6.977279999999999, "race": "Groupe E Tour Fribourg #1, Cousset", "date": {"mer. 20.08.2014": {"year": 2014, "day": 20, "month": 8, "categories": {"EcolC-M": {"distance": 1, "rank": 10, "pace": 270000000000, "time": 324.8}}, "weekday": "wednesday", "livingplace": "Schmitten"}}, "location": "Cousset"}}, "birth": 2006}