{"name": "Spielmann Rolf", "sex": "M", "races": {"Thuner Stadtlauf, Thun": {"latitude": 46.7579868, "longitude": 7.6279881, "race": "Thuner Stadtlauf, Thun", "date": {"dim. 24.08.2014": {"year": 2014, "day": 24, "month": 8, "categories": {"10-M40": {"distance": 11, "rank": 73, "pace": 286000000000, "time": 3079.8}}, "weekday": "sunday", "livingplace": "Lyss"}}, "location": "Thun"}, "Morat-Fribourg": {"latitude": 46.92922110000001, "longitude": 7.120184, "race": "Morat-Fribourg", "date": {"sam. 04.10.2014": {"year": 2014, "day": 4, "month": 10, "categories": {"17-M45": {"distance": 17, "rank": 536, "pace": 345000000000, "time": 5929.5}}, "weekday": "saturday", "livingplace": "Lyss"}}, "location": "Murten"}, "Basler Stadtlauf": {"latitude": 47.5595986, "longitude": 7.5885761, "race": "Basler Stadtlauf", "date": {"sam. 29.11.2014": {"year": 2014, "day": 29, "month": 11, "categories": {"M45": {"distance": 6, "rank": 173, "pace": 269000000000, "time": 1482.8}}, "weekday": "saturday", "livingplace": "Lyss"}}, "location": "Basel"}, "Ch\u00e4sitzerlouf, Kehrsatz": {"latitude": NaN, "longitude": NaN, "race": "Ch\u00e4sitzerlouf, Kehrsatz", "date": {"sam. 26.04.2014": {"year": 2014, "day": 26, "month": 4, "categories": {"12-M40": {"distance": 12, "rank": 155, "pace": 315000000000, "time": 3788.3}}, "weekday": "saturday", "livingplace": "Lyss"}}, "location": "Kehrsatz"}, "Badener Limmat-Lauf, Baden": {"latitude": 48.5699281, "longitude": 8.5303972, "race": "Badener Limmat-Lauf, Baden", "date": {"sam. 29.03.2014": {"year": 2014, "day": 29, "month": 3, "categories": {"M40": {"distance": 13, "rank": 179, "pace": 321000000000, "time": 4234.4}}, "weekday": "saturday", "livingplace": "Lyss"}}, "location": "Baden"}, "Kerzerslauf": {"latitude": 46.97488999999999, "longitude": 7.1954365, "race": "Kerzerslauf", "date": {"sam. 21.03.2015": {"year": 2015, "day": 21, "month": 3, "categories": {"5-M20": {"distance": 5, "rank": 68, "pace": 281000000000, "time": 1409.2}}, "weekday": "saturday", "livingplace": "Lyss"}, "sam. 15.03.2014": {"year": 2014, "day": 15, "month": 3, "categories": {"15-M45": {"distance": 15, "rank": 499, "pace": 330000000000, "time": 4951.0}}, "weekday": "saturday", "livingplace": "Lyss"}}, "location": "Kerzers"}, "Bieler Lauftage, Biel Bienne": {"latitude": 47.1367785, "longitude": 7.2467909, "race": "Bieler Lauftage, Biel Bienne", "date": {"jeu. 11.06.2015": {"year": 2015, "day": 11, "month": 6, "categories": {"H-M50": {"distance": 21, "rank": 38, "pace": 368000000000, "time": 7779.1}}, "weekday": "thursday", "livingplace": "Lyss"}}, "location": "Biel/Bienne"}, "Aegeriseelauf, Ober\u00e4geri": {"latitude": NaN, "longitude": NaN, "race": "Aegeriseelauf, Ober\u00e4geri", "date": {"ven. 18.07.2014": {"year": 2014, "day": 18, "month": 7, "categories": {"Sen3": {"distance": 14, "rank": 186, "pace": 320000000000, "time": 4536.6}}, "weekday": "friday", "livingplace": "Lyss"}}, "location": "Ober\u00e4geri"}}, "birth": 1965}