{"name": "Sprenger Boris", "sex": "M", "races": {"Course de l'Escalade, Gen\u00e8ve": {"latitude": 46.2043907, "longitude": 6.1431577, "race": "Course de l'Escalade, Gen\u00e8ve", "date": {"sam. 01.12.2012": {"year": 2012, "day": 1, "month": 12, "categories": {"Esc-Hom2": {"distance": 7, "rank": 928, "pace": 309000000000, "time": 2243.0}}, "weekday": "saturday", "livingplace": "Broc"}}, "location": "Gen\u00e8ve"}, "Corrida Bulloise, Bulle": {"latitude": 46.6154512, "longitude": 7.057726799999999, "race": "Corrida Bulloise, Bulle", "date": {"sam. 16.11.2013": {"year": 2013, "day": 16, "month": 11, "categories": {"PopHomm": {"distance": 6, "rank": 270, "pace": 282000000000, "time": 1740.2}}, "weekday": "saturday", "livingplace": "Broc"}, "sam. 17.11.2012": {"year": 2012, "day": 17, "month": 11, "categories": {"PopHomm": {"distance": 6, "rank": 268, "pace": 283000000000, "time": 1744.0}}, "weekday": "saturday", "livingplace": "Broc"}, "sam. 15.11.2014": {"year": 2014, "day": 15, "month": 11, "categories": {"Pop-Hom": {"distance": 6, "rank": 371, "pace": 310000000000, "time": 1907.3}}, "weekday": "saturday", "livingplace": "Broc"}, "sam. 21.11.2015": {"year": 2015, "day": 21, "month": 11, "categories": {"Pop-Hom": {"distance": 6, "rank": 246, "pace": 290000000000, "time": 1787.8}}, "weekday": "saturday", "livingplace": "Broc"}}, "location": "Bulle"}, "Groupe E Tour Fribourg #5 Fribourg": {"latitude": 46.8128615, "longitude": 7.131657799999999, "race": "Groupe E Tour Fribourg #5 Fribourg", "date": {"mer. 26.09.2012": {"year": 2012, "day": 26, "month": 9, "categories": {"HS1": {"distance": 11, "rank": 68, "pace": 337000000000, "time": 3613.2}}, "weekday": "wednesday", "livingplace": "Broc"}}, "location": "Givisiez"}, "Lausanne Marathon": {"latitude": 46.5196535, "longitude": 6.6322734, "race": "Lausanne Marathon", "date": {"dim. 28.10.2012": {"year": 2012, "day": 28, "month": 10, "categories": {"21-H2": {"distance": 21, "rank": 582, "pace": 318000000000, "time": 6712.1}}, "weekday": "sunday", "livingplace": "Broc"}}, "location": "Lausanne"}, "Morat-Fribourg": {"latitude": 46.92922110000001, "longitude": 7.120184, "race": "Morat-Fribourg", "date": {"sam. 05.10.2013": {"year": 2013, "day": 5, "month": 10, "categories": {"17-M20": {"distance": 17, "rank": 1651, "pace": 322000000000, "time": 5631.5}}, "weekday": "saturday", "livingplace": "Broc"}, "sam. 04.10.2014": {"year": 2014, "day": 4, "month": 10, "categories": {"17-M20": {"distance": 17, "rank": 1522, "pace": 329000000000, "time": 5649.8}}, "weekday": "saturday", "livingplace": "Broc"}}, "location": "Murten"}, "20km de Lausanne": {"latitude": 46.5196535, "longitude": 6.6322734, "race": "20km de Lausanne", "date": {"sam. 28.04.2012": {"year": 2012, "day": 28, "month": 4, "categories": {"10-H30": {"distance": 10, "rank": 609, "pace": 326000000000, "time": 3269.7}}, "weekday": "saturday", "livingplace": "Broc"}}, "location": "Lausanne"}, "BCN Tour Colombier": {"latitude": 47.1034892, "longitude": 6.832783800000001, "race": "BCN Tour Colombier", "date": {"mer. 16.05.2012": {"year": 2012, "day": 16, "month": 5, "categories": {"HS1": {"distance": 11, "rank": 235, "pace": 345000000000, "time": 3733.6}}, "weekday": "wednesday", "livingplace": "Broc"}}, "location": "La Chaux-de-Fonds"}}, "birth": 1978}