{"name": "Stauffer Mathieu", "sex": "M", "races": {"BCN Tour La Chaux-de-fonds": {"latitude": 47.1034892, "longitude": 6.832783800000001, "race": "BCN Tour La Chaux-de-fonds", "date": {"mer. 12.05.2010": {"year": 2010, "day": 12, "month": 5, "categories": {"KG1": {"distance": 1, "rank": 45, "pace": 865000000000, "time": 840.0}}, "weekday": "wednesday", "livingplace": "Cernier"}}, "location": "La Chaux-de-Fonds"}, "BCN Tour Le Locle": {"latitude": 46.999113, "longitude": 6.733554799999999, "race": "BCN Tour Le Locle", "date": {"mer. 05.05.2010": {"year": 2010, "day": 5, "month": 5, "categories": {"KG1": {"distance": 2, "rank": 37, "pace": 319000000000, "time": 574.8}}, "weekday": "wednesday", "livingplace": "Cernier"}}, "location": "Les Ponts-de-Martel"}, "BCN Tour Neuch\u00e2tel": {"latitude": 46.9899874, "longitude": 6.9292732, "race": "BCN Tour Neuch\u00e2tel", "date": {"mer. 26.05.2010": {"year": 2010, "day": 26, "month": 5, "categories": {"KG1": {"distance": 2, "rank": 80, "pace": 287000000000, "time": 431.3}}, "weekday": "wednesday", "livingplace": "Cernier"}}, "location": "Neuch\u00e2tel"}, "BCN Tour M\u00f4tier": {"latitude": 46.9262933, "longitude": 6.6324944, "race": "BCN Tour M\u00f4tier", "date": {"mer. 19.05.2010": {"year": 2010, "day": 19, "month": 5, "categories": {"KG1": {"distance": 2, "rank": 58, "pace": 297000000000, "time": 534.9}}, "weekday": "wednesday", "livingplace": "Cernier"}}, "location": "Couvet"}, "BCN Tour Ponts-de-Martel": {"latitude": 47.0624261, "longitude": 6.9175754, "race": "BCN Tour Ponts-de-Martel", "date": {"mer. 28.04.2010": {"year": 2010, "day": 28, "month": 4, "categories": {"KG1": {"distance": 2, "rank": 55, "pace": 257000000000, "time": 566.4}}, "weekday": "wednesday", "livingplace": "Cernier"}}, "location": "Ch\u00e9zard-St-Martin"}}, "birth": 2002}