{"name": "Stauffacher Colin", "sex": "M", "races": {"BCN Tour Couvet": {"latitude": 47.0624261, "longitude": 6.9175754, "race": "BCN Tour Couvet", "date": {"mer. 02.05.2012": {"year": 2012, "day": 2, "month": 5, "categories": {"KG2": {"distance": 2, "rank": 17, "pace": 263000000000, "time": 474.5}}, "weekday": "wednesday", "livingplace": "Dombresson"}}, "location": "Ch\u00e9zard-St-Martin"}, "BCN Tour M\u00f4tier": {"latitude": 46.9262933, "longitude": 6.6324944, "race": "BCN Tour M\u00f4tier", "date": {"mer. 19.05.2010": {"year": 2010, "day": 19, "month": 5, "categories": {"KG1": {"distance": 2, "rank": 28, "pace": 273000000000, "time": 492.7}}, "weekday": "wednesday", "livingplace": "Dombresson"}}, "location": "Couvet"}, "BCN Tour Les Ponts-de-Martel": {"latitude": 46.999113, "longitude": 6.733554799999999, "race": "BCN Tour Les Ponts-de-Martel", "date": {"mer. 09.05.2012": {"year": 2012, "day": 9, "month": 5, "categories": {"KG2": {"distance": 2, "rank": 18, "pace": 256000000000, "time": 486.7}}, "weekday": "wednesday", "livingplace": "Dombresson"}}, "location": "Les Ponts-de-Martel"}, "BCN Tour Fontaine Cernier": {"latitude": 47.0624261, "longitude": 6.9175754, "race": "BCN Tour Fontaine Cernier", "date": {"mer. 27.04.2011": {"year": 2011, "day": 27, "month": 4, "categories": {"KG1": {"distance": 2, "rank": 9, "pace": 316000000000, "time": 538.7}}, "weekday": "wednesday", "livingplace": "Dombresson"}}, "location": "Ch\u00e9zard-St-Martin"}, "BCN Tour Le Landeron": {"latitude": 46.9668714, "longitude": 6.8589727, "race": "BCN Tour Le Landeron", "date": {"mer. 22.04.2009": {"year": 2009, "day": 22, "month": 4, "categories": {"KG1": {"distance": 2, "rank": 49, "pace": 313000000000, "time": 627.1}}, "weekday": "wednesday", "livingplace": "Dombresson"}}, "location": "Colombier NE"}, "BCN Tour Le Locle": {"latitude": 46.999113, "longitude": 6.733554799999999, "race": "BCN Tour Le Locle", "date": {"mer. 05.05.2010": {"year": 2010, "day": 5, "month": 5, "categories": {"KG1": {"distance": 2, "rank": 24, "pace": 306000000000, "time": 551.0}}, "weekday": "wednesday", "livingplace": "Dombresson"}}, "location": "Les Ponts-de-Martel"}, "BCN Tour Neuch\u00e2tel": {"latitude": 46.9899874, "longitude": 6.9292732, "race": "BCN Tour Neuch\u00e2tel", "date": {"mer. 26.05.2010": {"year": 2010, "day": 26, "month": 5, "categories": {"KG1": {"distance": 2, "rank": 31, "pace": 244000000000, "time": 366.2}}, "weekday": "wednesday", "livingplace": "Dombresson"}, "mer. 30.05.2012": {"year": 2012, "day": 30, "month": 5, "categories": {"KG2": {"distance": 2, "rank": 23, "pace": 253000000000, "time": 443.3}}, "weekday": "wednesday", "livingplace": "Dombresson"}, "mer. 25.05.2011": {"year": 2011, "day": 25, "month": 5, "categories": {"KG1": {"distance": 2, "rank": 10, "pace": 263000000000, "time": 527.0}}, "weekday": "wednesday", "livingplace": "Dombresson"}}, "location": "Neuch\u00e2tel"}, "BCN Tour Cornaux": {"latitude": 46.9668714, "longitude": 6.8589727, "race": "BCN Tour Cornaux", "date": {"mer. 25.04.2012": {"year": 2012, "day": 25, "month": 4, "categories": {"KG2": {"distance": 2, "rank": 23, "pace": 262000000000, "time": 394.2}}, "weekday": "wednesday", "livingplace": "Dombresson"}}, "location": "Colombier NE"}, "BCN Tour #1 Corcelles": {"latitude": 46.9668714, "longitude": 6.8589727, "race": "BCN Tour #1 Corcelles", "date": {"mer. 24.04.2013": {"year": 2013, "day": 24, "month": 4, "categories": {"KG2": {"distance": 2, "rank": 20, "pace": 310000000000, "time": 466.2}}, "weekday": "wednesday", "livingplace": "Dombresson"}}, "location": "Colombier NE"}, "BCN Tour La Chaux-de-Fonds": {"latitude": 47.1034892, "longitude": 6.832783800000001, "race": "BCN Tour La Chaux-de-Fonds", "date": {"mer. 23.05.2012": {"year": 2012, "day": 23, "month": 5, "categories": {"KG2": {"distance": 2, "rank": 19, "pace": 307000000000, "time": 677.2}}, "weekday": "wednesday", "livingplace": "Dombresson"}, "mer. 11.05.2011": {"year": 2011, "day": 11, "month": 5, "categories": {"KG1": {"distance": 1, "rank": 16, "pace": 470000000000, "time": 456.2}}, "weekday": "wednesday", "livingplace": "Dombresson"}}, "location": "La Chaux-de-Fonds"}, "BCN Tour #6 Neuch\u00e2tel": {"latitude": 46.9899874, "longitude": 6.9292732, "race": "BCN Tour #6 Neuch\u00e2tel", "date": {"mer. 29.05.2013": {"year": 2013, "day": 29, "month": 5, "categories": {"KG2": {"distance": 1, "rank": 12, "pace": 224000000000, "time": 292.0}}, "weekday": "wednesday", "livingplace": "Dombresson"}}, "location": "Neuch\u00e2tel"}, "BCN Tour La Br\u00e9vine": {"latitude": 46.999113, "longitude": 6.733554799999999, "race": "BCN Tour La Br\u00e9vine", "date": {"mer. 04.05.2011": {"year": 2011, "day": 4, "month": 5, "categories": {"KG1": {"distance": 2, "rank": 12, "pace": 283000000000, "time": 538.2}}, "weekday": "wednesday", "livingplace": "Dombresson"}}, "location": "Les Ponts-de-Martel"}, "BCN Tour Ponts-de-Martel": {"latitude": 47.0624261, "longitude": 6.9175754, "race": "BCN Tour Ponts-de-Martel", "date": {"mer. 28.04.2010": {"year": 2010, "day": 28, "month": 4, "categories": {"KG1": {"distance": 2, "rank": 24, "pace": 232000000000, "time": 512.3}}, "weekday": "wednesday", "livingplace": "Dombresson"}}, "location": "Ch\u00e9zard-St-Martin"}, "BCN Tour Les Ponts de Martel": {"latitude": 46.9262933, "longitude": 6.6324944, "race": "BCN Tour Les Ponts de Martel", "date": {"mer. 18.05.2011": {"year": 2011, "day": 18, "month": 5, "categories": {"KG1": {"distance": 2, "rank": 14, "pace": 259000000000, "time": 511.2}}, "weekday": "wednesday", "livingplace": "Dombresson"}}, "location": "Couvet"}, "BCN Tour #5 Colombier": {"latitude": 46.9262933, "longitude": 6.6324944, "race": "BCN Tour #5 Colombier", "date": {"mer. 22.05.2013": {"year": 2013, "day": 22, "month": 5, "categories": {"KG2": {"distance": 1, "rank": 26, "pace": 251000000000, "time": 301.6}}, "weekday": "wednesday", "livingplace": "Dombresson"}}, "location": "Couvet"}, "BCN Tour #2 La Chaux-de-Fonds": {"latitude": 47.0624261, "longitude": 6.9175754, "race": "BCN Tour #2 La Chaux-de-Fonds", "date": {"mer. 01.05.2013": {"year": 2013, "day": 1, "month": 5, "categories": {"KG2": {"distance": 1, "rank": 21, "pace": 246000000000, "time": 320.7}}, "weekday": "wednesday", "livingplace": "Dombresson"}}, "location": "Ch\u00e9zard-St-Martin"}, "BCN Tour La Chaux-de-fonds": {"latitude": 47.1034892, "longitude": 6.832783800000001, "race": "BCN Tour La Chaux-de-fonds", "date": {"mer. 12.05.2010": {"year": 2010, "day": 12, "month": 5, "categories": {"KG1": {"distance": 1, "rank": 29, "pace": 811000000000, "time": 787.0}}, "weekday": "wednesday", "livingplace": "Dombresson"}}, "location": "La Chaux-de-Fonds"}, "BCN Tour Colombier": {"latitude": 46.9668714, "longitude": 6.8589727, "race": "BCN Tour Colombier", "date": {"mer. 16.05.2012": {"year": 2012, "day": 16, "month": 5, "categories": {"KG2": {"distance": 2, "rank": 26, "pace": 271000000000, "time": 407.1}}, "weekday": "wednesday", "livingplace": "Dombresson"}, "mer. 21.04.2010": {"year": 2010, "day": 21, "month": 4, "categories": {"KG1": {"distance": 2, "rank": 22, "pace": 314000000000, "time": 628.1}}, "weekday": "wednesday", "livingplace": "Dombresson"}}, "location": "Colombier NE"}, "BCN Tour #3 Dombresson": {"latitude": 46.999113, "longitude": 6.733554799999999, "race": "BCN Tour #3 Dombresson", "date": {"mer. 08.05.2013": {"year": 2013, "day": 8, "month": 5, "categories": {"KG2": {"distance": 1, "rank": 15, "pace": 250000000000, "time": 326.1}}, "weekday": "wednesday", "livingplace": "Dombresson"}}, "location": "Les Ponts-de-Martel"}}, "birth": 2002}