{"name": "Steffen Olivier", "sex": "M", "races": {"20km de Lausanne": {"latitude": 46.5196535, "longitude": 6.6322734, "race": "20km de Lausanne", "date": {"sam. 28.04.2012": {"year": 2012, "day": 28, "month": 4, "categories": {"10-H20": {"distance": 10, "rank": 379, "pace": 306000000000, "time": 3066.3}}, "weekday": "saturday", "livingplace": "Penthalaz"}}, "location": "Lausanne"}, "Tour du Pays de Vaud printanier #2 Yens": {"latitude": 46.6698891, "longitude": 6.7975224, "race": "Tour du Pays de Vaud printanier #2 Yens", "date": {"mer. 06.06.2012": {"year": 2012, "day": 6, "month": 6, "categories": {"H-Hom": {"distance": 9, "rank": 41, "pace": 307000000000, "time": 2793.8}}, "weekday": "wednesday", "livingplace": "Penthalaz"}}, "location": "Moudon"}, "Tour du Chablais #1 Montreux": {"latitude": 46.2957462, "longitude": 6.9916269, "race": "Tour du Chablais #1 Montreux", "date": {"mer. 11.04.2012": {"year": 2012, "day": 11, "month": 4, "categories": {"M-M20": {"distance": 8, "rank": 153, "pace": 307000000000, "time": 2339.4}}, "weekday": "wednesday", "livingplace": "Penthalaz"}}, "location": "Ollon VD"}, "Les Traine-Savates, Cheseaux-sur-Lausanne": {"latitude": 46.585452, "longitude": 6.6047712, "race": "Les Traine-Savates, Cheseaux-sur-Lausanne", "date": {"sam. 14.04.2012": {"year": 2012, "day": 14, "month": 4, "categories": {"10-M20": {"distance": 10, "rank": 200, "pace": 308000000000, "time": 3207.0}}, "weekday": "saturday", "livingplace": "Penthalaz"}}, "location": "Cheseaux-sur-Lausanne"}, "Tour du Pays de Vaud printanier #1 Chavornay": {"latitude": 46.3832683, "longitude": 6.2347852, "race": "Tour du Pays de Vaud printanier #1 Chavornay", "date": {"mer. 30.05.2012": {"year": 2012, "day": 30, "month": 5, "categories": {"H-Hom": {"distance": 9, "rank": 24, "pace": 305000000000, "time": 2737.9}}, "weekday": "wednesday", "livingplace": "Penthalaz"}}, "location": "Nyon"}}, "birth": 1987}