{"name": "Steffen Philippe", "sex": "M", "races": {"Tour du Chablais #5 Bex": {"latitude": 46.3603257, "longitude": 6.931504599999999, "race": "Tour du Chablais #5 Bex", "date": {"mer. 09.05.2012": {"year": 2012, "day": 9, "month": 5, "categories": {"M-M40": {"distance": 9, "rank": 115, "pace": 316000000000, "time": 2805.7}}, "weekday": "wednesday", "livingplace": "Fully"}}, "location": "Roche VD"}, "Tour du Chablais #6 Mouthey": {"latitude": 46.3190253, "longitude": 6.970566, "race": "Tour du Chablais #6 Mouthey", "date": {"mer. 12.05.2010": {"year": 2010, "day": 12, "month": 5, "categories": {"M-M40": {"distance": 9, "rank": 162, "pace": 311000000000, "time": 2868.3}}, "weekday": "wednesday", "livingplace": "Fully"}}, "location": "Aigle"}, "Tour du Chablais #4 Yvorne": {"latitude": NaN, "longitude": NaN, "race": "Tour du Chablais #4 Yvorne", "date": {"mer. 28.04.2010": {"year": 2010, "day": 28, "month": 4, "categories": {"M-M40": {"distance": 8, "rank": 155, "pace": 344000000000, "time": 2851.7}}, "weekday": "wednesday", "livingplace": "Fully"}}, "location": "Les Mosses"}, "Morat-Fribourg": {"latitude": 46.92922110000001, "longitude": 7.120184, "race": "Morat-Fribourg", "date": {"sam. 02.10.2010": {"year": 2010, "day": 2, "month": 10, "categories": {"17-M45": {"distance": 17, "rank": 576, "pace": 360000000000, "time": 6181.6}}, "weekday": "saturday", "livingplace": "Fully"}, "dim. 05.10.2003": {"year": 2003, "day": 5, "month": 10, "categories": {"M40": {"distance": 17, "rank": 724, "pace": 362000000000, "time": 6229.4}}, "weekday": "sunday", "livingplace": "Fully"}, "sam. 06.10.2012": {"year": 2012, "day": 6, "month": 10, "categories": {"17-M45": {"distance": 17, "rank": 700, "pace": 383000000000, "time": 6691.4}}, "weekday": "saturday", "livingplace": "Fully"}}, "location": "Murten"}, "Tour du Chablais #5 Les Mosses": {"latitude": 46.3603257, "longitude": 6.931504599999999, "race": "Tour du Chablais #5 Les Mosses", "date": {"mer. 25.05.2011": {"year": 2011, "day": 25, "month": 5, "categories": {"M-M40": {"distance": 8, "rank": 127, "pace": 363000000000, "time": 2910.9}}, "weekday": "wednesday", "livingplace": "Fully"}}, "location": "Roche VD"}, "Tour du Chablais #6 Aigle": {"latitude": 46.3190253, "longitude": 6.970566, "race": "Tour du Chablais #6 Aigle", "date": {"mer. 01.06.2011": {"year": 2011, "day": 1, "month": 6, "categories": {"M-M40": {"distance": 10, "rank": 130, "pace": 310000000000, "time": 3169.9}}, "weekday": "wednesday", "livingplace": "Fully"}}, "location": "Aigle"}, "Tour du Chablais #3 Bex": {"latitude": 46.1782231, "longitude": 7.0223787, "race": "Tour du Chablais #3 Bex", "date": {"mer. 21.04.2010": {"year": 2010, "day": 21, "month": 4, "categories": {"M-M40": {"distance": 10, "rank": 162, "pace": 330000000000, "time": 3307.5}}, "weekday": "wednesday", "livingplace": "Fully"}}, "location": "Evionnaz"}, "Tour du Chablais #5 Leysin": {"latitude": 46.3603257, "longitude": 6.931504599999999, "race": "Tour du Chablais #5 Leysin", "date": {"mer. 05.05.2010": {"year": 2010, "day": 5, "month": 5, "categories": {"M-M40": {"distance": 8, "rank": 110, "pace": 346000000000, "time": 2929.8}}, "weekday": "wednesday", "livingplace": "Fully"}}, "location": "Roche VD"}, "Tour du Chablais #4 Champ\u00e9ry": {"latitude": NaN, "longitude": NaN, "race": "Tour du Chablais #4 Champ\u00e9ry", "date": {"mer. 02.05.2012": {"year": 2012, "day": 2, "month": 5, "categories": {"M-M40": {"distance": 8, "rank": 127, "pace": 324000000000, "time": 2697.4}}, "weekday": "wednesday", "livingplace": "Fully"}}, "location": "Les Mosses"}, "Tour du Chablais #2 St-Gingolph": {"latitude": 46.3835529, "longitude": 6.854975199999999, "race": "Tour du Chablais #2 St-Gingolph", "date": {"mer. 14.04.2010": {"year": 2010, "day": 14, "month": 4, "categories": {"M-M40": {"distance": 8, "rank": 163, "pace": 348000000000, "time": 2912.4}}, "weekday": "wednesday", "livingplace": "Fully"}}, "location": "Bouveret"}}, "birth": 1963}