{"name": "Steiling Heike", "sex": "F", "races": {"Basel City Marathon": {"latitude": 47.5595986, "longitude": 7.5885761, "race": "Basel City Marathon", "date": {"dim. 03.09.2006": {"year": 2006, "day": 3, "month": 9, "categories": {"H-F30": {"distance": 21, "rank": 34, "pace": 326000000000, "time": 6895.1}}, "weekday": "sunday", "livingplace": "Montreux"}}, "location": "Basel"}, "20km de Lausanne": {"latitude": 46.5196535, "longitude": 6.6322734, "race": "20km de Lausanne", "date": {"sam. 22.04.2006": {"year": 2006, "day": 22, "month": 4, "categories": {"10/F30": {"distance": 10, "rank": 112, "pace": 340000000000, "time": 3407.4}}, "weekday": "saturday", "livingplace": "Montreux"}}, "location": "Lausanne"}, "Morat-Fribourg": {"latitude": 46.92922110000001, "longitude": 7.120184, "race": "Morat-Fribourg", "date": {"sam. 03.10.2009": {"year": 2009, "day": 3, "month": 10, "categories": {"C-W35": {"distance": 17, "rank": 180, "pace": 367000000000, "time": 6310.9}}, "weekday": "saturday", "livingplace": "Montreux"}}, "location": "Murten"}, "ASICS Bremgarter Reusslauf": {"latitude": 47.34917739999999, "longitude": 8.3397905, "race": "ASICS Bremgarter Reusslauf", "date": {"sam. 25.02.2006": {"year": 2006, "day": 25, "month": 2, "categories": {"F30": {"distance": 11, "rank": 85, "pace": 324000000000, "time": 3407.8}}, "weekday": "saturday", "livingplace": "Montreux"}}, "location": "Bremgarten AG"}, "Int Greifenseelauf, Uster": {"latitude": 47.3482747, "longitude": 8.717873899999999, "race": "Int Greifenseelauf, Uster", "date": {"sam. 17.09.2005": {"year": 2005, "day": 17, "month": 9, "categories": {"H/W30": {"distance": 21, "rank": 134, "pace": 318000000000, "time": 6713.3}}, "weekday": "saturday", "livingplace": "Lausanne"}}, "location": "Uster"}}, "birth": 1972}