{"name": "Steiner Nick", "sex": "M", "races": {"Kerzerslauf": {"latitude": 46.97488999999999, "longitude": 7.1954365, "race": "Kerzerslauf", "date": {"sam. 21.03.2009": {"year": 2009, "day": 21, "month": 3, "categories": {"2-M13": {"distance": 1, "rank": 26, "pace": 236000000000, "time": 331.3}}, "weekday": "saturday", "livingplace": "Bole"}}, "location": "Kerzers"}, "Grand Prix Craft, Neuch\u00e2tel": {"latitude": 46.9899874, "longitude": 6.9292732, "race": "Grand Prix Craft, Neuch\u00e2tel", "date": {"dim. 16.12.2007": {"year": 2007, "day": 16, "month": 12, "categories": {"KG2": {"distance": 1, "rank": 6, "pace": 246000000000, "time": 344.7}}, "weekday": "sunday", "livingplace": "Bole"}}, "location": "Neuch\u00e2tel"}, "BCN Tour Couvet": {"latitude": 47.0624261, "longitude": 6.9175754, "race": "BCN Tour Couvet", "date": {"mer. 02.05.2012": {"year": 2012, "day": 2, "month": 5, "categories": {"HJ": {"distance": 11, "rank": 46, "pace": 347000000000, "time": 3872.0}}, "weekday": "wednesday", "livingplace": "Bole"}}, "location": "Ch\u00e9zard-St-Martin"}, "BCN Tour M\u00f4tier": {"latitude": 46.9262933, "longitude": 6.6324944, "race": "BCN Tour M\u00f4tier", "date": {"mer. 19.05.2010": {"year": 2010, "day": 19, "month": 5, "categories": {"HJ": {"distance": 10, "rank": 43, "pace": 301000000000, "time": 2986.6}}, "weekday": "wednesday", "livingplace": "Bole"}}, "location": "Couvet"}, "BCN Tour Les Ponts-de-Martel": {"latitude": 46.999113, "longitude": 6.733554799999999, "race": "BCN Tour Les Ponts-de-Martel", "date": {"mer. 09.05.2012": {"year": 2012, "day": 9, "month": 5, "categories": {"HJ": {"distance": 10, "rank": 42, "pace": 316000000000, "time": 3260.8}}, "weekday": "wednesday", "livingplace": "Bole"}}, "location": "Les Ponts-de-Martel"}, "BCN Tour Ponts-de-Martel": {"latitude": 47.0624261, "longitude": 6.9175754, "race": "BCN Tour Ponts-de-Martel", "date": {"mer. 28.04.2010": {"year": 2010, "day": 28, "month": 4, "categories": {"KG3": {"distance": 4, "rank": 17, "pace": 228000000000, "time": 961.0}}, "weekday": "wednesday", "livingplace": "Bole"}}, "location": "Ch\u00e9zard-St-Martin"}, "BCN Tour Cornaux": {"latitude": 46.9668714, "longitude": 6.8589727, "race": "BCN Tour Cornaux", "date": {"mer. 25.04.2012": {"year": 2012, "day": 25, "month": 4, "categories": {"HJ": {"distance": 11, "rank": 48, "pace": 387000000000, "time": 4261.4}}, "weekday": "wednesday", "livingplace": "Bole"}}, "location": "Colombier NE"}, "BCN Tour La Chaux-de-Fonds": {"latitude": 46.9262933, "longitude": 6.6324944, "race": "BCN Tour La Chaux-de-Fonds", "date": {"mer. 23.05.2012": {"year": 2012, "day": 23, "month": 5, "categories": {"HJ": {"distance": 11, "rank": 47, "pace": 317000000000, "time": 3434.1}}, "weekday": "wednesday", "livingplace": "Bole"}}, "location": "Couvet"}, "BCN Tour Neuch\u00e2tel": {"latitude": 46.9899874, "longitude": 6.9292732, "race": "BCN Tour Neuch\u00e2tel", "date": {"mer. 26.05.2010": {"year": 2010, "day": 26, "month": 5, "categories": {"HJ": {"distance": 10, "rank": 66, "pace": 355000000000, "time": 3448.8}}, "weekday": "wednesday", "livingplace": "Bole"}, "mer. 30.05.2012": {"year": 2012, "day": 30, "month": 5, "categories": {"HJ": {"distance": 11, "rank": 53, "pace": 330000000000, "time": 3702.5}}, "weekday": "wednesday", "livingplace": "Bole"}}, "location": "Neuch\u00e2tel"}, "Winterthur Marathon": {"latitude": 39.8088766, "longitude": -75.6037351, "race": "Winterthur Marathon", "date": {"dim. 29.05.2011": {"year": 2011, "day": 29, "month": 5, "categories": {"10-MJun": {"distance": 10, "rank": 6, "pace": 323000000000, "time": 3238.5}}, "weekday": "sunday", "livingplace": "Bole"}, "dim. 24.05.2009": {"year": 2009, "day": 24, "month": 5, "categories": {"GelbK": {"distance": 1, "rank": 2, "pace": 196000000000, "time": 141.4}}, "weekday": "sunday", "livingplace": "Bole"}}, "location": "Winterthur"}, "BCN Tour Colombier": {"latitude": 46.9668714, "longitude": 6.8589727, "race": "BCN Tour Colombier", "date": {"mer. 16.05.2012": {"year": 2012, "day": 16, "month": 5, "categories": {"HJ": {"distance": 11, "rank": 53, "pace": 305000000000, "time": 3297.0}}, "weekday": "wednesday", "livingplace": "Bole"}, "mer. 23.04.2008": {"year": 2008, "day": 23, "month": 4, "categories": {"KG2": {"distance": 2, "rank": 10, "pace": 282000000000, "time": 565.2}}, "weekday": "wednesday", "livingplace": "Bole"}, "mer. 21.04.2010": {"year": 2010, "day": 21, "month": 4, "categories": {"KG3": {"distance": 4, "rank": 30, "pace": 286000000000, "time": 1144.2}}, "weekday": "wednesday", "livingplace": "Bole"}}, "location": "Colombier NE"}}, "birth": 1997}