{"name": "Stokar Julia", "sex": "F", "races": {"Gippinger Stauseelauf": {"latitude": 47.5810513, "longitude": 8.2152586, "race": "Gippinger Stauseelauf", "date": {"lun. 31.12.2007": {"year": 2007, "day": 31, "month": 12, "categories": {"F30": {"distance": 8, "rank": 3, "pace": 231000000000, "time": 1739.5}}, "weekday": "monday", "livingplace": "Zurich"}}, "location": "Leuggern"}, "Pfingstlauf Wohlen AG": {"latitude": 47.3493653, "longitude": 8.2768762, "race": "Pfingstlauf Wohlen AG", "date": {"sam. 03.06.2006": {"year": 2006, "day": 3, "month": 6, "categories": {"F30": {"distance": 8, "rank": 4, "pace": 237000000000, "time": 1947.4}}, "weekday": "saturday", "livingplace": "Zurich"}}, "location": "Wohlen AG"}, "Luzerner Stadtlauf": {"latitude": 47.05016819999999, "longitude": 8.3093072, "race": "Luzerner Stadtlauf", "date": {"sam. 26.04.2008": {"year": 2008, "day": 26, "month": 4, "categories": {"K/24": {"distance": 4, "rank": 3, "pace": 218000000000, "time": 845.3}}, "weekday": "saturday", "livingplace": "Zurich"}}, "location": "Luzern"}, "Schweizer Frauenlauf Bern": {"latitude": 46.9479739, "longitude": 7.4474468, "race": "Schweizer Frauenlauf Bern", "date": {"dim. 13.06.2004": {"year": 2004, "day": 13, "month": 6, "categories": {"W30": {"distance": 5, "rank": 6, "pace": 213000000000, "time": 1069.2}}, "weekday": "sunday", "livingplace": "Zuerich"}}, "location": "Bern"}, "Hallwilerseelauf, Beinwil am See": {"latitude": NaN, "longitude": NaN, "race": "Hallwilerseelauf, Beinwil am See", "date": {"sam. 15.10.2005": {"year": 2005, "day": 15, "month": 10, "categories": {"F30": {"distance": 21, "rank": 5, "pace": 244000000000, "time": 5160.1}}, "weekday": "saturday", "livingplace": "Zurich"}}, "location": "Beinwil am See"}, "10km de Payerne": {"latitude": 46.8220266, "longitude": 6.9405663, "race": "10km de Payerne", "date": {"sam. 28.03.2009": {"year": 2009, "day": 28, "month": 3, "categories": {"W35": {"distance": 10, "rank": 8, "pace": 240000000000, "time": 2400.8}}, "weekday": "saturday", "livingplace": "TV Unterstrass"}}, "location": "Payerne"}, "Z\u00fcrich Marathon, Teamrun und Cityrun": {"latitude": 47.3768866, "longitude": 8.541694, "race": "Z\u00fcrich Marathon, Teamrun und Cityrun", "date": {"dim. 26.04.2009": {"year": 2009, "day": 26, "month": 4, "categories": {"W30": {"distance": 42, "rank": 35, "pace": 288000000000, "time": 12179.9}}, "weekday": "sunday", "livingplace": "Zurich"}, "dim. 13.04.2003": {"year": 2003, "day": 13, "month": 4, "categories": {"W30": {"distance": 42, "rank": 7, "pace": 263000000000, "time": 11137.1}}, "weekday": "sunday", "livingplace": "Zurich"}}, "location": "Z\u00fcrich"}}, "birth": 1972}