{"name": "Str\u00e4ssle Christian", "sex": "M", "races": {"Kerzerslauf": {"latitude": 46.97488999999999, "longitude": 7.1954365, "race": "Kerzerslauf", "date": {"sam. 16.03.2013": {"year": 2013, "day": 16, "month": 3, "categories": {"15-M45": {"distance": 15, "rank": 185, "pace": 274000000000, "time": 4121.6}}, "weekday": "saturday", "livingplace": "Eggersriet"}}, "location": "Kerzers"}, "Morat-Fribourg": {"latitude": 46.92922110000001, "longitude": 7.120184, "race": "Morat-Fribourg", "date": {"sam. 03.10.2009": {"year": 2009, "day": 3, "month": 10, "categories": {"C-M40": {"distance": 17, "rank": 835, "pace": 405000000000, "time": 6965.3}}, "weekday": "saturday", "livingplace": "Aubonne"}}, "location": "Murten"}, "Tour du Pays de Vaud etape 2 - Genolier": {"latitude": 46.5955273, "longitude": 6.7702883, "race": "Tour du Pays de Vaud etape 2 - Genolier", "date": {"mer. 20.08.2008": {"year": 2008, "day": 20, "month": 8, "categories": {"HomSen2": {"distance": 8, "rank": 73, "pace": 286000000000, "time": 2380.1}}, "weekday": "wednesday", "livingplace": "Aubonne"}}, "location": "M\u00e9zi\u00e8res VD"}, "20km de Lausanne": {"latitude": 46.5196535, "longitude": 6.6322734, "race": "20km de Lausanne", "date": {"sam. 30.04.2011": {"year": 2011, "day": 30, "month": 4, "categories": {"20-H45": {"distance": 20, "rank": 114, "pace": 277000000000, "time": 5549.8}}, "weekday": "saturday", "livingplace": "Eggersriet"}}, "location": "Lausanne"}, "Z\u00fcrcher Silvesterlauf, Z\u00fcrich": {"latitude": 47.3768866, "longitude": 8.541694, "race": "Z\u00fcrcher Silvesterlauf, Z\u00fcrich", "date": {"dim. 14.12.2008": {"year": 2008, "day": 14, "month": 12, "categories": {"MenAK2-8": {"distance": 9, "rank": 1272, "pace": 357000000000, "time": 3070.2}}, "weekday": "sunday", "livingplace": "Aubonne"}}, "location": "Z\u00fcrich"}, "10km de Payerne": {"latitude": 46.8220266, "longitude": 6.9405663, "race": "10km de Payerne", "date": {"sam. 27.03.2010": {"year": 2010, "day": 27, "month": 3, "categories": {"M45": {"distance": 10, "rank": 30, "pace": 238000000000, "time": 2386.3}}, "weekday": "saturday", "livingplace": "Aubonne"}}, "location": "Payerne"}, "Z\u00fcrich Marathon, Teamrun und Cityrun": {"latitude": 47.3768866, "longitude": 8.541694, "race": "Z\u00fcrich Marathon, Teamrun und Cityrun", "date": {"dim. 13.04.2003": {"year": 2003, "day": 13, "month": 4, "categories": {"M30": {"distance": 42, "rank": 129, "pace": 253000000000, "time": 10713.6}}, "weekday": "sunday", "livingplace": "Oron la Ville"}}, "location": "Z\u00fcrich"}}, "birth": 1965}