{"name": "Streit Bettina", "sex": "F", "races": {"Lucerne Marathon, Luzern": {"latitude": 47.05016819999999, "longitude": 8.3093072, "race": "Lucerne Marathon, Luzern", "date": {"dim. 25.10.2009": {"year": 2009, "day": 25, "month": 10, "categories": {"M-F20": {"distance": 42, "rank": 20, "pace": 337000000000, "time": 14224.0}}, "weekday": "sunday", "livingplace": "Muttenz"}, "dim. 31.10.2010": {"year": 2010, "day": 31, "month": 10, "categories": {"H-F20": {"distance": 21, "rank": 51, "pace": 291000000000, "time": 6151.5}}, "weekday": "sunday", "livingplace": "Muttenz"}}, "location": "Luzern"}, "Glacier 3000 Run, Gstaad": {"latitude": 46.4717588, "longitude": 7.2865728, "race": "Glacier 3000 Run, Gstaad", "date": {"sam. 08.08.2009": {"year": 2009, "day": 8, "month": 8, "categories": {"F20": {"distance": 26, "rank": 5, "pace": 553000000000, "time": 14384.4}}, "weekday": "saturday", "livingplace": "Wil"}, "sam. 09.08.2008": {"year": 2008, "day": 9, "month": 8, "categories": {"F20": {"distance": 26, "rank": 3, "pace": 538000000000, "time": 13994.2}}, "weekday": "saturday", "livingplace": "Dornach"}}, "location": "Gstaad"}, "Schweizer Frauenlauf Bern": {"latitude": 46.9479739, "longitude": 7.4474468, "race": "Schweizer Frauenlauf Bern", "date": {"dim. 11.06.2006": {"year": 2006, "day": 11, "month": 6, "categories": {"10-W20": {"distance": 10, "rank": 45, "pace": 279000000000, "time": 2792.0}}, "weekday": "sunday", "livingplace": "Dornach"}, "dim. 15.06.2003": {"year": 2003, "day": 15, "month": 6, "categories": {"W20": {"distance": 5, "rank": 78, "pace": 266000000000, "time": 1330.7}}, "weekday": "sunday", "livingplace": "Dornach"}}, "location": "Bern"}, "Gempenlauf, Dornach": {"latitude": 47.4790491, "longitude": 7.6170412, "race": "Gempenlauf, Dornach", "date": {"mer. 02.06.2010": {"year": 2010, "day": 2, "month": 6, "categories": {"F20": {"distance": 8, "rank": 22, "pace": 343000000000, "time": 2680.6}}, "weekday": "wednesday", "livingplace": "Muttenz"}}, "location": "Dornach"}, "Basel City Marathon": {"latitude": 47.5595986, "longitude": 7.5885761, "race": "Basel City Marathon", "date": {"dim. 28.08.2005": {"year": 2005, "day": 28, "month": 8, "categories": {"F20": {"distance": 42, "rank": 23, "pace": 338000000000, "time": 14297.3}}, "weekday": "sunday", "livingplace": "Dornach"}, "dim. 03.09.2006": {"year": 2006, "day": 3, "month": 9, "categories": {"M-F20": {"distance": 42, "rank": 7, "pace": 328000000000, "time": 13861.9}}, "weekday": "sunday", "livingplace": "Dornach"}}, "location": "Basel"}, "Dreil\u00e4nder-Lauf, Basel": {"latitude": 47.5595986, "longitude": 7.5885761, "race": "Dreil\u00e4nder-Lauf, Basel", "date": {"dim. 20.05.2007": {"year": 2007, "day": 20, "month": 5, "categories": {"21F20": {"distance": 21, "rank": 3, "pace": 300000000000, "time": 6347.8}}, "weekday": "sunday", "livingplace": "Dornach"}}, "location": "Basel"}, "Z\u00fcrich Marathon, Teamrun und Cityrun": {"latitude": 47.3768866, "longitude": 8.541694, "race": "Z\u00fcrich Marathon, Teamrun und Cityrun", "date": {"dim. 04.04.2004": {"year": 2004, "day": 4, "month": 4, "categories": {"W20": {"distance": 42, "rank": 109, "pace": 365000000000, "time": 15413.1}}, "weekday": "sunday", "livingplace": "Dornach"}}, "location": "Z\u00fcrich"}}, "birth": 1983}