{"name": "Stuart Jeff", "sex": "M", "races": {"Stralugano, Lugano": {"latitude": 46.0036778, "longitude": 8.951051999999999, "race": "Stralugano, Lugano", "date": {"dim. 27.09.2015": {"year": 2015, "day": 27, "month": 9, "categories": {"10-M20": {"distance": 10, "rank": 104, "pace": 259000000000, "time": 2597.8}}, "weekday": "sunday", "livingplace": "Zurich"}, "dim. 28.09.2014": {"year": 2014, "day": 28, "month": 9, "categories": {"30-M20": {"distance": 30, "rank": 136, "pace": 293000000000, "time": 8800.7}}, "weekday": "sunday", "livingplace": "Zurich"}}, "location": "Lugano"}, "Zermatt Marathon, Zermatt": {"latitude": NaN, "longitude": NaN, "race": "Zermatt Marathon, Zermatt", "date": {"sam. 04.07.2015": {"year": 2015, "day": 4, "month": 7, "categories": {"U-M30": {"distance": 46, "rank": 56, "pace": 498000000000, "time": 22708.7}}, "weekday": "saturday", "livingplace": "Zurich"}}, "location": "Zermatt"}, "SwissCityMarathon - Lucerne, Luzern": {"latitude": 47.05016819999999, "longitude": 8.3093072, "race": "SwissCityMarathon - Lucerne, Luzern", "date": {"dim. 26.10.2014": {"year": 2014, "day": 26, "month": 10, "categories": {"M-M30": {"distance": 42, "rank": 163, "pace": 313000000000, "time": 13234.8}}, "weekday": "sunday", "livingplace": "Zurich"}}, "location": "Luzern"}, "ASICS Bremgarter Reusslauf": {"latitude": 47.34917739999999, "longitude": 8.3397905, "race": "ASICS Bremgarter Reusslauf", "date": {"sam. 28.02.2015": {"year": 2015, "day": 28, "month": 2, "categories": {"11-M30": {"distance": 11, "rank": 344, "pace": 355000000000, "time": 3909.5}}, "weekday": "saturday", "livingplace": "Owlettes"}}, "location": "Bremgarten AG"}, "Lausanne Marathon": {"latitude": 46.5196535, "longitude": 6.6322734, "race": "Lausanne Marathon", "date": {"sam. 24.10.2015": {"year": 2015, "day": 24, "month": 10, "categories": {"21-H30": {"distance": 21, "rank": 866, "pace": 391000000000, "time": 8251.4}}, "weekday": "saturday", "livingplace": "Zurich"}}, "location": "Lausanne"}, "Z\u00fcrcher Silvesterlauf, Z\u00fcrich": {"latitude": 47.3768866, "longitude": 8.541694, "race": "Z\u00fcrcher Silvesterlauf, Z\u00fcrich", "date": {"dim. 14.12.2014": {"year": 2014, "day": 14, "month": 12, "categories": {"10-M30": {"distance": 10, "rank": 1217, "pace": 355000000000, "time": 3559.8}}, "weekday": "sunday", "livingplace": "Zurich"}}, "location": "Z\u00fcrich"}, "Z\u00fcrich Marathon, Teamrun und Cityrun": {"latitude": 47.3768866, "longitude": 8.541694, "race": "Z\u00fcrich Marathon, Teamrun und Cityrun", "date": {"dim. 06.04.2014": {"year": 2014, "day": 6, "month": 4, "categories": {"10-M30": {"distance": 10, "rank": 376, "pace": 331000000000, "time": 3243.9}}, "weekday": "sunday", "livingplace": "Zurich"}, "dim. 19.04.2015": {"year": 2015, "day": 19, "month": 4, "categories": {"42-M30": {"distance": 42, "rank": 569, "pace": 399000000000, "time": 16877.2}}, "weekday": "sunday", "livingplace": "Zurich"}}, "location": "Z\u00fcrich"}}, "birth": 1982}