{"name": "Studer Robert", "sex": "M", "races": {"Lucerne Marathon, Luzern": {"latitude": 47.05016819999999, "longitude": 8.3093072, "race": "Lucerne Marathon, Luzern", "date": {"dim. 31.10.2010": {"year": 2010, "day": 31, "month": 10, "categories": {"H-M40": {"distance": 21, "rank": 523, "pace": 297000000000, "time": 6282.9}}, "weekday": "sunday", "livingplace": "Rubigen"}, "dim. 28.10.2012": {"year": 2012, "day": 28, "month": 10, "categories": {"M-M40": {"distance": 42, "rank": 171, "pace": 312000000000, "time": 13196.5}}, "weekday": "sunday", "livingplace": "Rubigen"}}, "location": "Luzern"}, "Luzerner Stadtlauf": {"latitude": 47.05016819999999, "longitude": 8.3093072, "race": "Luzerner Stadtlauf", "date": {"sam. 25.04.2015": {"year": 2015, "day": 25, "month": 4, "categories": {"K-31": {"distance": 6, "rank": 133, "pace": 333000000000, "time": 1878.9}}, "weekday": "saturday", "livingplace": "Rubigen"}}, "location": "Luzern"}, "SwissCityMarathon - Lucerne, Luzern": {"latitude": 47.05016819999999, "longitude": 8.3093072, "race": "SwissCityMarathon - Lucerne, Luzern", "date": {"dim. 26.10.2014": {"year": 2014, "day": 26, "month": 10, "categories": {"M-M40": {"distance": 42, "rank": 205, "pace": 318000000000, "time": 13426.0}}, "weekday": "sunday", "livingplace": "Rubigen"}, "dim. 27.10.2013": {"year": 2013, "day": 27, "month": 10, "categories": {"M-M40": {"distance": 42, "rank": 119, "pace": 294000000000, "time": 12446.9}}, "weekday": "sunday", "livingplace": "Rubigen"}}, "location": "Luzern"}, "Jungfrau-Marathon, Interlaken": {"latitude": NaN, "longitude": NaN, "race": "Jungfrau-Marathon, Interlaken", "date": {"sam. 11.09.2010": {"year": 2010, "day": 11, "month": 9, "categories": {"M40": {"distance": 42, "rank": 455, "pace": 476000000000, "time": 20107.2}}, "weekday": "saturday", "livingplace": "Rubigen"}, "sam. 10.09.2011": {"year": 2011, "day": 10, "month": 9, "categories": {"M40": {"distance": 42, "rank": 479, "pace": 506000000000, "time": 21354.7}}, "weekday": "saturday", "livingplace": "Rubigen"}}, "location": "Interlaken"}, "Morat-Fribourg": {"latitude": 46.92922110000001, "longitude": 7.120184, "race": "Morat-Fribourg", "date": {"sam. 03.10.2015": {"year": 2015, "day": 3, "month": 10, "categories": {"17-M45": {"distance": 17, "rank": 100, "pace": 278000000000, "time": 4790.4}}, "weekday": "saturday", "livingplace": "Rubigen"}}, "location": "Murten"}, "Gurtenclassic, Wabern": {"latitude": 46.92901639999999, "longitude": 7.448973199999999, "race": "Gurtenclassic, Wabern", "date": {"dim. 02.11.2014": {"year": 2014, "day": 2, "month": 11, "categories": {"M40": {"distance": 15, "rank": 63, "pace": 315000000000, "time": 4726.3}}, "weekday": "sunday", "livingplace": "Rubigen"}}, "location": "Wabern"}, "Kerzerslauf": {"latitude": 46.97488999999999, "longitude": 7.1954365, "race": "Kerzerslauf", "date": {"sam. 21.03.2015": {"year": 2015, "day": 21, "month": 3, "categories": {"15-M45": {"distance": 15, "rank": 185, "pace": 276000000000, "time": 4141.3}}, "weekday": "saturday", "livingplace": "Rubigen"}}, "location": "Kerzers"}, "Z\u00fcrich Marathon, Teamrun und Cityrun": {"latitude": 47.3768866, "longitude": 8.541694, "race": "Z\u00fcrich Marathon, Teamrun und Cityrun", "date": {"dim. 07.04.2013": {"year": 2013, "day": 7, "month": 4, "categories": {"42-M40": {"distance": 42, "rank": 154, "pace": 299000000000, "time": 12653.5}}, "weekday": "sunday", "livingplace": "Rubigen"}}, "location": "Z\u00fcrich"}}, "birth": 1969}