{"name": "Stutz Fredy", "sex": "M", "races": {"Gippinger Stauseelauf": {"latitude": 47.5810513, "longitude": 8.2152586, "race": "Gippinger Stauseelauf", "date": {"dim. 31.12.2006": {"year": 2006, "day": 31, "month": 12, "categories": {"M40": {"distance": 8, "rank": 189, "pace": 274000000000, "time": 2057.5}}, "weekday": "sunday", "livingplace": "Glattbrugg"}}, "location": "Leuggern"}, "Luzerner Stadtlauf": {"latitude": 47.05016819999999, "longitude": 8.3093072, "race": "Luzerner Stadtlauf", "date": {"sam. 24.04.2004": {"year": 2004, "day": 24, "month": 4, "categories": {"K/29": {"distance": 6, "rank": 251, "pace": 282000000000, "time": 1551.2}}, "weekday": "saturday", "livingplace": "Zurich"}}, "location": "Luzern"}, "ASICS Bremgarter Reusslauf": {"latitude": 47.34917739999999, "longitude": 8.3397905, "race": "ASICS Bremgarter Reusslauf", "date": {"sam. 17.02.2007": {"year": 2007, "day": 17, "month": 2, "categories": {"M40": {"distance": 11, "rank": 379, "pace": 276000000000, "time": 2900.4}}, "weekday": "saturday", "livingplace": "Glattbrugg"}}, "location": "Bremgarten AG"}, "Derendinger Abendlauf, Derendingen": {"latitude": 47.1952433, "longitude": 7.585593099999999, "race": "Derendinger Abendlauf, Derendingen", "date": {"ven. 29.06.2007": {"year": 2007, "day": 29, "month": 6, "categories": {"S2": {"distance": 11, "rank": 64, "pace": 353000000000, "time": 3777.8}}, "weekday": "friday", "livingplace": "Rombach"}}, "location": "Derendingen"}, "Dietiker Neujahrslauf, Dietikon": {"latitude": 47.4053885, "longitude": 8.39977, "race": "Dietiker Neujahrslauf, Dietikon", "date": {"sam. 08.01.2005": {"year": 2005, "day": 8, "month": 1, "categories": {"C": {"distance": 12, "rank": 201, "pace": 287000000000, "time": 3476.4}}, "weekday": "saturday", "livingplace": "Zurich"}}, "location": "Dietikon"}, "Z\u00fcrich Marathon, Teamrun und Cityrun": {"latitude": 47.3768866, "longitude": 8.541694, "race": "Z\u00fcrich Marathon, Teamrun und Cityrun", "date": {"dim. 13.04.2003": {"year": 2003, "day": 13, "month": 4, "categories": {"M30": {"distance": 42, "rank": 1465, "pace": 409000000000, "time": 17281.8}}, "weekday": "sunday", "livingplace": "Zurich"}, "dim. 03.04.2005": {"year": 2005, "day": 3, "month": 4, "categories": {"M40": {"distance": 42, "rank": 780, "pace": 345000000000, "time": 14586.4}}, "weekday": "sunday", "livingplace": "Zurich"}}, "location": "Z\u00fcrich"}, "Hallwilerseelauf, Beinwil am See": {"latitude": NaN, "longitude": NaN, "race": "Hallwilerseelauf, Beinwil am See", "date": {"sam. 09.10.2004": {"year": 2004, "day": 9, "month": 10, "categories": {"13": {"distance": 21, "rank": 606, "pace": 337000000000, "time": 7125.3}}, "weekday": "saturday", "livingplace": "Zurich"}}, "location": "Beinwil am See"}, "Int Greifenseelauf, Uster": {"latitude": 47.3482747, "longitude": 8.717873899999999, "race": "Int Greifenseelauf, Uster", "date": {"sam. 16.09.2006": {"year": 2006, "day": 16, "month": 9, "categories": {"H/M40": {"distance": 21, "rank": 780, "pace": 328000000000, "time": 6933.7}}, "weekday": "saturday", "livingplace": "Zurich"}}, "location": "Uster"}}, "birth": 1964}