{"name": "Suchet Claudia", "sex": "F", "races": {"Groupe E Tour Fribourg #4, Siviriez": {"latitude": 46.6585092, "longitude": 6.877722, "race": "Groupe E Tour Fribourg #4, Siviriez", "date": {"mer. 10.09.2014": {"year": 2014, "day": 10, "month": 9, "categories": {"D-Dam2": {"distance": 11, "rank": 26, "pace": 437000000000, "time": 4728.2}}, "weekday": "wednesday", "livingplace": "Grandvillard"}}, "location": "Siviriez"}, "Groupe E Tour Fribourg #3, Kerzers": {"latitude": 46.97488999999999, "longitude": 7.1954365, "race": "Groupe E Tour Fribourg #3, Kerzers", "date": {"mer. 03.09.2014": {"year": 2014, "day": 3, "month": 9, "categories": {"D-Dam2": {"distance": 10, "rank": 28, "pace": 375000000000, "time": 3820.7}}, "weekday": "wednesday", "livingplace": "Grandvillard"}}, "location": "Kerzers"}, "Groupe E Tour Fribourg #5, Givisiez": {"latitude": 46.8128615, "longitude": 7.131657799999999, "race": "Groupe E Tour Fribourg #5, Givisiez", "date": {"mer. 17.09.2014": {"year": 2014, "day": 17, "month": 9, "categories": {"D-Dam2": {"distance": 10, "rank": 36, "pace": 389000000000, "time": 4004.4}}, "weekday": "wednesday", "livingplace": "Grandvillard"}}, "location": "Givisiez"}, "Corrida Bulloise, Bulle": {"latitude": 46.6154512, "longitude": 7.057726799999999, "race": "Corrida Bulloise, Bulle", "date": {"sam. 15.11.2014": {"year": 2014, "day": 15, "month": 11, "categories": {"6-F20": {"distance": 6, "rank": 171, "pace": 349000000000, "time": 2151.9}}, "weekday": "saturday", "livingplace": "Grandvillard"}, "sam. 21.11.2015": {"year": 2015, "day": 21, "month": 11, "categories": {"6-F20": {"distance": 6, "rank": 215, "pace": 363000000000, "time": 2233.8}}, "weekday": "saturday", "livingplace": "Grandvillard"}}, "location": "Bulle"}, "Groupe E Tour Fribourg #1, Cousset": {"latitude": 46.81832, "longitude": 6.977279999999999, "race": "Groupe E Tour Fribourg #1, Cousset", "date": {"mer. 20.08.2014": {"year": 2014, "day": 20, "month": 8, "categories": {"D-Dam2": {"distance": 9, "rank": 31, "pace": 379000000000, "time": 3569.8}}, "weekday": "wednesday", "livingplace": "Grandvillard"}}, "location": "Cousset"}}, "birth": 1981}