{"name": "Sugnaux Florent", "sex": "M", "races": {"Morat-Fribourg": {"latitude": 46.92922110000001, "longitude": 7.120184, "race": "Morat-Fribourg", "date": {"sam. 05.10.2013": {"year": 2013, "day": 5, "month": 10, "categories": {"17-M20": {"distance": 17, "rank": 168, "pace": 245000000000, "time": 4290.5}}, "weekday": "saturday", "livingplace": "Siviriez"}, "sam. 03.10.2015": {"year": 2015, "day": 3, "month": 10, "categories": {"17-M20": {"distance": 17, "rank": 86, "pace": 239000000000, "time": 4108.9}}, "weekday": "saturday", "livingplace": "Siviriez"}}, "location": "Murten"}, "Corrida Bulloise, Bulle": {"latitude": 46.6154512, "longitude": 7.057726799999999, "race": "Corrida Bulloise, Bulle", "date": {"sam. 16.11.2013": {"year": 2013, "day": 16, "month": 11, "categories": {"PopHomm": {"distance": 6, "rank": 15, "pace": 224000000000, "time": 1381.0}}, "weekday": "saturday", "livingplace": "Siviriez"}, "sam. 15.11.2008": {"year": 2008, "day": 15, "month": 11, "categories": {"CMA": {"distance": 5, "rank": 5, "pace": 210000000000, "time": 1052.6}}, "weekday": "saturday", "livingplace": "Siviriez"}}, "location": "Bulle"}, "Groupe E Tour Fribourg #5 Fribourg": {"latitude": 46.8128615, "longitude": 7.131657799999999, "race": "Groupe E Tour Fribourg #5 Fribourg", "date": {"mer. 18.09.2013": {"year": 2013, "day": 18, "month": 9, "categories": {"HE": {"distance": 10, "rank": 10, "pace": 236000000000, "time": 2365.8}}, "weekday": "wednesday", "livingplace": "Siviriez"}}, "location": "Givisiez"}, "Groupe E Tour Fribourg #3 Charmey": {"latitude": 46.97488999999999, "longitude": 7.1954365, "race": "Groupe E Tour Fribourg #3 Charmey", "date": {"mer. 04.09.2013": {"year": 2013, "day": 4, "month": 9, "categories": {"HE": {"distance": 11, "rank": 15, "pace": 270000000000, "time": 2935.3}}, "weekday": "wednesday", "livingplace": "Siviriez"}}, "location": "Kerzers"}, "Groupe E Tour Fribourg #4 Montagny": {"latitude": 46.6585092, "longitude": 6.877722, "race": "Groupe E Tour Fribourg #4 Montagny", "date": {"mer. 11.09.2013": {"year": 2013, "day": 11, "month": 9, "categories": {"HE": {"distance": 10, "rank": 9, "pace": 239000000000, "time": 2346.6}}, "weekday": "wednesday", "livingplace": "Siviriez"}}, "location": "Siviriez"}, "20km de Lausanne": {"latitude": 46.5196535, "longitude": 6.6322734, "race": "20km de Lausanne", "date": {"sam. 30.04.2011": {"year": 2011, "day": 30, "month": 4, "categories": {"20-H20": {"distance": 20, "rank": 400, "pace": 326000000000, "time": 6536.9}}, "weekday": "saturday", "livingplace": "Siviriez"}, "sam. 26.04.2014": {"year": 2014, "day": 26, "month": 4, "categories": {"20-H20": {"distance": 20, "rank": 13, "pace": 228000000000, "time": 4567.6}}, "weekday": "saturday", "livingplace": "Romont"}}, "location": "Lausanne"}, "Course de l'Avent, Fribourg": {"latitude": 46.8064773, "longitude": 7.161971899999999, "race": "Course de l'Avent, Fribourg", "date": {"dim. 24.11.2013": {"year": 2013, "day": 24, "month": 11, "categories": {"P-H20": {"distance": 6, "rank": 4, "pace": 230000000000, "time": 1453.6}}, "weekday": "sunday", "livingplace": "Siviriez"}}, "location": "Fribourg"}}, "birth": 1991}