{"name": "Suris Miret Joan", "sex": "M", "races": {"SwissCityMarathon - Lucerne, Luzern": {"latitude": 47.05016819999999, "longitude": 8.3093072, "race": "SwissCityMarathon - Lucerne, Luzern", "date": {"dim. 26.10.2014": {"year": 2014, "day": 26, "month": 10, "categories": {"F-Mann": {"distance": 9, "rank": 291, "pace": 342000000000, "time": 2957.0}}, "weekday": "sunday", "livingplace": "Etoy"}}, "location": "Luzern"}, "Lausanne Marathon": {"latitude": 46.5196535, "longitude": 6.6322734, "race": "Lausanne Marathon", "date": {"dim. 27.10.2013": {"year": 2013, "day": 27, "month": 10, "categories": {"10-H1": {"distance": 10, "rank": 276, "pace": 300000000000, "time": 3009.3}}, "weekday": "sunday", "livingplace": "Etoy"}}, "location": "Lausanne"}, "Course de l'Escalade, Gen\u00e8ve": {"latitude": 46.2043907, "longitude": 6.1431577, "race": "Course de l'Escalade, Gen\u00e8ve", "date": {"sam. 03.12.2011": {"year": 2011, "day": 3, "month": 12, "categories": {"H-H1": {"distance": 7, "rank": 889, "pace": 324000000000, "time": 2350.5}}, "weekday": "saturday", "livingplace": "Etoy"}}, "location": "Gen\u00e8ve"}, "20km de Lausanne": {"latitude": 46.5196535, "longitude": 6.6322734, "race": "20km de Lausanne", "date": {"sam. 30.04.2011": {"year": 2011, "day": 30, "month": 4, "categories": {"10-H20": {"distance": 10, "rank": 176, "pace": 281000000000, "time": 2815.3}}, "weekday": "saturday", "livingplace": "Etoy"}, "sam. 24.04.2010": {"year": 2010, "day": 24, "month": 4, "categories": {"10-H20": {"distance": 10, "rank": 166, "pace": 288000000000, "time": 2881.5}}, "weekday": "saturday", "livingplace": "Etoy"}}, "location": "Lausanne"}, "Morat-Fribourg": {"latitude": 46.92922110000001, "longitude": 7.120184, "race": "Morat-Fribourg", "date": {"sam. 04.10.2014": {"year": 2014, "day": 4, "month": 10, "categories": {"17-M20": {"distance": 17, "rank": 2207, "pace": 439000000000, "time": 7548.1}}, "weekday": "saturday", "livingplace": "Etoy"}}, "location": "Murten"}, "Kerzerslauf": {"latitude": 46.97488999999999, "longitude": 7.1954365, "race": "Kerzerslauf", "date": {"sam. 21.03.2015": {"year": 2015, "day": 21, "month": 3, "categories": {"5-M20": {"distance": 5, "rank": 151, "pace": 339000000000, "time": 1698.6}}, "weekday": "saturday", "livingplace": "Lausanne"}}, "location": "Kerzers"}}, "birth": 1989}