{"name": "Suter Fiore", "sex": "M", "races": {"Luzerner Stadtlauf": {"latitude": 47.05016819999999, "longitude": 8.3093072, "race": "Luzerner Stadtlauf", "date": {"sam. 25.04.2015": {"year": 2015, "day": 25, "month": 4, "categories": {"K-35": {"distance": 6, "rank": 32, "pace": 232000000000, "time": 1312.7}}, "weekday": "saturday", "livingplace": "Geneve"}}, "location": "Luzern"}, "Course de l'Escalade, Gen\u00e8ve": {"latitude": 46.2043907, "longitude": 6.1431577, "race": "Course de l'Escalade, Gen\u00e8ve", "date": {"sam. 05.12.2015": {"year": 2015, "day": 5, "month": 12, "categories": {"Esc-Hom2": {"distance": 7, "rank": 60, "pace": 228000000000, "time": 1676.7}}, "weekday": "saturday", "livingplace": "Geneve"}, "sam. 06.12.2014": {"year": 2014, "day": 6, "month": 12, "categories": {"Esc-Hom2": {"distance": 7, "rank": 516, "pace": 273000000000, "time": 2004.8}}, "weekday": "saturday", "livingplace": "Geneve"}}, "location": "Gen\u00e8ve"}, "Lausanne Marathon": {"latitude": 46.5196535, "longitude": 6.6322734, "race": "Lausanne Marathon", "date": {"sam. 24.10.2015": {"year": 2015, "day": 24, "month": 10, "categories": {"10-H30": {"distance": 10, "rank": 31, "pace": 218000000000, "time": 2188.5}}, "weekday": "saturday", "livingplace": "Geneve"}}, "location": "Lausanne"}, "Morat-Fribourg": {"latitude": 46.92922110000001, "longitude": 7.120184, "race": "Morat-Fribourg", "date": {"sam. 03.10.2015": {"year": 2015, "day": 3, "month": 10, "categories": {"17-M20": {"distance": 17, "rank": 97, "pace": 243000000000, "time": 4174.6}}, "weekday": "saturday", "livingplace": "Geneve"}}, "location": "Murten"}, "Aletsch-Halbmarathon, Bettmeralp": {"latitude": NaN, "longitude": NaN, "race": "Aletsch-Halbmarathon, Bettmeralp", "date": {"dim. 28.06.2015": {"year": 2015, "day": 28, "month": 6, "categories": {"M35": {"distance": 21, "rank": 13, "pace": 355000000000, "time": 7493.4}}, "weekday": "sunday", "livingplace": "Geneve"}}, "location": "Bettmeralp"}, "Kerzerslauf": {"latitude": 46.97488999999999, "longitude": 7.1954365, "race": "Kerzerslauf", "date": {"sam. 21.03.2015": {"year": 2015, "day": 21, "month": 3, "categories": {"15-M35": {"distance": 15, "rank": 55, "pace": 244000000000, "time": 3663.1}}, "weekday": "saturday", "livingplace": "Geneve"}}, "location": "Kerzers"}}, "birth": 1978}