{"name": "Suter Olivier", "sex": "M", "races": {"Tour du pays de Vaud #1 \u2013 St  Prex": {"latitude": 46.7784736, "longitude": 6.641183, "race": "Tour du pays de Vaud #1 \u2013 St  Prex", "date": {"mer. 11.08.2010": {"year": 2010, "day": 11, "month": 8, "categories": {"HSen2": {"distance": 8, "rank": 192, "pace": 442000000000, "time": 3716.8}}, "weekday": "wednesday", "livingplace": "Lausanne"}}, "location": "Yverdon-les-Bains"}, "Tour du pays de Vaud #5 - Penthaz": {"latitude": 46.5993131, "longitude": 6.539251200000001, "race": "Tour du pays de Vaud #5 - Penthaz", "date": {"mer. 07.09.2011": {"year": 2011, "day": 7, "month": 9, "categories": {"H-Sen2": {"distance": 8, "rank": 158, "pace": 425000000000, "time": 3555.4}}, "weekday": "wednesday", "livingplace": "Lausanne"}}, "location": "Penthaz"}, "Tour du pays de Vaud #6 - St  Prex": {"latitude": 46.4829113, "longitude": 6.458343500000001, "race": "Tour du pays de Vaud #6 - St  Prex", "date": {"mer. 14.09.2011": {"year": 2011, "day": 14, "month": 9, "categories": {"H-Sen2": {"distance": 9, "rank": 199, "pace": 342000000000, "time": 2944.3}}, "weekday": "wednesday", "livingplace": "Lausanne"}}, "location": "St-Prex"}, "Tour du Pays de Vaud printanier #2 Yverdon-les-Bains": {"latitude": 46.6698891, "longitude": 6.7975224, "race": "Tour du Pays de Vaud printanier #2 Yverdon-les-Bains", "date": {"mer. 05.06.2013": {"year": 2013, "day": 5, "month": 6, "categories": {"H-Sen2": {"distance": 9, "rank": 93, "pace": 441000000000, "time": 4013.1}}, "weekday": "wednesday", "livingplace": "Lausanne"}}, "location": "Moudon"}, "Lausanne Marathon": {"latitude": 46.5196535, "longitude": 6.6322734, "race": "Lausanne Marathon", "date": {"dim. 31.10.2010": {"year": 2010, "day": 31, "month": 10, "categories": {"21-H3": {"distance": 21, "rank": 791, "pace": 352000000000, "time": 7444.1}}, "weekday": "sunday", "livingplace": "Lausanne"}}, "location": "Lausanne"}, "Tour du Pays de Vaud printanier #3 - Yens": {"latitude": 46.7829756, "longitude": 6.5728678, "race": "Tour du Pays de Vaud printanier #3 - Yens", "date": {"mer. 12.06.2013": {"year": 2013, "day": 12, "month": 6, "categories": {"H-Sen2": {"distance": 9, "rank": 102, "pace": 416000000000, "time": 3789.1}}, "weekday": "wednesday", "livingplace": "Lausanne"}}, "location": "Champvent"}, "20km de Lausanne": {"latitude": 46.5196535, "longitude": 6.6322734, "race": "20km de Lausanne", "date": {"sam. 30.04.2011": {"year": 2011, "day": 30, "month": 4, "categories": {"10-H40": {"distance": 10, "rank": 489, "pace": 431000000000, "time": 4319.3}}, "weekday": "saturday", "livingplace": "Les electrons libres en a"}, "sam. 24.04.2010": {"year": 2010, "day": 24, "month": 4, "categories": {"10-H40": {"distance": 10, "rank": 456, "pace": 451000000000, "time": 4515.1}}, "weekday": "saturday", "livingplace": "Les electrons libres en a"}, "sam. 26.04.2014": {"year": 2014, "day": 26, "month": 4, "categories": {"20-H45": {"distance": 20, "rank": 376, "pace": 415000000000, "time": 8314.6}}, "weekday": "saturday", "livingplace": "Lausanne"}}, "location": "Lausanne"}, "Tour du Pays de Vaud #3 - Chavornay": {"latitude": 46.7784736, "longitude": 6.641183, "race": "Tour du Pays de Vaud #3 - Chavornay", "date": {"mer. 28.08.2013": {"year": 2013, "day": 28, "month": 8, "categories": {"H-Sen2": {"distance": 9, "rank": 185, "pace": 417000000000, "time": 3713.1}}, "weekday": "wednesday", "livingplace": "Lausanne"}}, "location": "Yverdon-les-Bains"}, "Kerzerslauf": {"latitude": 46.97488999999999, "longitude": 7.1954365, "race": "Kerzerslauf", "date": {"sam. 15.03.2014": {"year": 2014, "day": 15, "month": 3, "categories": {"15-M45": {"distance": 15, "rank": 603, "pace": 426000000000, "time": 6403.1}}, "weekday": "saturday", "livingplace": "Lausanne"}}, "location": "Kerzers"}}, "birth": 1968}