{"name": "Tagini Pierre-Olivier", "sex": "M", "races": {"Morat-Fribourg": {"latitude": 46.92922110000001, "longitude": 7.120184, "race": "Morat-Fribourg", "date": {"sam. 02.10.2010": {"year": 2010, "day": 2, "month": 10, "categories": {"17-M40": {"distance": 17, "rank": 323, "pace": 304000000000, "time": 5229.6}}, "weekday": "saturday", "livingplace": "Gletterens"}, "sam. 03.10.2015": {"year": 2015, "day": 3, "month": 10, "categories": {"17-M45": {"distance": 17, "rank": 176, "pace": 292000000000, "time": 5021.9}}, "weekday": "saturday", "livingplace": "Gletterens"}}, "location": "Murten"}, "BCN Tour Ponts-de-Martel": {"latitude": 47.0624261, "longitude": 6.9175754, "race": "BCN Tour Ponts-de-Martel", "date": {"mer. 28.04.2010": {"year": 2010, "day": 28, "month": 4, "categories": {"HS2": {"distance": 11, "rank": 35, "pace": 262000000000, "time": 2942.5}}, "weekday": "wednesday", "livingplace": "Gletterens"}}, "location": "Ch\u00e9zard-St-Martin"}, "BCN Tour Le Locle": {"latitude": 46.999113, "longitude": 6.733554799999999, "race": "BCN Tour Le Locle", "date": {"mer. 05.05.2010": {"year": 2010, "day": 5, "month": 5, "categories": {"HS2": {"distance": 11, "rank": 34, "pace": 257000000000, "time": 2803.1}}, "weekday": "wednesday", "livingplace": "Gletterens"}}, "location": "Les Ponts-de-Martel"}, "BCN Tour Le Landeron": {"latitude": 46.9668714, "longitude": 6.8589727, "race": "BCN Tour Le Landeron", "date": {"mer. 22.04.2009": {"year": 2009, "day": 22, "month": 4, "categories": {"HS1": {"distance": 11, "rank": 71, "pace": 275000000000, "time": 3063.5}}, "weekday": "wednesday", "livingplace": "Petroplus refining Cressi"}}, "location": "Colombier NE"}, "BCN Tour Colombier": {"latitude": 46.9668714, "longitude": 6.8589727, "race": "BCN Tour Colombier", "date": {"mer. 21.04.2010": {"year": 2010, "day": 21, "month": 4, "categories": {"HS2": {"distance": 10, "rank": 49, "pace": 285000000000, "time": 2851.5}}, "weekday": "wednesday", "livingplace": "Gletterens"}}, "location": "Colombier NE"}, "Les Traine-Savates, Cheseaux-sur-Lausanne": {"latitude": 46.585452, "longitude": 6.6047712, "race": "Les Traine-Savates, Cheseaux-sur-Lausanne", "date": {"sam. 18.04.2015": {"year": 2015, "day": 18, "month": 4, "categories": {"10-M40": {"distance": 10, "rank": 36, "pace": 250000000000, "time": 2576.3}}, "weekday": "saturday", "livingplace": "Gletterens"}}, "location": "Cheseaux-sur-Lausanne"}, "Kerzerslauf": {"latitude": 46.97488999999999, "longitude": 7.1954365, "race": "Kerzerslauf", "date": {"sam. 20.03.2010": {"year": 2010, "day": 20, "month": 3, "categories": {"15-M40": {"distance": 15, "rank": 140, "pace": 263000000000, "time": 3945.5}}, "weekday": "saturday", "livingplace": "Gletterens"}, "sam. 21.03.2015": {"year": 2015, "day": 21, "month": 3, "categories": {"15-M45": {"distance": 15, "rank": 89, "pace": 256000000000, "time": 3853.6}}, "weekday": "saturday", "livingplace": "Gletterens"}, "sam. 21.03.2009": {"year": 2009, "day": 21, "month": 3, "categories": {"15-M35": {"distance": 15, "rank": 156, "pace": 267000000000, "time": 4013.0}}, "weekday": "saturday", "livingplace": "Gletterens"}}, "location": "Kerzers"}}, "birth": 1970}