{"name": "Tenas Oller Nuria", "sex": "F", "races": {"Morat-Fribourg": {"latitude": 46.92922110000001, "longitude": 7.120184, "race": "Morat-Fribourg", "date": {"sam. 04.10.2014": {"year": 2014, "day": 4, "month": 10, "categories": {"17-W20": {"distance": 17, "rank": 14, "pace": 258000000000, "time": 4433.7}}, "weekday": "saturday", "livingplace": "Lausanne"}}, "location": "Murten"}, "Corrida Bulloise, Bulle": {"latitude": 46.6154512, "longitude": 7.057726799999999, "race": "Corrida Bulloise, Bulle", "date": {"sam. 15.11.2014": {"year": 2014, "day": 15, "month": 11, "categories": {"6-F20": {"distance": 6, "rank": 3, "pace": 238000000000, "time": 1464.1}}, "weekday": "saturday", "livingplace": "Lausanne"}}, "location": "Bulle"}, "Tour du Pays de Vaud #3 - Mezi\u00e8res": {"latitude": 46.7784736, "longitude": 6.641183, "race": "Tour du Pays de Vaud #3 - Mezi\u00e8res", "date": {"mer. 22.08.2012": {"year": 2012, "day": 22, "month": 8, "categories": {"D-Dam": {"distance": 8, "rank": 10, "pace": 301000000000, "time": 2529.5}}, "weekday": "wednesday", "livingplace": "Ecublens"}}, "location": "Yverdon-les-Bains"}, "20km de Lausanne": {"latitude": 46.5196535, "longitude": 6.6322734, "race": "20km de Lausanne", "date": {"sam. 30.04.2011": {"year": 2011, "day": 30, "month": 4, "categories": {"20-F20": {"distance": 20, "rank": 3, "pace": 270000000000, "time": 5417.2}}, "weekday": "saturday", "livingplace": "Footing Club 20km 4"}, "sam. 28.04.2012": {"year": 2012, "day": 28, "month": 4, "categories": {"20-F20": {"distance": 20, "rank": 11, "pace": 281000000000, "time": 5621.5}}, "weekday": "saturday", "livingplace": "Ecublens"}, "sam. 25.04.2015": {"year": 2015, "day": 25, "month": 4, "categories": {"20-F20": {"distance": 20, "rank": 4, "pace": 238000000000, "time": 4774.2}}, "weekday": "saturday", "livingplace": "Footing club lausanne"}}, "location": "Lausanne"}, "Aletsch-Halbmarathon, Bettmeralp": {"latitude": NaN, "longitude": NaN, "race": "Aletsch-Halbmarathon, Bettmeralp", "date": {"dim. 29.06.2014": {"year": 2014, "day": 29, "month": 6, "categories": {"F20": {"distance": 13, "rank": 12, "pace": 332000000000, "time": 4425.7}}, "weekday": "sunday", "livingplace": "Lausanne"}, "dim. 28.06.2015": {"year": 2015, "day": 28, "month": 6, "categories": {"F20": {"distance": 21, "rank": 27, "pace": 423000000000, "time": 8936.7}}, "weekday": "sunday", "livingplace": "Lausanne"}}, "location": "Bettmeralp"}, "Kerzerslauf": {"latitude": 46.97488999999999, "longitude": 7.1954365, "race": "Kerzerslauf", "date": {"sam. 15.03.2014": {"year": 2014, "day": 15, "month": 3, "categories": {"15-F20": {"distance": 15, "rank": 21, "pace": 252000000000, "time": 3784.8}}, "weekday": "saturday", "livingplace": "Lausanne"}}, "location": "Kerzers"}, "Tour du Pays de Vaud #2 - Genolier": {"latitude": 46.5955273, "longitude": 6.7702883, "race": "Tour du Pays de Vaud #2 - Genolier", "date": {"mer. 15.08.2012": {"year": 2012, "day": 15, "month": 8, "categories": {"D-Dam": {"distance": 9, "rank": 8, "pace": 284000000000, "time": 2416.7}}, "weekday": "wednesday", "livingplace": "Ecublens"}}, "location": "M\u00e9zi\u00e8res VD"}, "Tour du Pays de Vaud #2 - Mezi\u00e8res": {"latitude": 46.5955273, "longitude": 6.7702883, "race": "Tour du Pays de Vaud #2 - Mezi\u00e8res", "date": {"mer. 21.08.2013": {"year": 2013, "day": 21, "month": 8, "categories": {"D-Dam": {"distance": 8, "rank": 5, "pace": 280000000000, "time": 2270.3}}, "weekday": "wednesday", "livingplace": "Lausanne"}}, "location": "M\u00e9zi\u00e8res VD"}, "Lausanne Marathon": {"latitude": 46.5196535, "longitude": 6.6322734, "race": "Lausanne Marathon", "date": {"dim. 27.10.2013": {"year": 2013, "day": 27, "month": 10, "categories": {"42-D1": {"distance": 42, "rank": 2, "pace": 275000000000, "time": 11619.5}}, "weekday": "sunday", "livingplace": "Lausanne"}}, "location": "Lausanne"}, "Tour du Pays de Vaud #4 - La Sarraz": {"latitude": 46.7088129, "longitude": 6.5707689, "race": "Tour du Pays de Vaud #4 - La Sarraz", "date": {"mer. 29.08.2012": {"year": 2012, "day": 29, "month": 8, "categories": {"D-Dam": {"distance": 9, "rank": 6, "pace": 266000000000, "time": 2268.8}}, "weekday": "wednesday", "livingplace": "Ecublens"}, "mer. 04.09.2013": {"year": 2013, "day": 4, "month": 9, "categories": {"D-Dam": {"distance": 9, "rank": 2, "pace": 255000000000, "time": 2174.1}}, "weekday": "wednesday", "livingplace": "Lausanne"}}, "location": "Chavornay"}, "Tour du pays de Vaud #1 - Penthaz": {"latitude": 46.5993131, "longitude": 6.539251200000001, "race": "Tour du pays de Vaud #1 - Penthaz", "date": {"mer. 14.08.2013": {"year": 2013, "day": 14, "month": 8, "categories": {"D-Dam": {"distance": 9, "rank": 4, "pace": 255000000000, "time": 2175.6}}, "weekday": "wednesday", "livingplace": "Lausanne"}, "mer. 08.08.2012": {"year": 2012, "day": 8, "month": 8, "categories": {"D-Dam": {"distance": 9, "rank": 11, "pace": 279000000000, "time": 2380.0}}, "weekday": "wednesday", "livingplace": "Ecublens"}}, "location": "Penthaz"}, "Les Traine-Savates, Cheseaux-sur-Lausanne": {"latitude": 46.585452, "longitude": 6.6047712, "race": "Les Traine-Savates, Cheseaux-sur-Lausanne", "date": {"sam. 12.04.2014": {"year": 2014, "day": 12, "month": 4, "categories": {"10-W20": {"distance": 10, "rank": 8, "pace": 250000000000, "time": 2582.9}}, "weekday": "saturday", "livingplace": "Lausanne"}}, "location": "Cheseaux-sur-Lausanne"}}, "birth": 1986}