{"name": "Terrettaz Laure", "sex": "F", "races": {"Tour du Pays de Vaud printanier #2 Yverdon-les-Bains": {"latitude": 46.6698891, "longitude": 6.7975224, "race": "Tour du Pays de Vaud printanier #2 Yverdon-les-Bains", "date": {"mer. 05.06.2013": {"year": 2013, "day": 5, "month": 6, "categories": {"D-Sen1": {"distance": 9, "rank": 22, "pace": 347000000000, "time": 3158.6}}, "weekday": "wednesday", "livingplace": "Grandson"}}, "location": "Moudon"}, "20km de Lausanne": {"latitude": 46.5196535, "longitude": 6.6322734, "race": "20km de Lausanne", "date": {"sam. 25.04.2015": {"year": 2015, "day": 25, "month": 4, "categories": {"10-F30": {"distance": 10, "rank": 241, "pace": 329000000000, "time": 3298.6}}, "weekday": "saturday", "livingplace": "Gais"}}, "location": "Lausanne"}, "Tour du pays de Vaud #6 - St  Prex": {"latitude": 46.4829113, "longitude": 6.458343500000001, "race": "Tour du pays de Vaud #6 - St  Prex", "date": {"mer. 14.09.2011": {"year": 2011, "day": 14, "month": 9, "categories": {"D-Sen1": {"distance": 9, "rank": 50, "pace": 330000000000, "time": 2839.0}}, "weekday": "wednesday", "livingplace": "Grandson"}}, "location": "St-Prex"}, "Course de l'Avent, Yverdon": {"latitude": 46.8064773, "longitude": 7.161971899999999, "race": "Course de l'Avent, Yverdon", "date": {"dim. 28.11.2010": {"year": 2010, "day": 28, "month": 11, "categories": {"E-F33": {"distance": 8, "rank": 11, "pace": 327000000000, "time": 2531.0}}, "weekday": "sunday", "livingplace": "Grandson"}, "dim. 27.11.2011": {"year": 2011, "day": 27, "month": 11, "categories": {"E-F2": {"distance": 8, "rank": 12, "pace": 326000000000, "time": 2522.2}}, "weekday": "sunday", "livingplace": "Grandson"}}, "location": "Fribourg"}, "Tour du pays de Vaud #1 - Mezi\u00e8res": {"latitude": 46.7784736, "longitude": 6.641183, "race": "Tour du pays de Vaud #1 - Mezi\u00e8res", "date": {"mer. 10.08.2011": {"year": 2011, "day": 10, "month": 8, "categories": {"D-Sen1": {"distance": 9, "rank": 50, "pace": 345000000000, "time": 2936.1}}, "weekday": "wednesday", "livingplace": "Grandson"}}, "location": "Yverdon-les-Bains"}, "Tour du Pays de Vaud #3 - Mezi\u00e8res": {"latitude": 46.7784736, "longitude": 6.641183, "race": "Tour du Pays de Vaud #3 - Mezi\u00e8res", "date": {"mer. 22.08.2012": {"year": 2012, "day": 22, "month": 8, "categories": {"D-Sen1": {"distance": 8, "rank": 56, "pace": 392000000000, "time": 3298.4}}, "weekday": "wednesday", "livingplace": "Grandson"}}, "location": "Yverdon-les-Bains"}, "Tour du Pays de Vaud #5 - La Sarraz": {"latitude": 46.5993131, "longitude": 6.539251200000001, "race": "Tour du Pays de Vaud #5 - La Sarraz", "date": {"mer. 08.09.2010": {"year": 2010, "day": 8, "month": 9, "categories": {"Dam": {"distance": 9, "rank": 29, "pace": 388000000000, "time": 3532.5}}, "weekday": "wednesday", "livingplace": "Grandson"}}, "location": "Penthaz"}, "Tour du Pays de Vaud #2 - Mezi\u00e8res": {"latitude": 46.5955273, "longitude": 6.7702883, "race": "Tour du Pays de Vaud #2 - Mezi\u00e8res", "date": {"mer. 21.08.2013": {"year": 2013, "day": 21, "month": 8, "categories": {"D-Sen1": {"distance": 8, "rank": 35, "pace": 358000000000, "time": 2903.7}}, "weekday": "wednesday", "livingplace": "Grandson"}}, "location": "M\u00e9zi\u00e8res VD"}, "Tour du Pays de Vaud #2 - Genolier": {"latitude": 46.5955273, "longitude": 6.7702883, "race": "Tour du Pays de Vaud #2 - Genolier", "date": {"mer. 15.08.2012": {"year": 2012, "day": 15, "month": 8, "categories": {"D-Sen1": {"distance": 9, "rank": 59, "pace": 362000000000, "time": 3079.8}}, "weekday": "wednesday", "livingplace": "Grandson"}, "mer. 17.08.2011": {"year": 2011, "day": 17, "month": 8, "categories": {"D-Sen1": {"distance": 9, "rank": 53, "pace": 362000000000, "time": 3084.0}}, "weekday": "wednesday", "livingplace": "Grandson"}, "mer. 18.08.2010": {"year": 2010, "day": 18, "month": 8, "categories": {"Dam": {"distance": 8, "rank": 25, "pace": 375000000000, "time": 3045.3}}, "weekday": "wednesday", "livingplace": "Grandson"}}, "location": "M\u00e9zi\u00e8res VD"}, "Tour du Pays de Vaud printanier #3 - Yens": {"latitude": 46.7829756, "longitude": 6.5728678, "race": "Tour du Pays de Vaud printanier #3 - Yens", "date": {"mer. 12.06.2013": {"year": 2013, "day": 12, "month": 6, "categories": {"D-Sen1": {"distance": 9, "rank": 38, "pace": 371000000000, "time": 3378.8}}, "weekday": "wednesday", "livingplace": "Grandson"}}, "location": "Champvent"}, "Tour du Pays de Vaud #3 - Chavornay": {"latitude": 46.7784736, "longitude": 6.641183, "race": "Tour du Pays de Vaud #3 - Chavornay", "date": {"mer. 28.08.2013": {"year": 2013, "day": 28, "month": 8, "categories": {"D-Sen1": {"distance": 9, "rank": 47, "pace": 340000000000, "time": 3033.3}}, "weekday": "wednesday", "livingplace": "Grandson"}}, "location": "Yverdon-les-Bains"}, "Tour du pays de Vaud #5 - Penthaz": {"latitude": 46.5993131, "longitude": 6.539251200000001, "race": "Tour du pays de Vaud #5 - Penthaz", "date": {"mer. 07.09.2011": {"year": 2011, "day": 7, "month": 9, "categories": {"D-Sen1": {"distance": 8, "rank": 37, "pace": 384000000000, "time": 3207.6}}, "weekday": "wednesday", "livingplace": "Grandson"}}, "location": "Penthaz"}, "Morat-Fribourg": {"latitude": 46.92922110000001, "longitude": 7.120184, "race": "Morat-Fribourg", "date": {"sam. 03.10.2015": {"year": 2015, "day": 3, "month": 10, "categories": {"17-W20": {"distance": 17, "rank": 310, "pace": 348000000000, "time": 5979.9}}, "weekday": "saturday", "livingplace": "Grandson"}}, "location": "Murten"}, "Tour du Pays de Vaud #4 - La Sarraz": {"latitude": 46.7088129, "longitude": 6.5707689, "race": "Tour du Pays de Vaud #4 - La Sarraz", "date": {"mer. 29.08.2012": {"year": 2012, "day": 29, "month": 8, "categories": {"D-Sen1": {"distance": 9, "rank": 58, "pace": 342000000000, "time": 2909.7}}, "weekday": "wednesday", "livingplace": "Grandson"}, "mer. 04.09.2013": {"year": 2013, "day": 4, "month": 9, "categories": {"D-Sen1": {"distance": 9, "rank": 40, "pace": 338000000000, "time": 2873.1}}, "weekday": "wednesday", "livingplace": "Grandson"}}, "location": "Chavornay"}, "Tour du pays de Vaud #1 - Penthaz": {"latitude": 46.5993131, "longitude": 6.539251200000001, "race": "Tour du pays de Vaud #1 - Penthaz", "date": {"mer. 14.08.2013": {"year": 2013, "day": 14, "month": 8, "categories": {"D-Sen1": {"distance": 9, "rank": 42, "pace": 332000000000, "time": 2839.3}}, "weekday": "wednesday", "livingplace": "Grandson"}, "mer. 08.08.2012": {"year": 2012, "day": 8, "month": 8, "categories": {"D-Sen1": {"distance": 9, "rank": 58, "pace": 351000000000, "time": 2996.7}}, "weekday": "wednesday", "livingplace": "Grandson"}}, "location": "Penthaz"}}, "birth": 1981}