{"name": "Thallinger Anne", "sex": "M", "races": {"Basler Stadtlauf": {"latitude": 47.5595986, "longitude": 7.5885761, "race": "Basler Stadtlauf", "date": {"sam. 28.11.2015": {"year": 2015, "day": 28, "month": 11, "categories": {"F20": {"distance": 6, "rank": 138, "pace": 287000000000, "time": 1579.7}}, "weekday": "saturday", "livingplace": "Burgdorf"}}, "location": "Basel"}, "Corrida Bulloise, Bulle": {"latitude": 46.6154512, "longitude": 7.057726799999999, "race": "Corrida Bulloise, Bulle", "date": {"sam. 17.11.2012": {"year": 2012, "day": 17, "month": 11, "categories": {"F20": {"distance": 6, "rank": 140, "pace": 315000000000, "time": 1940.2}}, "weekday": "saturday", "livingplace": "Burgdorf"}}, "location": "Bulle"}, "Herbstlauf Burgdorf": {"latitude": 45.277123, "longitude": -115.9129022, "race": "Herbstlauf Burgdorf", "date": {"sam. 24.10.2009": {"year": 2009, "day": 24, "month": 10, "categories": {"HardM": {"distance": 2, "rank": 6, "pace": 230000000000, "time": 461.0}}, "weekday": "saturday", "livingplace": "Buren an der Aare"}}, "location": "Burgdorf"}, "Steinh\u00f6lzlilauf, Liebefeld": {"latitude": 46.933331, "longitude": 7.416668, "race": "Steinh\u00f6lzlilauf, Liebefeld", "date": {"dim. 01.12.2002": {"year": 2002, "day": 1, "month": 12, "categories": {"11": {"distance": 0, "rank": 3, "pace": 283000000000, "time": 113.2}}, "weekday": "sunday", "livingplace": "Buren an der Aare"}}, "location": "Liebefeld"}, "Gurtenclassic, Wabern": {"latitude": 46.92901639999999, "longitude": 7.448973199999999, "race": "Gurtenclassic, Wabern", "date": {"dim. 02.11.2003": {"year": 2003, "day": 2, "month": 11, "categories": {"W09": {"distance": 1, "rank": 12, "pace": 295000000000, "time": 295.7}}, "weekday": "sunday", "livingplace": "Buren an der Aare"}, "dim. 07.11.2004": {"year": 2004, "day": 7, "month": 11, "categories": {"W09": {"distance": 1, "rank": 10, "pace": 288000000000, "time": 267.9}}, "weekday": "sunday", "livingplace": "Buren an der Aare"}, "dim. 05.11.2006": {"year": 2006, "day": 5, "month": 11, "categories": {"W11": {"distance": 2, "rank": 14, "pace": 285000000000, "time": 525.9}}, "weekday": "sunday", "livingplace": "Buren an der Aare"}}, "location": "Wabern"}, "Bieler Lauftage, Biel Bienne": {"latitude": 47.1367785, "longitude": 7.2467909, "race": "Bieler Lauftage, Biel Bienne", "date": {"ven. 12.06.2009": {"year": 2009, "day": 12, "month": 6, "categories": {"K/F5": {"distance": 2, "rank": 11, "pace": 271000000000, "time": 542.6}}, "weekday": "friday", "livingplace": "Buren an der Aare"}}, "location": "Biel/Bienne"}}, "birth": 1995}