{"name": "Thoma Erika", "sex": "F", "races": {"Lucerne Marathon, Luzern": {"latitude": 47.05016819999999, "longitude": 8.3093072, "race": "Lucerne Marathon, Luzern", "date": {"dim. 31.10.2010": {"year": 2010, "day": 31, "month": 10, "categories": {"H-F30": {"distance": 21, "rank": 361, "pace": 359000000000, "time": 7575.3}}, "weekday": "sunday", "livingplace": "Oetwil an der Limmat"}}, "location": "Luzern"}, "Gippinger Stauseelauf": {"latitude": 47.5810513, "longitude": 8.2152586, "race": "Gippinger Stauseelauf", "date": {"ven. 31.12.2010": {"year": 2010, "day": 31, "month": 12, "categories": {"7-F30": {"distance": 8, "rank": 19, "pace": 300000000000, "time": 2260.2}}, "weekday": "friday", "livingplace": "Oetwil an der Limmat"}}, "location": "Leuggern"}, "Thuner Stadtlauf, Thun": {"latitude": 46.7579868, "longitude": 7.6279881, "race": "Thuner Stadtlauf, Thun", "date": {"sam. 15.08.2015": {"year": 2015, "day": 15, "month": 8, "categories": {"5-5kmF": {"distance": 6, "rank": 116, "pace": 363000000000, "time": 2034.8}}, "weekday": "saturday", "livingplace": "Oberengstringen"}, "dim. 24.08.2014": {"year": 2014, "day": 24, "month": 8, "categories": {"10-F40": {"distance": 11, "rank": 76, "pace": 365000000000, "time": 3930.6}}, "weekday": "sunday", "livingplace": "Oberengstringen"}}, "location": "Thun"}, "ASICS Bremgarter Reusslauf": {"latitude": 47.34917739999999, "longitude": 8.3397905, "race": "ASICS Bremgarter Reusslauf", "date": {"sam. 25.02.2012": {"year": 2012, "day": 25, "month": 2, "categories": {"F30": {"distance": 11, "rank": 129, "pace": 326000000000, "time": 3593.6}}, "weekday": "saturday", "livingplace": "Oetwil an der Limmat"}}, "location": "Bremgarten AG"}, "Sihltaler Fr\u00fchlingslauf, Gattikon": {"latitude": 47.2949282, "longitude": 8.5644799, "race": "Sihltaler Fr\u00fchlingslauf, Gattikon", "date": {"sam. 01.05.2010": {"year": 2010, "day": 1, "month": 5, "categories": {"F30": {"distance": 10, "rank": 19, "pace": 315000000000, "time": 3151.2}}, "weekday": "saturday", "livingplace": "Oberengstringen"}}, "location": "Gattikon"}}, "birth": 1974}