{"name": "Thonney Bryan", "sex": "M", "races": {"Tour du pays de Vaud #1 \u2013 St  Prex": {"latitude": 46.7784736, "longitude": 6.641183, "race": "Tour du pays de Vaud #1 \u2013 St  Prex", "date": {"mer. 11.08.2010": {"year": 2010, "day": 11, "month": 8, "categories": {"HJun": {"distance": 8, "rank": 14, "pace": 305000000000, "time": 2566.7}}, "weekday": "wednesday", "livingplace": "Vulliens"}}, "location": "Yverdon-les-Bains"}, "Tour du Pays de Vaud #3 - Mezi\u00e8res": {"latitude": 46.7784736, "longitude": 6.641183, "race": "Tour du Pays de Vaud #3 - Mezi\u00e8res", "date": {"mer. 22.08.2012": {"year": 2012, "day": 22, "month": 8, "categories": {"H-Hom": {"distance": 8, "rank": 47, "pace": 297000000000, "time": 2501.5}}, "weekday": "wednesday", "livingplace": "Vulliens"}}, "location": "Yverdon-les-Bains"}, "Morat-Fribourg": {"latitude": 46.92922110000001, "longitude": 7.120184, "race": "Morat-Fribourg", "date": {"sam. 05.10.2013": {"year": 2013, "day": 5, "month": 10, "categories": {"17-M20": {"distance": 17, "rank": 999, "pace": 292000000000, "time": 5101.8}}, "weekday": "saturday", "livingplace": "Vulliens"}, "sam. 06.10.2012": {"year": 2012, "day": 6, "month": 10, "categories": {"17-M20": {"distance": 17, "rank": 1081, "pace": 305000000000, "time": 5326.0}}, "weekday": "saturday", "livingplace": "Vulliens"}, "sam. 03.10.2015": {"year": 2015, "day": 3, "month": 10, "categories": {"17-M20": {"distance": 17, "rank": 955, "pace": 299000000000, "time": 5147.6}}, "weekday": "saturday", "livingplace": "Vulliens"}}, "location": "Murten"}, "Tour du Pays de Vaud #2, Mezi\u00e8res": {"latitude": 46.5955273, "longitude": 6.7702883, "race": "Tour du Pays de Vaud #2, Mezi\u00e8res", "date": {"mer. 20.08.2014": {"year": 2014, "day": 20, "month": 8, "categories": {"H-Hom": {"distance": 8, "rank": 37, "pace": 300000000000, "time": 2433.3}}, "weekday": "wednesday", "livingplace": "Vulliens"}}, "location": "M\u00e9zi\u00e8res VD"}, "Tour du Pays de Vaud printanier #1 Moudon": {"latitude": 46.3832683, "longitude": 6.2347852, "race": "Tour du Pays de Vaud printanier #1 Moudon", "date": {"mer. 04.06.2014": {"year": 2014, "day": 4, "month": 6, "categories": {"H-Hom": {"distance": 8, "rank": 38, "pace": 294000000000, "time": 2471.8}}, "weekday": "wednesday", "livingplace": "Vulliens"}}, "location": "Nyon"}, "Tour du pays de Vaud #5 - Penthaz": {"latitude": 46.5993131, "longitude": 6.539251200000001, "race": "Tour du pays de Vaud #5 - Penthaz", "date": {"mer. 07.09.2011": {"year": 2011, "day": 7, "month": 9, "categories": {"H-Hom": {"distance": 8, "rank": 37, "pace": 306000000000, "time": 2562.2}}, "weekday": "wednesday", "livingplace": "Vulliens"}}, "location": "Penthaz"}}, "birth": 1991}