{"name": "Tinguely Xavier", "sex": "M", "races": {"Grand Prix Craft, Neuch\u00e2tel": {"latitude": 46.9899874, "longitude": 6.9292732, "race": "Grand Prix Craft, Neuch\u00e2tel", "date": {"dim. 16.12.2007": {"year": 2007, "day": 16, "month": 12, "categories": {"HS1": {"distance": 7, "rank": 46, "pace": 271000000000, "time": 1902.3}}, "weekday": "sunday", "livingplace": "Dombresson"}}, "location": "Neuch\u00e2tel"}, "BCN Tour #1 Corcelles": {"latitude": 46.9668714, "longitude": 6.8589727, "race": "BCN Tour #1 Corcelles", "date": {"mer. 24.04.2013": {"year": 2013, "day": 24, "month": 4, "categories": {"HS2": {"distance": 10, "rank": 146, "pace": 299000000000, "time": 2933.1}}, "weekday": "wednesday", "livingplace": "Fontaines"}}, "location": "Colombier NE"}, "Morat-Fribourg": {"latitude": 46.92922110000001, "longitude": 7.120184, "race": "Morat-Fribourg", "date": {"sam. 05.10.2013": {"year": 2013, "day": 5, "month": 10, "categories": {"17-M40": {"distance": 17, "rank": 546, "pace": 320000000000, "time": 5592.0}}, "weekday": "saturday", "livingplace": "Fontaines"}, "sam. 03.10.2009": {"year": 2009, "day": 3, "month": 10, "categories": {"C-M40": {"distance": 17, "rank": 463, "pace": 313000000000, "time": 5387.8}}, "weekday": "saturday", "livingplace": "Fontaines"}, "sam. 01.10.2011": {"year": 2011, "day": 1, "month": 10, "categories": {"17-M40": {"distance": 17, "rank": 404, "pace": 311000000000, "time": 5342.4}}, "weekday": "saturday", "livingplace": "Fontaines"}, "sam. 04.10.2008": {"year": 2008, "day": 4, "month": 10, "categories": {"C-M20": {"distance": 17, "rank": 978, "pace": 301000000000, "time": 5177.6}}, "weekday": "saturday", "livingplace": "Dombresson"}, "dim. 06.10.2002": {"year": 2002, "day": 6, "month": 10, "categories": {"M20": {"distance": 17, "rank": 1434, "pace": 308000000000, "time": 5301.5}}, "weekday": "sunday", "livingplace": "Fontaines"}, "sam. 04.10.2014": {"year": 2014, "day": 4, "month": 10, "categories": {"17-M45": {"distance": 17, "rank": 524, "pace": 343000000000, "time": 5900.2}}, "weekday": "saturday", "livingplace": "Fontaines"}}, "location": "Murten"}, "BCN Tour Les Ponts-de-Martel": {"latitude": 46.999113, "longitude": 6.733554799999999, "race": "BCN Tour Les Ponts-de-Martel", "date": {"mer. 09.05.2012": {"year": 2012, "day": 9, "month": 5, "categories": {"HS2": {"distance": 10, "rank": 163, "pace": 315000000000, "time": 3249.8}}, "weekday": "wednesday", "livingplace": "Fontaines"}}, "location": "Les Ponts-de-Martel"}, "BCN Tour Le Landeron": {"latitude": 46.9668714, "longitude": 6.8589727, "race": "BCN Tour Le Landeron", "date": {"mer. 22.04.2009": {"year": 2009, "day": 22, "month": 4, "categories": {"HS2": {"distance": 11, "rank": 95, "pace": 294000000000, "time": 3267.9}}, "weekday": "wednesday", "livingplace": "Fontaines"}}, "location": "Colombier NE"}, "20km de Lausanne": {"latitude": 46.5196535, "longitude": 6.6322734, "race": "20km de Lausanne", "date": {"sam. 24.04.2010": {"year": 2010, "day": 24, "month": 4, "categories": {"20-H40": {"distance": 20, "rank": 213, "pace": 302000000000, "time": 6050.9}}, "weekday": "saturday", "livingplace": "Fontaines"}, "sam. 27.04.2013": {"year": 2013, "day": 27, "month": 4, "categories": {"20-H40": {"distance": 20, "rank": 197, "pace": 290000000000, "time": 5815.5}}, "weekday": "saturday", "livingplace": "Fontaines"}, "sam. 28.04.2012": {"year": 2012, "day": 28, "month": 4, "categories": {"20-H40": {"distance": 20, "rank": 235, "pace": 311000000000, "time": 6221.7}}, "weekday": "saturday", "livingplace": "Fontaines"}}, "location": "Lausanne"}, "BCN Tour Neuch\u00e2tel": {"latitude": 46.9899874, "longitude": 6.9292732, "race": "BCN Tour Neuch\u00e2tel", "date": {"mer. 26.05.2010": {"year": 2010, "day": 26, "month": 5, "categories": {"HS2": {"distance": 10, "rank": 171, "pace": 369000000000, "time": 3583.5}}, "weekday": "wednesday", "livingplace": "Fontaines"}, "mer. 30.05.2012": {"year": 2012, "day": 30, "month": 5, "categories": {"HS2": {"distance": 11, "rank": 129, "pace": 316000000000, "time": 3539.7}}, "weekday": "wednesday", "livingplace": "Fontaines"}, "mer. 25.05.2011": {"year": 2011, "day": 25, "month": 5, "categories": {"HS2": {"distance": 11, "rank": 154, "pace": 320000000000, "time": 3653.5}}, "weekday": "wednesday", "livingplace": "Fontaines"}}, "location": "Neuch\u00e2tel"}, "BCN Tour Auvernier": {"latitude": 46.9668714, "longitude": 6.8589727, "race": "BCN Tour Auvernier", "date": {"mer. 20.04.2011": {"year": 2011, "day": 20, "month": 4, "categories": {"HS2": {"distance": 11, "rank": 158, "pace": 321000000000, "time": 3476.7}}, "weekday": "wednesday", "livingplace": "Fontaines"}}, "location": "Colombier NE"}, "BCN Tour #4 Fleurier": {"latitude": 47.1034892, "longitude": 6.832783800000001, "race": "BCN Tour #4 Fleurier", "date": {"mer. 15.05.2013": {"year": 2013, "day": 15, "month": 5, "categories": {"HS2": {"distance": 9, "rank": 149, "pace": 304000000000, "time": 2635.7}}, "weekday": "wednesday", "livingplace": "Fontaines"}}, "location": "La Chaux-de-Fonds"}, "BCN Tour #2 La Chaux-de-Fonds": {"latitude": 47.0624261, "longitude": 6.9175754, "race": "BCN Tour #2 La Chaux-de-Fonds", "date": {"mer. 01.05.2013": {"year": 2013, "day": 1, "month": 5, "categories": {"HS2": {"distance": 11, "rank": 180, "pace": 298000000000, "time": 3197.9}}, "weekday": "wednesday", "livingplace": "Fontaines"}}, "location": "Ch\u00e9zard-St-Martin"}, "BCN Tour La Chaux-de-Fonds": {"latitude": 47.1034892, "longitude": 6.832783800000001, "race": "BCN Tour La Chaux-de-Fonds", "date": {"mer. 23.05.2012": {"year": 2012, "day": 23, "month": 5, "categories": {"HS2": {"distance": 11, "rank": 161, "pace": 313000000000, "time": 3381.8}}, "weekday": "wednesday", "livingplace": "Fontaines"}, "mer. 11.05.2011": {"year": 2011, "day": 11, "month": 5, "categories": {"HS2": {"distance": 11, "rank": 168, "pace": 360000000000, "time": 3852.6}}, "weekday": "wednesday", "livingplace": "Fontaines"}}, "location": "La Chaux-de-Fonds"}, "La Trotteuse-Tissot, La Chaux-de-Fonds": {"latitude": 47.1034892, "longitude": 6.832783800000001, "race": "La Trotteuse-Tissot, La Chaux-de-Fonds", "date": {"sam. 14.12.2013": {"year": 2013, "day": 14, "month": 12, "categories": {"GC-H40": {"distance": 8, "rank": 118, "pace": 315000000000, "time": 2521.3}}, "weekday": "saturday", "livingplace": "Fontaines"}, "sam. 17.12.2011": {"year": 2011, "day": 17, "month": 12, "categories": {"GC-H40": {"distance": 8, "rank": 79, "pace": 308000000000, "time": 2470.7}}, "weekday": "saturday", "livingplace": "Font"}}, "location": "La Chaux-de-Fonds"}, "BCN Tour Ponts-de-Martel": {"latitude": 47.0624261, "longitude": 6.9175754, "race": "BCN Tour Ponts-de-Martel", "date": {"mer. 28.04.2010": {"year": 2010, "day": 28, "month": 4, "categories": {"HS2": {"distance": 11, "rank": 128, "pace": 303000000000, "time": 3403.9}}, "weekday": "wednesday", "livingplace": "Fontaines"}}, "location": "Ch\u00e9zard-St-Martin"}, "Lausanne Marathon": {"latitude": 46.5196535, "longitude": 6.6322734, "race": "Lausanne Marathon", "date": {"dim. 30.10.2011": {"year": 2011, "day": 30, "month": 10, "categories": {"42-H3": {"distance": 42, "rank": 250, "pace": 339000000000, "time": 14331.0}}, "weekday": "sunday", "livingplace": "Fontaines"}}, "location": "Lausanne"}, "BCN Tour #5 Colombier": {"latitude": 46.9262933, "longitude": 6.6324944, "race": "BCN Tour #5 Colombier", "date": {"mer. 22.05.2013": {"year": 2013, "day": 22, "month": 5, "categories": {"HS2": {"distance": 11, "rank": 155, "pace": 277000000000, "time": 2908.7}}, "weekday": "wednesday", "livingplace": "Fontaines"}}, "location": "Couvet"}, "BCN Tour Cornaux": {"latitude": 46.9668714, "longitude": 6.8589727, "race": "BCN Tour Cornaux", "date": {"mer. 25.04.2012": {"year": 2012, "day": 25, "month": 4, "categories": {"HS2": {"distance": 11, "rank": 123, "pace": 329000000000, "time": 3621.2}}, "weekday": "wednesday", "livingplace": "Fontaines"}}, "location": "Colombier NE"}, "BCN Tour #3 Dombresson": {"latitude": 46.999113, "longitude": 6.733554799999999, "race": "BCN Tour #3 Dombresson", "date": {"mer. 08.05.2013": {"year": 2013, "day": 8, "month": 5, "categories": {"HS2": {"distance": 10, "rank": 189, "pace": 298000000000, "time": 2957.4}}, "weekday": "wednesday", "livingplace": "Fontaines"}}, "location": "Les Ponts-de-Martel"}, "BCN Tour M\u00f4tier": {"latitude": 46.9262933, "longitude": 6.6324944, "race": "BCN Tour M\u00f4tier", "date": {"mer. 19.05.2010": {"year": 2010, "day": 19, "month": 5, "categories": {"HS2": {"distance": 10, "rank": 109, "pace": 282000000000, "time": 2795.3}}, "weekday": "wednesday", "livingplace": "Fontaines"}}, "location": "Couvet"}, "BCN Tour Fontaine Cernier": {"latitude": 47.0624261, "longitude": 6.9175754, "race": "BCN Tour Fontaine Cernier", "date": {"mer. 27.04.2011": {"year": 2011, "day": 27, "month": 4, "categories": {"HS2": {"distance": 10, "rank": 174, "pace": 299000000000, "time": 3083.7}}, "weekday": "wednesday", "livingplace": "Fontaines"}}, "location": "Ch\u00e9zard-St-Martin"}, "Gurtenclassic, Wabern": {"latitude": 46.92901639999999, "longitude": 7.448973199999999, "race": "Gurtenclassic, Wabern", "date": {"dim. 05.11.2006": {"year": 2006, "day": 5, "month": 11, "categories": {"M33": {"distance": 15, "rank": 90, "pace": 372000000000, "time": 5580.4}}, "weekday": "sunday", "livingplace": "Dombresson"}, "dim. 04.11.2007": {"year": 2007, "day": 4, "month": 11, "categories": {"M33": {"distance": 15, "rank": 75, "pace": 365000000000, "time": 5489.8}}, "weekday": "sunday", "livingplace": "Dombresson"}}, "location": "Wabern"}, "BCN Tour Le Locle": {"latitude": 46.999113, "longitude": 6.733554799999999, "race": "BCN Tour Le Locle", "date": {"mer. 05.05.2010": {"year": 2010, "day": 5, "month": 5, "categories": {"HS2": {"distance": 11, "rank": 103, "pace": 293000000000, "time": 3196.1}}, "weekday": "wednesday", "livingplace": "Fontaines"}}, "location": "Les Ponts-de-Martel"}, "BCN Tour Couvet": {"latitude": 47.0624261, "longitude": 6.9175754, "race": "BCN Tour Couvet", "date": {"mer. 02.05.2012": {"year": 2012, "day": 2, "month": 5, "categories": {"HS2": {"distance": 11, "rank": 144, "pace": 313000000000, "time": 3494.0}}, "weekday": "wednesday", "livingplace": "Fontaines"}}, "location": "Ch\u00e9zard-St-Martin"}, "Kerzerslauf": {"latitude": 46.97488999999999, "longitude": 7.1954365, "race": "Kerzerslauf", "date": {"sam. 20.03.2010": {"year": 2010, "day": 20, "month": 3, "categories": {"15-M40": {"distance": 15, "rank": 287, "pace": 290000000000, "time": 4350.8}}, "weekday": "saturday", "livingplace": "Fontaines"}, "sam. 21.03.2009": {"year": 2009, "day": 21, "month": 3, "categories": {"15-M40": {"distance": 15, "rank": 317, "pace": 289000000000, "time": 4340.2}}, "weekday": "saturday", "livingplace": "Fontaines"}, "sam. 20.03.2004": {"year": 2004, "day": 20, "month": 3, "categories": {"M35": {"distance": 15, "rank": 404, "pace": 329000000000, "time": 4944.2}}, "weekday": "saturday", "livingplace": "Fontaines"}, "sam. 19.03.2005": {"year": 2005, "day": 19, "month": 3, "categories": {"M35": {"distance": 15, "rank": 330, "pace": 332000000000, "time": 4991.9}}, "weekday": "saturday", "livingplace": "Dombresson"}, "sam. 16.03.2013": {"year": 2013, "day": 16, "month": 3, "categories": {"15-M40": {"distance": 15, "rank": 305, "pace": 303000000000, "time": 4552.4}}, "weekday": "saturday", "livingplace": "Fontaines"}}, "location": "Kerzers"}, "BCN Tour #6 Neuch\u00e2tel": {"latitude": 46.9899874, "longitude": 6.9292732, "race": "BCN Tour #6 Neuch\u00e2tel", "date": {"mer. 29.05.2013": {"year": 2013, "day": 29, "month": 5, "categories": {"HS2": {"distance": 11, "rank": 142, "pace": 310000000000, "time": 3416.9}}, "weekday": "wednesday", "livingplace": "Fontaines"}}, "location": "Neuch\u00e2tel"}, "BCN Tour La Br\u00e9vine": {"latitude": 46.999113, "longitude": 6.733554799999999, "race": "BCN Tour La Br\u00e9vine", "date": {"mer. 04.05.2011": {"year": 2011, "day": 4, "month": 5, "categories": {"HS2": {"distance": 10, "rank": 165, "pace": 316000000000, "time": 3166.2}}, "weekday": "wednesday", "livingplace": "Fontaines"}}, "location": "Les Ponts-de-Martel"}, "BCN Tour Les Ponts de Martel": {"latitude": 46.9262933, "longitude": 6.6324944, "race": "BCN Tour Les Ponts de Martel", "date": {"mer. 18.05.2011": {"year": 2011, "day": 18, "month": 5, "categories": {"HS2": {"distance": 13, "rank": 185, "pace": 324000000000, "time": 4151.1}}, "weekday": "wednesday", "livingplace": "Fontaines"}}, "location": "Couvet"}, "BCN Tour La Chaux-de-fonds": {"latitude": 47.1034892, "longitude": 6.832783800000001, "race": "BCN Tour La Chaux-de-fonds", "date": {"mer. 12.05.2010": {"year": 2010, "day": 12, "month": 5, "categories": {"HS2": {"distance": 11, "rank": 125, "pace": 370000000000, "time": 3962.2}}, "weekday": "wednesday", "livingplace": "Fontaines"}}, "location": "La Chaux-de-Fonds"}, "BCN Tour Colombier": {"latitude": 46.9668714, "longitude": 6.8589727, "race": "BCN Tour Colombier", "date": {"mer. 16.05.2012": {"year": 2012, "day": 16, "month": 5, "categories": {"HS2": {"distance": 11, "rank": 155, "pace": 299000000000, "time": 3237.7}}, "weekday": "wednesday", "livingplace": "Fontaines"}, "mer. 21.04.2010": {"year": 2010, "day": 21, "month": 4, "categories": {"HS2": {"distance": 10, "rank": 127, "pace": 324000000000, "time": 3249.6}}, "weekday": "wednesday", "livingplace": "Fontaines"}}, "location": "Colombier NE"}}, "birth": 1969}