{"name": "Tinghir Sevan", "sex": "M", "races": {"Tour du Chablais #1 Roche": {"latitude": 46.2957462, "longitude": 6.9916269, "race": "Tour du Chablais #1 Roche", "date": {"mer. 03.04.2013": {"year": 2013, "day": 3, "month": 4, "categories": {"M-M20": {"distance": 9, "rank": 31, "pace": 227000000000, "time": 2018.7}}, "weekday": "wednesday", "livingplace": "Lausanne"}}, "location": "Ollon VD"}, "Tour du Chablais #6 Monthey": {"latitude": 46.3190253, "longitude": 6.970566, "race": "Tour du Chablais #6 Monthey", "date": {"mer. 08.05.2013": {"year": 2013, "day": 8, "month": 5, "categories": {"M-M20": {"distance": 9, "rank": 37, "pace": 231000000000, "time": 2157.7}}, "weekday": "wednesday", "livingplace": "Lausanne"}}, "location": "Aigle"}, "Course de l'Escalade, Gen\u00e8ve": {"latitude": 46.2043907, "longitude": 6.1431577, "race": "Course de l'Escalade, Gen\u00e8ve", "date": {"sam. 07.12.2013": {"year": 2013, "day": 7, "month": 12, "categories": {"Esc-Hom1": {"distance": 7, "rank": 175, "pace": 250000000000, "time": 1815.5}}, "weekday": "saturday", "livingplace": "Lausanne"}}, "location": "Gen\u00e8ve"}, "Tour du Chablais #1 Martigny": {"latitude": 46.2957462, "longitude": 6.9916269, "race": "Tour du Chablais #1 Martigny", "date": {"mer. 23.04.2014": {"year": 2014, "day": 23, "month": 4, "categories": {"M-M20": {"distance": 9, "rank": 50, "pace": 239000000000, "time": 2036.0}}, "weekday": "wednesday", "livingplace": "Lausanne"}}, "location": "Ollon VD"}, "Lausanne Marathon": {"latitude": 46.5196535, "longitude": 6.6322734, "race": "Lausanne Marathon", "date": {"dim. 27.10.2013": {"year": 2013, "day": 27, "month": 10, "categories": {"21-H1": {"distance": 21, "rank": 48, "pace": 253000000000, "time": 5356.0}}, "weekday": "sunday", "livingplace": "Lausanne"}}, "location": "Lausanne"}, "20km de Lausanne": {"latitude": 46.5196535, "longitude": 6.6322734, "race": "20km de Lausanne", "date": {"sam. 27.04.2013": {"year": 2013, "day": 27, "month": 4, "categories": {"20-H20": {"distance": 20, "rank": 48, "pace": 241000000000, "time": 4837.6}}, "weekday": "saturday", "livingplace": "Lausanne"}, "sam. 26.04.2014": {"year": 2014, "day": 26, "month": 4, "categories": {"20-H20": {"distance": 20, "rank": 66, "pace": 254000000000, "time": 5098.1}}, "weekday": "saturday", "livingplace": "Lausanne"}}, "location": "Lausanne"}, "Tour du Chablais #4 St  Maurice": {"latitude": NaN, "longitude": NaN, "race": "Tour du Chablais #4 St  Maurice", "date": {"mer. 24.04.2013": {"year": 2013, "day": 24, "month": 4, "categories": {"M-M20": {"distance": 10, "rank": 33, "pace": 232000000000, "time": 2328.5}}, "weekday": "wednesday", "livingplace": "Lausanne"}}, "location": "Les Mosses"}, "Tour du Chablais #2 Yvorne": {"latitude": 46.3835529, "longitude": 6.854975199999999, "race": "Tour du Chablais #2 Yvorne", "date": {"mer. 10.04.2013": {"year": 2013, "day": 10, "month": 4, "categories": {"M-M20": {"distance": 8, "rank": 33, "pace": 247000000000, "time": 1982.8}}, "weekday": "wednesday", "livingplace": "Lausanne"}}, "location": "Bouveret"}, "Tour du Chablais #3 Bouveret": {"latitude": 46.1782231, "longitude": 7.0223787, "race": "Tour du Chablais #3 Bouveret", "date": {"mer. 17.04.2013": {"year": 2013, "day": 17, "month": 4, "categories": {"M-M20": {"distance": 10, "rank": 35, "pace": 235000000000, "time": 2352.1}}, "weekday": "wednesday", "livingplace": "Lausanne"}}, "location": "Evionnaz"}, "Tour du Chablais #5 Morgins": {"latitude": 46.3603257, "longitude": 6.931504599999999, "race": "Tour du Chablais #5 Morgins", "date": {"mer. 01.05.2013": {"year": 2013, "day": 1, "month": 5, "categories": {"M-M20": {"distance": 8, "rank": 26, "pace": 239000000000, "time": 1816.9}}, "weekday": "wednesday", "livingplace": "Lausanne"}}, "location": "Roche VD"}}, "birth": 1991}