{"name": "Torello Marie", "sex": "F", "races": {"Tour du Chablais #1 Roche": {"latitude": 46.2957462, "longitude": 6.9916269, "race": "Tour du Chablais #1 Roche", "date": {"mer. 03.04.2013": {"year": 2013, "day": 3, "month": 4, "categories": {"F-F20": {"distance": 9, "rank": 71, "pace": 319000000000, "time": 2834.3}}, "weekday": "wednesday", "livingplace": "Massongex"}}, "location": "Ollon VD"}, "Tour du Chablais #6 Monthey": {"latitude": 46.3190253, "longitude": 6.970566, "race": "Tour du Chablais #6 Monthey", "date": {"mer. 08.05.2013": {"year": 2013, "day": 8, "month": 5, "categories": {"F-F20": {"distance": 9, "rank": 62, "pace": 312000000000, "time": 2915.4}}, "weekday": "wednesday", "livingplace": "Massongex"}}, "location": "Aigle"}, "Morat-Fribourg": {"latitude": 46.92922110000001, "longitude": 7.120184, "race": "Morat-Fribourg", "date": {"sam. 05.10.2013": {"year": 2013, "day": 5, "month": 10, "categories": {"17-W20": {"distance": 17, "rank": 345, "pace": 348000000000, "time": 6085.9}}, "weekday": "saturday", "livingplace": "Fribourg"}, "sam. 01.10.2011": {"year": 2011, "day": 1, "month": 10, "categories": {"17-JunF": {"distance": 17, "rank": 12, "pace": 347000000000, "time": 5959.7}}, "weekday": "saturday", "livingplace": "Massongex"}, "sam. 06.10.2012": {"year": 2012, "day": 6, "month": 10, "categories": {"17-JunF": {"distance": 17, "rank": 9, "pace": 351000000000, "time": 6132.0}}, "weekday": "saturday", "livingplace": "Massongex"}}, "location": "Murten"}, "Schweizer Frauenlauf Bern": {"latitude": 46.9479739, "longitude": 7.4474468, "race": "Schweizer Frauenlauf Bern", "date": {"dim. 09.06.2013": {"year": 2013, "day": 9, "month": 6, "categories": {"10-W20": {"distance": 10, "rank": 223, "pace": 315000000000, "time": 3153.0}}, "weekday": "sunday", "livingplace": "Massongex"}}, "location": "Bern"}, "20km de Lausanne": {"latitude": 46.5196535, "longitude": 6.6322734, "race": "20km de Lausanne", "date": {"sam. 26.04.2014": {"year": 2014, "day": 26, "month": 4, "categories": {"20-F20": {"distance": 20, "rank": 143, "pace": 353000000000, "time": 7064.6}}, "weekday": "saturday", "livingplace": "Fribourg"}}, "location": "Lausanne"}, "Tour du Chablais #4 St  Maurice": {"latitude": NaN, "longitude": NaN, "race": "Tour du Chablais #4 St  Maurice", "date": {"mer. 24.04.2013": {"year": 2013, "day": 24, "month": 4, "categories": {"F-F20": {"distance": 10, "rank": 56, "pace": 320000000000, "time": 3200.5}}, "weekday": "wednesday", "livingplace": "Massongex"}}, "location": "Les Mosses"}, "Kerzerslauf": {"latitude": 46.97488999999999, "longitude": 7.1954365, "race": "Kerzerslauf", "date": {"sam. 17.03.2012": {"year": 2012, "day": 17, "month": 3, "categories": {"15-F19": {"distance": 15, "rank": 7, "pace": 315000000000, "time": 4729.5}}, "weekday": "saturday", "livingplace": "Massongex"}}, "location": "Kerzers"}}, "birth": 1993}