{"name": "Trachsel Karl-Heinz", "sex": "M", "races": {"Gempenlauf, Dornach": {"latitude": 47.4790491, "longitude": 7.6170412, "race": "Gempenlauf, Dornach", "date": {"mer. 02.06.2010": {"year": 2010, "day": 2, "month": 6, "categories": {"M40": {"distance": 8, "rank": 82, "pace": 380000000000, "time": 2969.8}}, "weekday": "wednesday", "livingplace": "Frick"}}, "location": "Dornach"}, "Basler Stadtlauf": {"latitude": 47.5595986, "longitude": 7.5885761, "race": "Basler Stadtlauf", "date": {"sam. 24.11.2007": {"year": 2007, "day": 24, "month": 11, "categories": {"N": {"distance": 6, "rank": 311, "pace": 277000000000, "time": 1527.5}}, "weekday": "saturday", "livingplace": "Therwil"}}, "location": "Basel"}, "Birslauf Basel": {"latitude": 47.5595986, "longitude": 7.5885761, "race": "Birslauf Basel", "date": {"sam. 05.04.2008": {"year": 2008, "day": 5, "month": 4, "categories": {"M": {"distance": 10, "rank": 355, "pace": 289000000000, "time": 2894.3}}, "weekday": "saturday", "livingplace": "Therwil"}}, "location": "Basel"}, "Badener Limmat-Lauf, Baden": {"latitude": 48.5699281, "longitude": 8.5303972, "race": "Badener Limmat-Lauf, Baden", "date": {"sam. 29.03.2008": {"year": 2008, "day": 29, "month": 3, "categories": {"M40": {"distance": 13, "rank": 143, "pace": 299000000000, "time": 3950.7}}, "weekday": "saturday", "livingplace": "Therwil"}}, "location": "Baden"}, "Wiedlisbacher L\u00e4ufe, Wiedlisbach": {"latitude": 47.2512653, "longitude": 7.6453444, "race": "Wiedlisbacher L\u00e4ufe, Wiedlisbach", "date": {"dim. 29.04.2007": {"year": 2007, "day": 29, "month": 4, "categories": {"M40-21": {"distance": 21, "rank": 34, "pace": 318000000000, "time": 6713.9}}, "weekday": "sunday", "livingplace": "Arisdorf"}}, "location": "Wiedlisbach"}, "Panoramalauf, Richterswil": {"latitude": NaN, "longitude": NaN, "race": "Panoramalauf, Richterswil", "date": {"dim. 02.09.2007": {"year": 2007, "day": 2, "month": 9, "categories": {"C": {"distance": 10, "rank": 121, "pace": 305000000000, "time": 3053.7}}, "weekday": "sunday", "livingplace": "Therwil"}}, "location": "Richterswil"}, "Dreil\u00e4nder-Lauf, Basel": {"latitude": 47.5595986, "longitude": 7.5885761, "race": "Dreil\u00e4nder-Lauf, Basel", "date": {"dim. 20.05.2007": {"year": 2007, "day": 20, "month": 5, "categories": {"21M40": {"distance": 21, "rank": 82, "pace": 311000000000, "time": 6575.2}}, "weekday": "sunday", "livingplace": "Arisdorf"}, "dim. 22.05.2011": {"year": 2011, "day": 22, "month": 5, "categories": {"21M40": {"distance": 21, "rank": 146, "pace": 331000000000, "time": 7002.5}}, "weekday": "sunday", "livingplace": "Arisdorf"}}, "location": "Basel"}, "Basler Marathon-Tage": {"latitude": 47.5595986, "longitude": 7.5885761, "race": "Basler Marathon-Tage", "date": {"sam. 27.10.2007": {"year": 2007, "day": 27, "month": 10, "categories": {"HM/M40": {"distance": 21, "rank": 132, "pace": 305000000000, "time": 6450.6}}, "weekday": "saturday", "livingplace": "Therwil"}}, "location": "Basel"}, "Z\u00fcrich Marathon, Teamrun und Cityrun": {"latitude": 47.3768866, "longitude": 8.541694, "race": "Z\u00fcrich Marathon, Teamrun und Cityrun", "date": {"dim. 20.04.2008": {"year": 2008, "day": 20, "month": 4, "categories": {"M40": {"distance": 42, "rank": 730, "pace": 358000000000, "time": 15126.7}}, "weekday": "sunday", "livingplace": "Therwil"}}, "location": "Z\u00fcrich"}}, "birth": 1967}