{"name": "Treier Jean-Marc", "sex": "M", "races": {"A travers Carouge - Run to Run": {"latitude": 46.1829674, "longitude": 6.1378539, "race": "A travers Carouge - Run to Run", "date": {"sam. 23.09.2006": {"year": 2006, "day": 23, "month": 9, "categories": {"Ho I": {"distance": 10, "rank": 202, "pace": 305000000000, "time": 3054.7}}, "weekday": "saturday", "livingplace": "Burtigny"}}, "location": "Carouge GE"}, "Morat-Fribourg": {"latitude": 46.92922110000001, "longitude": 7.120184, "race": "Morat-Fribourg", "date": {"sam. 02.10.2010": {"year": 2010, "day": 2, "month": 10, "categories": {"17-M40": {"distance": 17, "rank": 640, "pace": 352000000000, "time": 6050.1}}, "weekday": "saturday", "livingplace": "Burtigny"}, "sam. 06.10.2007": {"year": 2007, "day": 6, "month": 10, "categories": {"C/M40": {"distance": 17, "rank": 617, "pace": 333000000000, "time": 5728.5}}, "weekday": "saturday", "livingplace": "Burtigny"}, "sam. 04.10.2014": {"year": 2014, "day": 4, "month": 10, "categories": {"17-M45": {"distance": 17, "rank": 669, "pace": 383000000000, "time": 6586.5}}, "weekday": "saturday", "livingplace": "Burtigny"}}, "location": "Murten"}, "Semi-Marathon de la C\u00f4te, Allaman-Nyon": {"latitude": 46.3832683, "longitude": 6.2347852, "race": "Semi-Marathon de la C\u00f4te, Allaman-Nyon", "date": {"dim. 14.09.2014": {"year": 2014, "day": 14, "month": 9, "categories": {"21-H45": {"distance": 21, "rank": 129, "pace": 351000000000, "time": 7425.0}}, "weekday": "sunday", "livingplace": "Burtigny"}}, "location": "Nyon"}, "Lausanne Marathon": {"latitude": 46.5196535, "longitude": 6.6322734, "race": "Lausanne Marathon", "date": {"dim. 26.10.2014": {"year": 2014, "day": 26, "month": 10, "categories": {"21-H40": {"distance": 21, "rank": 818, "pace": 387000000000, "time": 8172.2}}, "weekday": "sunday", "livingplace": "Burtigny"}}, "location": "Lausanne"}, "Course de l'Escalade, Gen\u00e8ve": {"latitude": 46.2043907, "longitude": 6.1431577, "race": "Course de l'Escalade, Gen\u00e8ve", "date": {"sam. 02.12.2006": {"year": 2006, "day": 2, "month": 12, "categories": {"Hommes3": {"distance": 7, "rank": 1116, "pace": 296000000000, "time": 2151.6}}, "weekday": "saturday", "livingplace": "Burtigny"}, "sam. 03.12.2005": {"year": 2005, "day": 3, "month": 12, "categories": {"Hommes2": {"distance": 7, "rank": 1516, "pace": 323000000000, "time": 2348.7}}, "weekday": "saturday", "livingplace": "Burtigny"}}, "location": "Gen\u00e8ve"}, "20km de Lausanne": {"latitude": 46.5196535, "longitude": 6.6322734, "race": "20km de Lausanne", "date": {"sam. 22.04.2006": {"year": 2006, "day": 22, "month": 4, "categories": {"10/H30": {"distance": 10, "rank": 324, "pace": 330000000000, "time": 3303.4}}, "weekday": "saturday", "livingplace": "Burtigny"}}, "location": "Lausanne"}}, "birth": 1967}