{"name": "Trollux Julien", "sex": "M", "races": {"BCN Tour #1 Corcelles": {"latitude": 46.9668714, "longitude": 6.8589727, "race": "BCN Tour #1 Corcelles", "date": {"mer. 24.04.2013": {"year": 2013, "day": 24, "month": 4, "categories": {"HS1": {"distance": 10, "rank": 187, "pace": 307000000000, "time": 3015.1}}, "weekday": "wednesday", "livingplace": "Neuchatel"}}, "location": "Colombier NE"}, "BCN Tour M\u00f4tier": {"latitude": 46.9262933, "longitude": 6.6324944, "race": "BCN Tour M\u00f4tier", "date": {"mer. 19.05.2010": {"year": 2010, "day": 19, "month": 5, "categories": {"HE": {"distance": 10, "rank": 141, "pace": 317000000000, "time": 3139.3}}, "weekday": "wednesday", "livingplace": "Neuchatel"}}, "location": "Couvet"}, "BCN Tour Les Ponts-de-Martel": {"latitude": 46.999113, "longitude": 6.733554799999999, "race": "BCN Tour Les Ponts-de-Martel", "date": {"mer. 09.05.2012": {"year": 2012, "day": 9, "month": 5, "categories": {"HS1": {"distance": 10, "rank": 206, "pace": 341000000000, "time": 3514.7}}, "weekday": "wednesday", "livingplace": "Neuchatel"}}, "location": "Les Ponts-de-Martel"}, "BCN Tour Neuch\u00e2tel": {"latitude": 46.9899874, "longitude": 6.9292732, "race": "BCN Tour Neuch\u00e2tel", "date": {"mer. 26.05.2010": {"year": 2010, "day": 26, "month": 5, "categories": {"HE": {"distance": 10, "rank": 181, "pace": 417000000000, "time": 4050.2}}, "weekday": "wednesday", "livingplace": "Neuchatel"}}, "location": "Neuch\u00e2tel"}, "BCN Tour La Chaux-de-Fonds": {"latitude": 46.9262933, "longitude": 6.6324944, "race": "BCN Tour La Chaux-de-Fonds", "date": {"mer. 23.05.2012": {"year": 2012, "day": 23, "month": 5, "categories": {"HS1": {"distance": 11, "rank": 224, "pace": 335000000000, "time": 3625.1}}, "weekday": "wednesday", "livingplace": "Neuchatel"}}, "location": "Couvet"}, "BCN Tour Ponts-de-Martel": {"latitude": 47.0624261, "longitude": 6.9175754, "race": "BCN Tour Ponts-de-Martel", "date": {"mer. 28.04.2010": {"year": 2010, "day": 28, "month": 4, "categories": {"HE": {"distance": 11, "rank": 124, "pace": 343000000000, "time": 3844.7}}, "weekday": "wednesday", "livingplace": "Neuchatel"}}, "location": "Ch\u00e9zard-St-Martin"}, "BCN Tour Cornaux": {"latitude": 46.9668714, "longitude": 6.8589727, "race": "BCN Tour Cornaux", "date": {"mer. 25.04.2012": {"year": 2012, "day": 25, "month": 4, "categories": {"HS1": {"distance": 11, "rank": 145, "pace": 344000000000, "time": 3792.0}}, "weekday": "wednesday", "livingplace": "Neuchatel"}}, "location": "Colombier NE"}, "BCN Tour Colombier": {"latitude": 46.9668714, "longitude": 6.8589727, "race": "BCN Tour Colombier", "date": {"mer. 23.04.2008": {"year": 2008, "day": 23, "month": 4, "categories": {"HE": {"distance": 10, "rank": 45, "pace": 288000000000, "time": 2941.3}}, "weekday": "wednesday", "livingplace": "Baximum"}}, "location": "Colombier NE"}}, "birth": 1982}