{"name": "Trutmann Stefanie", "sex": "M", "races": {"Badener Limmat-Lauf, Baden": {"latitude": 48.5699281, "longitude": 8.5303972, "race": "Badener Limmat-Lauf, Baden", "date": {"sam. 29.03.2014": {"year": 2014, "day": 29, "month": 3, "categories": {"F20": {"distance": 13, "rank": 6, "pace": 252000000000, "time": 3327.4}}, "weekday": "saturday", "livingplace": "Dallikon"}}, "location": "Baden"}, "Gossauer Weihnachtslauf": {"latitude": 47.4155608, "longitude": 9.248852, "race": "Gossauer Weihnachtslauf", "date": {"sam. 02.12.2000": {"year": 2000, "day": 2, "month": 12, "categories": {"13": {"distance": 2, "rank": 14, "pace": 227000000000, "time": 496.8}}, "weekday": "saturday", "livingplace": "Zurich"}}, "location": "Gossau SG"}, "Basler Stadtlauf": {"latitude": 47.5595986, "longitude": 7.5885761, "race": "Basler Stadtlauf", "date": {"sam. 24.11.2012": {"year": 2012, "day": 24, "month": 11, "categories": {"F20": {"distance": 6, "rank": 8, "pace": 231000000000, "time": 1271.9}}, "weekday": "saturday", "livingplace": "Zurich"}}, "location": "Basel"}, "Schweizer Frauenlauf Bern": {"latitude": 46.9479739, "longitude": 7.4474468, "race": "Schweizer Frauenlauf Bern", "date": {"dim. 10.06.2007": {"year": 2007, "day": 10, "month": 6, "categories": {"5/W20": {"distance": 5, "rank": 17, "pace": 245000000000, "time": 1227.0}}, "weekday": "sunday", "livingplace": "Dallikon"}, "dim. 11.06.2006": {"year": 2006, "day": 11, "month": 6, "categories": {"5-W20": {"distance": 5, "rank": 41, "pace": 272000000000, "time": 1364.0}}, "weekday": "sunday", "livingplace": "Dallikon"}}, "location": "Bern"}, "Langenthaler Stadtlauf": {"latitude": 47.2120786, "longitude": 7.790562299999999, "race": "Langenthaler Stadtlauf", "date": {"sam. 17.11.2012": {"year": 2012, "day": 17, "month": 11, "categories": {"JogF": {"distance": 5, "rank": 1, "pace": 221000000000, "time": 1108.2}}, "weekday": "saturday", "livingplace": "Zurich"}}, "location": "Langenthal"}, "Steinh\u00f6lzlilauf, Liebefeld": {"latitude": 46.933331, "longitude": 7.416668, "race": "Steinh\u00f6lzlilauf, Liebefeld", "date": {"dim. 02.12.2012": {"year": 2012, "day": 2, "month": 12, "categories": {"K-F1": {"distance": 4, "rank": 3, "pace": 262000000000, "time": 1156.5}}, "weekday": "sunday", "livingplace": "Zurich"}}, "location": "Liebefeld"}, "Liestaler Stadtlauf": {"latitude": 47.4866143, "longitude": 7.7334272, "race": "Liestaler Stadtlauf", "date": {"mer. 26.08.2015": {"year": 2015, "day": 26, "month": 8, "categories": {"SteF": {"distance": 5, "rank": 1, "pace": 180000000000, "time": 939.2}}, "weekday": "wednesday", "livingplace": "Sissach"}}, "location": "Liestal"}, "Gempenlauf, Dornach": {"latitude": 47.4790491, "longitude": 7.6170412, "race": "Gempenlauf, Dornach", "date": {"mer. 04.06.2014": {"year": 2014, "day": 4, "month": 6, "categories": {"F20": {"distance": 8, "rank": 4, "pace": 300000000000, "time": 2343.0}}, "weekday": "wednesday", "livingplace": "Bern"}}, "location": "Dornach"}, "ASICS Bremgarter Reusslauf": {"latitude": 47.34917739999999, "longitude": 8.3397905, "race": "ASICS Bremgarter Reusslauf", "date": {"sam. 23.02.2013": {"year": 2013, "day": 23, "month": 2, "categories": {"11-F20": {"distance": 11, "rank": 20, "pace": 260000000000, "time": 2861.0}}, "weekday": "saturday", "livingplace": "Zurich"}, "sam. 22.02.2014": {"year": 2014, "day": 22, "month": 2, "categories": {"11-F20": {"distance": 11, "rank": 22, "pace": 250000000000, "time": 2752.0}}, "weekday": "saturday", "livingplace": "Lcr"}, "sam. 28.02.2015": {"year": 2015, "day": 28, "month": 2, "categories": {"11-F30": {"distance": 11, "rank": 13, "pace": 245000000000, "time": 2700.2}}, "weekday": "saturday", "livingplace": "Regensdorf"}}, "location": "Bremgarten AG"}}, "birth": 1985}