{"name": "Tsch\u00e4pp\u00e4t Christophe", "sex": "M", "races": {"Glacier 3000 Run, Gstaad": {"latitude": 46.4717588, "longitude": 7.2865728, "race": "Glacier 3000 Run, Gstaad", "date": {"sam. 10.08.2013": {"year": 2013, "day": 10, "month": 8, "categories": {"M40": {"distance": 26, "rank": 125, "pace": 655000000000, "time": 17048.7}}, "weekday": "saturday", "livingplace": "Couvet"}}, "location": "Gstaad"}, "Morat-Fribourg": {"latitude": 46.92922110000001, "longitude": 7.120184, "race": "Morat-Fribourg", "date": {"sam. 01.10.2011": {"year": 2011, "day": 1, "month": 10, "categories": {"17-M40": {"distance": 17, "rank": 505, "pace": 326000000000, "time": 5602.0}}, "weekday": "saturday", "livingplace": "Couvet"}, "sam. 06.10.2012": {"year": 2012, "day": 6, "month": 10, "categories": {"17-M40": {"distance": 17, "rank": 515, "pace": 322000000000, "time": 5623.0}}, "weekday": "saturday", "livingplace": "Couvet"}}, "location": "Murten"}, "Corrida Bulloise, Bulle": {"latitude": 46.6154512, "longitude": 7.057726799999999, "race": "Corrida Bulloise, Bulle", "date": {"sam. 15.11.2014": {"year": 2014, "day": 15, "month": 11, "categories": {"8-M40": {"distance": 8, "rank": 112, "pace": 280000000000, "time": 2286.5}}, "weekday": "saturday", "livingplace": "Couvet"}}, "location": "Bulle"}, "BCN Tour M\u00f4tier": {"latitude": 46.9262933, "longitude": 6.6324944, "race": "BCN Tour M\u00f4tier", "date": {"mer. 19.05.2010": {"year": 2010, "day": 19, "month": 5, "categories": {"HS2": {"distance": 10, "rank": 174, "pace": 306000000000, "time": 3039.0}}, "weekday": "wednesday", "livingplace": "Couvet"}}, "location": "Couvet"}, "20km de Lausanne": {"latitude": 46.5196535, "longitude": 6.6322734, "race": "20km de Lausanne", "date": {"sam. 25.04.2015": {"year": 2015, "day": 25, "month": 4, "categories": {"20-H45": {"distance": 20, "rank": 208, "pace": 294000000000, "time": 5894.9}}, "weekday": "saturday", "livingplace": "Couvet"}}, "location": "Lausanne"}, "BCN Tour #1 Corcelles": {"latitude": 46.9668714, "longitude": 6.8589727, "race": "BCN Tour #1 Corcelles", "date": {"mer. 24.04.2013": {"year": 2013, "day": 24, "month": 4, "categories": {"HS2": {"distance": 10, "rank": 180, "pace": 310000000000, "time": 3039.8}}, "weekday": "wednesday", "livingplace": "Couvet"}}, "location": "Colombier NE"}, "BCN Tour #4 Fleurier": {"latitude": 47.1034892, "longitude": 6.832783800000001, "race": "BCN Tour #4 Fleurier", "date": {"mer. 15.05.2013": {"year": 2013, "day": 15, "month": 5, "categories": {"HS2": {"distance": 9, "rank": 97, "pace": 291000000000, "time": 2517.3}}, "weekday": "wednesday", "livingplace": "Couvet"}}, "location": "La Chaux-de-Fonds"}, "BCN Tour #2 La Chaux-de-Fonds": {"latitude": 47.0624261, "longitude": 6.9175754, "race": "BCN Tour #2 La Chaux-de-Fonds", "date": {"mer. 01.05.2013": {"year": 2013, "day": 1, "month": 5, "categories": {"HS2": {"distance": 11, "rank": 155, "pace": 292000000000, "time": 3126.0}}, "weekday": "wednesday", "livingplace": "Couvet"}}, "location": "Ch\u00e9zard-St-Martin"}, "BCN Tour #6 Neuch\u00e2tel": {"latitude": 46.9899874, "longitude": 6.9292732, "race": "BCN Tour #6 Neuch\u00e2tel", "date": {"mer. 29.05.2013": {"year": 2013, "day": 29, "month": 5, "categories": {"HS2": {"distance": 11, "rank": 121, "pace": 302000000000, "time": 3332.1}}, "weekday": "wednesday", "livingplace": "Couvet"}}, "location": "Neuch\u00e2tel"}, "BCN Tour La Br\u00e9vine": {"latitude": 46.999113, "longitude": 6.733554799999999, "race": "BCN Tour La Br\u00e9vine", "date": {"mer. 04.05.2011": {"year": 2011, "day": 4, "month": 5, "categories": {"HS2": {"distance": 10, "rank": 220, "pace": 334000000000, "time": 3345.4}}, "weekday": "wednesday", "livingplace": "Couvet"}}, "location": "Les Ponts-de-Martel"}, "BCN Tour #5 Colombier": {"latitude": 46.9262933, "longitude": 6.6324944, "race": "BCN Tour #5 Colombier", "date": {"mer. 22.05.2013": {"year": 2013, "day": 22, "month": 5, "categories": {"HS2": {"distance": 11, "rank": 123, "pace": 269000000000, "time": 2834.4}}, "weekday": "wednesday", "livingplace": "Couvet"}}, "location": "Couvet"}, "BCN Tour #3 Dombresson": {"latitude": 46.999113, "longitude": 6.733554799999999, "race": "BCN Tour #3 Dombresson", "date": {"mer. 08.05.2013": {"year": 2013, "day": 8, "month": 5, "categories": {"HS2": {"distance": 10, "rank": 128, "pace": 284000000000, "time": 2819.5}}, "weekday": "wednesday", "livingplace": "Couvet"}}, "location": "Les Ponts-de-Martel"}}, "birth": 1970}