{"name": "Tschantz S\u00e9bastien", "sex": "M", "races": {"BCN Tour Couvet": {"latitude": 47.0624261, "longitude": 6.9175754, "race": "BCN Tour Couvet", "date": {"mer. 02.05.2012": {"year": 2012, "day": 2, "month": 5, "categories": {"HE": {"distance": 11, "rank": 82, "pace": 292000000000, "time": 3263.5}}, "weekday": "wednesday", "livingplace": "La Chaux de Fonds"}}, "location": "Ch\u00e9zard-St-Martin"}, "BCN Tour La Br\u00e9vine": {"latitude": 46.999113, "longitude": 6.733554799999999, "race": "BCN Tour La Br\u00e9vine", "date": {"mer. 04.05.2011": {"year": 2011, "day": 4, "month": 5, "categories": {"HE": {"distance": 10, "rank": 97, "pace": 295000000000, "time": 2954.6}}, "weekday": "wednesday", "livingplace": "La Chaux de Fonds"}}, "location": "Les Ponts-de-Martel"}, "BCN Tour Fontaine Cernier": {"latitude": 47.0624261, "longitude": 6.9175754, "race": "BCN Tour Fontaine Cernier", "date": {"mer. 27.04.2011": {"year": 2011, "day": 27, "month": 4, "categories": {"HE": {"distance": 10, "rank": 138, "pace": 295000000000, "time": 3045.2}}, "weekday": "wednesday", "livingplace": "La Chaux de Fonds"}}, "location": "Ch\u00e9zard-St-Martin"}, "BCN Tour #1 Corcelles": {"latitude": 46.9668714, "longitude": 6.8589727, "race": "BCN Tour #1 Corcelles", "date": {"mer. 24.04.2013": {"year": 2013, "day": 24, "month": 4, "categories": {"HE": {"distance": 10, "rank": 74, "pace": 270000000000, "time": 2652.4}}, "weekday": "wednesday", "livingplace": "La Chaux de Fonds"}}, "location": "Colombier NE"}, "BCN Tour Auvernier": {"latitude": 46.9668714, "longitude": 6.8589727, "race": "BCN Tour Auvernier", "date": {"mer. 20.04.2011": {"year": 2011, "day": 20, "month": 4, "categories": {"HE": {"distance": 11, "rank": 165, "pace": 357000000000, "time": 3855.7}}, "weekday": "wednesday", "livingplace": "La Chaux de Fonds"}}, "location": "Colombier NE"}, "BCN Tour Colombier": {"latitude": 47.1034892, "longitude": 6.832783800000001, "race": "BCN Tour Colombier", "date": {"mer. 16.05.2012": {"year": 2012, "day": 16, "month": 5, "categories": {"HE": {"distance": 11, "rank": 103, "pace": 281000000000, "time": 3037.0}}, "weekday": "wednesday", "livingplace": "La Chaux de Fonds"}}, "location": "La Chaux-de-Fonds"}, "BCN Tour La Chaux-de-Fonds": {"latitude": 47.1034892, "longitude": 6.832783800000001, "race": "BCN Tour La Chaux-de-Fonds", "date": {"mer. 23.05.2012": {"year": 2012, "day": 23, "month": 5, "categories": {"HE": {"distance": 11, "rank": 66, "pace": 281000000000, "time": 3035.4}}, "weekday": "wednesday", "livingplace": "La Chaux de Fonds"}, "mer. 11.05.2011": {"year": 2011, "day": 11, "month": 5, "categories": {"HE": {"distance": 11, "rank": 108, "pace": 339000000000, "time": 3632.8}}, "weekday": "wednesday", "livingplace": "La Chaux de Fonds"}}, "location": "La Chaux-de-Fonds"}, "BCN Tour Les Ponts-de-Martel": {"latitude": 46.999113, "longitude": 6.733554799999999, "race": "BCN Tour Les Ponts-de-Martel", "date": {"mer. 09.05.2012": {"year": 2012, "day": 9, "month": 5, "categories": {"HE": {"distance": 10, "rank": 94, "pace": 290000000000, "time": 2988.0}}, "weekday": "wednesday", "livingplace": "La Chaux de Fonds"}}, "location": "Les Ponts-de-Martel"}, "BCN Tour Neuch\u00e2tel": {"latitude": 46.9899874, "longitude": 6.9292732, "race": "BCN Tour Neuch\u00e2tel", "date": {"mer. 30.05.2012": {"year": 2012, "day": 30, "month": 5, "categories": {"HE": {"distance": 11, "rank": 132, "pace": 310000000000, "time": 3474.4}}, "weekday": "wednesday", "livingplace": "La Chaux de Fonds"}, "mer. 25.05.2011": {"year": 2011, "day": 25, "month": 5, "categories": {"HE": {"distance": 11, "rank": 104, "pace": 296000000000, "time": 3384.8}}, "weekday": "wednesday", "livingplace": "La Chaux de Fonds"}}, "location": "Neuch\u00e2tel"}, "BCN Tour Les Ponts de Martel": {"latitude": 46.9262933, "longitude": 6.6324944, "race": "BCN Tour Les Ponts de Martel", "date": {"mer. 18.05.2011": {"year": 2011, "day": 18, "month": 5, "categories": {"HE": {"distance": 13, "rank": 91, "pace": 297000000000, "time": 3801.6}}, "weekday": "wednesday", "livingplace": "La Chaux de Fonds"}}, "location": "Couvet"}, "BCN Tour #2 La Chaux-de-Fonds": {"latitude": 47.0624261, "longitude": 6.9175754, "race": "BCN Tour #2 La Chaux-de-Fonds", "date": {"mer. 01.05.2013": {"year": 2013, "day": 1, "month": 5, "categories": {"HE": {"distance": 11, "rank": 126, "pace": 277000000000, "time": 2968.7}}, "weekday": "wednesday", "livingplace": "La Chaux de Fonds"}}, "location": "Ch\u00e9zard-St-Martin"}, "BCN Tour Cornaux": {"latitude": 46.9668714, "longitude": 6.8589727, "race": "BCN Tour Cornaux", "date": {"mer. 25.04.2012": {"year": 2012, "day": 25, "month": 4, "categories": {"HE": {"distance": 11, "rank": 132, "pace": 342000000000, "time": 3767.9}}, "weekday": "wednesday", "livingplace": "La Chaux de Fonds"}}, "location": "Colombier NE"}, "BCN Tour #3 Dombresson": {"latitude": 46.999113, "longitude": 6.733554799999999, "race": "BCN Tour #3 Dombresson", "date": {"mer. 08.05.2013": {"year": 2013, "day": 8, "month": 5, "categories": {"HE": {"distance": 10, "rank": 106, "pace": 269000000000, "time": 2665.9}}, "weekday": "wednesday", "livingplace": "La Chaux de Fonds"}}, "location": "Les Ponts-de-Martel"}}, "birth": 1988}