{"name": "Turin Daniel", "sex": "M", "races": {"Tour du Chablais #1 Roche": {"latitude": 46.2957462, "longitude": 6.9916269, "race": "Tour du Chablais #1 Roche", "date": {"mer. 07.04.2010": {"year": 2010, "day": 7, "month": 4, "categories": {"M-M20": {"distance": 9, "rank": 110, "pace": 268000000000, "time": 2404.9}}, "weekday": "wednesday", "livingplace": "Muraz Collombey"}, "mer. 03.04.2013": {"year": 2013, "day": 3, "month": 4, "categories": {"M-M40": {"distance": 9, "rank": 73, "pace": 272000000000, "time": 2417.4}}, "weekday": "wednesday", "livingplace": "Muraz Collombey"}}, "location": "Ollon VD"}, "Tour du Chablais #2 Rennaz": {"latitude": 46.3835529, "longitude": 6.854975199999999, "race": "Tour du Chablais #2 Rennaz", "date": {"mer. 04.05.2011": {"year": 2011, "day": 4, "month": 5, "categories": {"M-M20": {"distance": 9, "rank": 122, "pace": 269000000000, "time": 2515.8}}, "weekday": "wednesday", "livingplace": "Muraz Collombey"}}, "location": "Bouveret"}, "Morat-Fribourg": {"latitude": 46.92922110000001, "longitude": 7.120184, "race": "Morat-Fribourg", "date": {"sam. 02.10.2010": {"year": 2010, "day": 2, "month": 10, "categories": {"17-M20": {"distance": 17, "rank": 1038, "pace": 309000000000, "time": 5306.5}}, "weekday": "saturday", "livingplace": "Muraz Collombey"}}, "location": "Murten"}, "Tour du Chablais #3 Le Bouveret": {"latitude": 46.1782231, "longitude": 7.0223787, "race": "Tour du Chablais #3 Le Bouveret", "date": {"mer. 11.05.2011": {"year": 2011, "day": 11, "month": 5, "categories": {"M-M20": {"distance": 10, "rank": 135, "pace": 270000000000, "time": 2709.9}}, "weekday": "wednesday", "livingplace": "Muraz Collombey"}}, "location": "Evionnaz"}, "Tour du Chablais #4 Morgins": {"latitude": NaN, "longitude": NaN, "race": "Tour du Chablais #4 Morgins", "date": {"mer. 18.05.2011": {"year": 2011, "day": 18, "month": 5, "categories": {"M-M20": {"distance": 8, "rank": 109, "pace": 284000000000, "time": 2373.7}}, "weekday": "wednesday", "livingplace": "Muraz Collombey"}}, "location": "Les Mosses"}, "Tour du Pays de Vaud etape 1 - Le Mont sur Lausanne": {"latitude": 46.7784736, "longitude": 6.641183, "race": "Tour du Pays de Vaud etape 1 - Le Mont sur Lausanne", "date": {"mer. 12.08.2009": {"year": 2009, "day": 12, "month": 8, "categories": {"HS1": {"distance": 9, "rank": 55, "pace": 285000000000, "time": 2653.2}}, "weekday": "wednesday", "livingplace": "Muraz Collombey"}}, "location": "Yverdon-les-Bains"}, "Tour du Chablais #1 Lavey": {"latitude": 46.2957462, "longitude": 6.9916269, "race": "Tour du Chablais #1 Lavey", "date": {"mer. 27.04.2011": {"year": 2011, "day": 27, "month": 4, "categories": {"M-M20": {"distance": 9, "rank": 111, "pace": 268000000000, "time": 2419.8}}, "weekday": "wednesday", "livingplace": "Muraz Collombey"}}, "location": "Ollon VD"}, "Tour du Chablais #2 Yvorne": {"latitude": 46.3835529, "longitude": 6.854975199999999, "race": "Tour du Chablais #2 Yvorne", "date": {"mer. 10.04.2013": {"year": 2013, "day": 10, "month": 4, "categories": {"M-M40": {"distance": 8, "rank": 66, "pace": 302000000000, "time": 2422.3}}, "weekday": "wednesday", "livingplace": "Muraz Collombey"}}, "location": "Bouveret"}, "Tour du Chablais #2 St-Gingolph": {"latitude": 46.3835529, "longitude": 6.854975199999999, "race": "Tour du Chablais #2 St-Gingolph", "date": {"mer. 14.04.2010": {"year": 2010, "day": 14, "month": 4, "categories": {"M-M20": {"distance": 8, "rank": 94, "pace": 293000000000, "time": 2448.9}}, "weekday": "wednesday", "livingplace": "Muraz Collombey"}}, "location": "Bouveret"}, "Tour du Chablais #5 Les Mosses": {"latitude": 46.3603257, "longitude": 6.931504599999999, "race": "Tour du Chablais #5 Les Mosses", "date": {"mer. 25.05.2011": {"year": 2011, "day": 25, "month": 5, "categories": {"M-M20": {"distance": 8, "rank": 106, "pace": 285000000000, "time": 2282.6}}, "weekday": "wednesday", "livingplace": "Muraz Collombey"}}, "location": "Roche VD"}, "Groupe E Tour Fribourg #1 Siviriez": {"latitude": 46.81832, "longitude": 6.977279999999999, "race": "Groupe E Tour Fribourg #1 Siviriez", "date": {"mer. 21.08.2013": {"year": 2013, "day": 21, "month": 8, "categories": {"HS2": {"distance": 10, "rank": 37, "pace": 301000000000, "time": 2957.9}}, "weekday": "wednesday", "livingplace": "Val d'Illiez"}}, "location": "Cousset"}, "Tour du Chablais #6 Aigle": {"latitude": 46.3190253, "longitude": 6.970566, "race": "Tour du Chablais #6 Aigle", "date": {"mer. 01.06.2011": {"year": 2011, "day": 1, "month": 6, "categories": {"M-M20": {"distance": 10, "rank": 119, "pace": 262000000000, "time": 2679.3}}, "weekday": "wednesday", "livingplace": "Muraz Collombey"}}, "location": "Aigle"}, "Tour du Chablais #4 Yvorne": {"latitude": NaN, "longitude": NaN, "race": "Tour du Chablais #4 Yvorne", "date": {"mer. 28.04.2010": {"year": 2010, "day": 28, "month": 4, "categories": {"M-M20": {"distance": 8, "rank": 112, "pace": 291000000000, "time": 2416.8}}, "weekday": "wednesday", "livingplace": "Muraz Collombey"}}, "location": "Les Mosses"}}, "birth": 1973}