{"name": "Tutic Zelko", "sex": "M", "races": {"Tour du Chablais #1 Roche": {"latitude": 46.2957462, "longitude": 6.9916269, "race": "Tour du Chablais #1 Roche", "date": {"mer. 07.04.2010": {"year": 2010, "day": 7, "month": 4, "categories": {"M-M40": {"distance": 9, "rank": 121, "pace": 293000000000, "time": 2629.9}}, "weekday": "wednesday", "livingplace": "Evionnaz"}, "mer. 03.04.2013": {"year": 2013, "day": 3, "month": 4, "categories": {"M-M40": {"distance": 9, "rank": 62, "pace": 267000000000, "time": 2372.8}}, "weekday": "wednesday", "livingplace": "Evionnaz"}}, "location": "Ollon VD"}, "Tour du Chablais #2 Rennaz": {"latitude": 46.3835529, "longitude": 6.854975199999999, "race": "Tour du Chablais #2 Rennaz", "date": {"mer. 04.05.2011": {"year": 2011, "day": 4, "month": 5, "categories": {"M-M40": {"distance": 9, "rank": 105, "pace": 282000000000, "time": 2644.3}}, "weekday": "wednesday", "livingplace": "Evionnaz"}}, "location": "Bouveret"}, "Tour du Chablais #3 Le Bouveret": {"latitude": 46.1782231, "longitude": 7.0223787, "race": "Tour du Chablais #3 Le Bouveret", "date": {"mer. 11.05.2011": {"year": 2011, "day": 11, "month": 5, "categories": {"M-M40": {"distance": 10, "rank": 100, "pace": 284000000000, "time": 2843.2}}, "weekday": "wednesday", "livingplace": "Evionnaz"}}, "location": "Evionnaz"}, "Tour du Chablais #1 Lavey": {"latitude": 46.2957462, "longitude": 6.9916269, "race": "Tour du Chablais #1 Lavey", "date": {"mer. 27.04.2011": {"year": 2011, "day": 27, "month": 4, "categories": {"M-M40": {"distance": 9, "rank": 106, "pace": 300000000000, "time": 2703.6}}, "weekday": "wednesday", "livingplace": "Evionnaz"}}, "location": "Ollon VD"}, "Tour du Chablais #2 Yvorne": {"latitude": 46.3835529, "longitude": 6.854975199999999, "race": "Tour du Chablais #2 Yvorne", "date": {"mer. 10.04.2013": {"year": 2013, "day": 10, "month": 4, "categories": {"M-M40": {"distance": 8, "rank": 50, "pace": 289000000000, "time": 2315.9}}, "weekday": "wednesday", "livingplace": "Evionnaz"}}, "location": "Bouveret"}, "Tour du Chablais #2 St-Gingolph": {"latitude": 46.3835529, "longitude": 6.854975199999999, "race": "Tour du Chablais #2 St-Gingolph", "date": {"mer. 14.04.2010": {"year": 2010, "day": 14, "month": 4, "categories": {"M-M40": {"distance": 8, "rank": 121, "pace": 320000000000, "time": 2672.7}}, "weekday": "wednesday", "livingplace": "Evionnaz"}}, "location": "Bouveret"}, "Tour du Chablais #5 Bex": {"latitude": 46.3603257, "longitude": 6.931504599999999, "race": "Tour du Chablais #5 Bex", "date": {"mer. 09.05.2012": {"year": 2012, "day": 9, "month": 5, "categories": {"M-M40": {"distance": 9, "rank": 41, "pace": 258000000000, "time": 2290.0}}, "weekday": "wednesday", "livingplace": "Evionnaz"}}, "location": "Roche VD"}, "Tour du Chablais #4 Champ\u00e9ry": {"latitude": NaN, "longitude": NaN, "race": "Tour du Chablais #4 Champ\u00e9ry", "date": {"mer. 02.05.2012": {"year": 2012, "day": 2, "month": 5, "categories": {"M-M40": {"distance": 8, "rank": 58, "pace": 266000000000, "time": 2215.9}}, "weekday": "wednesday", "livingplace": "Evionnaz"}}, "location": "Les Mosses"}, "Tour du Chablais #5 Morgins": {"latitude": 46.3603257, "longitude": 6.931504599999999, "race": "Tour du Chablais #5 Morgins", "date": {"mer. 01.05.2013": {"year": 2013, "day": 1, "month": 5, "categories": {"M-M40": {"distance": 8, "rank": 65, "pace": 292000000000, "time": 2223.7}}, "weekday": "wednesday", "livingplace": "Evionnaz"}}, "location": "Roche VD"}, "Tour du Chablais #5 Les Mosses": {"latitude": 46.3603257, "longitude": 6.931504599999999, "race": "Tour du Chablais #5 Les Mosses", "date": {"mer. 25.05.2011": {"year": 2011, "day": 25, "month": 5, "categories": {"M-M40": {"distance": 8, "rank": 69, "pace": 301000000000, "time": 2408.1}}, "weekday": "wednesday", "livingplace": "Evionnaz"}}, "location": "Roche VD"}, "Lausanne Marathon": {"latitude": 46.5196535, "longitude": 6.6322734, "race": "Lausanne Marathon", "date": {"dim. 31.10.2010": {"year": 2010, "day": 31, "month": 10, "categories": {"21-H3": {"distance": 21, "rank": 473, "pace": 307000000000, "time": 6486.9}}, "weekday": "sunday", "livingplace": "Evionnaz"}, "dim. 30.10.2011": {"year": 2011, "day": 30, "month": 10, "categories": {"42-H3": {"distance": 42, "rank": 304, "pace": 361000000000, "time": 15250.0}}, "weekday": "sunday", "livingplace": "Evionnaz"}}, "location": "Lausanne"}, "Tour du Chablais #6 Aigle": {"latitude": 46.3190253, "longitude": 6.970566, "race": "Tour du Chablais #6 Aigle", "date": {"mer. 01.06.2011": {"year": 2011, "day": 1, "month": 6, "categories": {"M-M40": {"distance": 10, "rank": 77, "pace": 270000000000, "time": 2762.5}}, "weekday": "wednesday", "livingplace": "Evionnaz"}}, "location": "Aigle"}, "Tour du Chablais #4 St  Maurice": {"latitude": NaN, "longitude": NaN, "race": "Tour du Chablais #4 St  Maurice", "date": {"mer. 24.04.2013": {"year": 2013, "day": 24, "month": 4, "categories": {"M-M40": {"distance": 10, "rank": 50, "pace": 268000000000, "time": 2680.9}}, "weekday": "wednesday", "livingplace": "Evionnaz"}}, "location": "Les Mosses"}, "Tour du Chablais #3 Collombey-Muraz": {"latitude": 46.1782231, "longitude": 7.0223787, "race": "Tour du Chablais #3 Collombey-Muraz", "date": {"mer. 25.04.2012": {"year": 2012, "day": 25, "month": 4, "categories": {"M-M40": {"distance": 9, "rank": 56, "pace": 264000000000, "time": 2374.8}}, "weekday": "wednesday", "livingplace": "Evionnaz"}}, "location": "Evionnaz"}, "Semi-Marathon de la C\u00f4te, Allaman-Nyon": {"latitude": 46.3832683, "longitude": 6.2347852, "race": "Semi-Marathon de la C\u00f4te, Allaman-Nyon", "date": {"dim. 14.09.2014": {"year": 2014, "day": 14, "month": 9, "categories": {"21-H40": {"distance": 21, "rank": 62, "pace": 283000000000, "time": 5992.0}}, "weekday": "sunday", "livingplace": "Evionnaz"}}, "location": "Nyon"}, "Tour du Chablais #1 Martigny": {"latitude": 46.2957462, "longitude": 6.9916269, "race": "Tour du Chablais #1 Martigny", "date": {"mer. 23.04.2014": {"year": 2014, "day": 23, "month": 4, "categories": {"M-M40": {"distance": 9, "rank": 59, "pace": 268000000000, "time": 2282.7}}, "weekday": "wednesday", "livingplace": "Evionnaz"}}, "location": "Ollon VD"}, "SwissCityMarathon - Lucerne, Luzern": {"latitude": 47.05016819999999, "longitude": 8.3093072, "race": "SwissCityMarathon - Lucerne, Luzern", "date": {"dim. 27.10.2013": {"year": 2013, "day": 27, "month": 10, "categories": {"M-M40": {"distance": 42, "rank": 233, "pace": 325000000000, "time": 13725.6}}, "weekday": "sunday", "livingplace": "Evionnaz"}}, "location": "Luzern"}, "Tour du Chablais #4 Morgins": {"latitude": NaN, "longitude": NaN, "race": "Tour du Chablais #4 Morgins", "date": {"mer. 18.05.2011": {"year": 2011, "day": 18, "month": 5, "categories": {"M-M40": {"distance": 8, "rank": 93, "pace": 301000000000, "time": 2513.7}}, "weekday": "wednesday", "livingplace": "Evionnaz"}}, "location": "Les Mosses"}, "Aletsch-Halbmarathon, Bettmeralp": {"latitude": NaN, "longitude": NaN, "race": "Aletsch-Halbmarathon, Bettmeralp", "date": {"dim. 24.06.2012": {"year": 2012, "day": 24, "month": 6, "categories": {"M40": {"distance": 21, "rank": 153, "pace": 469000000000, "time": 9949.4}}, "weekday": "sunday", "livingplace": "Maur"}}, "location": "Bettmeralp"}, "Tour du Chablais #6 Mouthey": {"latitude": 46.3190253, "longitude": 6.970566, "race": "Tour du Chablais #6 Mouthey", "date": {"mer. 12.05.2010": {"year": 2010, "day": 12, "month": 5, "categories": {"M-M40": {"distance": 9, "rank": 101, "pace": 276000000000, "time": 2542.8}}, "weekday": "wednesday", "livingplace": "Evionnaz"}}, "location": "Aigle"}, "Tour du Chablais #1 Montreux": {"latitude": 46.2957462, "longitude": 6.9916269, "race": "Tour du Chablais #1 Montreux", "date": {"mer. 11.04.2012": {"year": 2012, "day": 11, "month": 4, "categories": {"M-M40": {"distance": 8, "rank": 67, "pace": 277000000000, "time": 2111.0}}, "weekday": "wednesday", "livingplace": "Evionnaz"}}, "location": "Ollon VD"}, "Tour du Chablais #6 Montreux": {"latitude": 46.3190253, "longitude": 6.970566, "race": "Tour du Chablais #6 Montreux", "date": {"mer. 16.05.2012": {"year": 2012, "day": 16, "month": 5, "categories": {"M-M40": {"distance": 9, "rank": 62, "pace": 258000000000, "time": 2393.8}}, "weekday": "wednesday", "livingplace": "Evionnaz"}}, "location": "Aigle"}, "Montreux - Les Rochers de Naye": {"latitude": 46.4312213, "longitude": 6.9106799, "race": "Montreux - Les Rochers de Naye", "date": {"dim. 10.07.2011": {"year": 2011, "day": 10, "month": 7, "categories": {"M-HV\u00e9t1": {"distance": 19, "rank": 119, "pace": 531000000000, "time": 9990.6}}, "weekday": "sunday", "livingplace": "Evionnaz"}, "dim. 07.07.2013": {"year": 2013, "day": 7, "month": 7, "categories": {"M-HV\u00e9t1": {"distance": 19, "rank": 78, "pace": 512000000000, "time": 9639.9}}, "weekday": "sunday", "livingplace": "Bex"}}, "location": "Montreux"}, "Tour du Chablais #4 Yvorne": {"latitude": NaN, "longitude": NaN, "race": "Tour du Chablais #4 Yvorne", "date": {"mer. 28.04.2010": {"year": 2010, "day": 28, "month": 4, "categories": {"M-M40": {"distance": 8, "rank": 105, "pace": 301000000000, "time": 2494.4}}, "weekday": "wednesday", "livingplace": "Evionnaz"}}, "location": "Les Mosses"}, "Tour du Chablais #2 Bex": {"latitude": 46.3835529, "longitude": 6.854975199999999, "race": "Tour du Chablais #2 Bex", "date": {"mer. 18.04.2012": {"year": 2012, "day": 18, "month": 4, "categories": {"M-M40": {"distance": 8, "rank": 70, "pace": 274000000000, "time": 2195.8}}, "weekday": "wednesday", "livingplace": "Evionnaz"}}, "location": "Bouveret"}, "Tour du Chablais #3 Bouveret": {"latitude": 46.1782231, "longitude": 7.0223787, "race": "Tour du Chablais #3 Bouveret", "date": {"mer. 17.04.2013": {"year": 2013, "day": 17, "month": 4, "categories": {"M-M40": {"distance": 10, "rank": 56, "pace": 270000000000, "time": 2706.8}}, "weekday": "wednesday", "livingplace": "Evionnaz"}}, "location": "Evionnaz"}}, "birth": 1970}