{"name": "Udriot Robert", "sex": "M", "races": {"Tour du Chablais #1 Roche": {"latitude": 46.2957462, "longitude": 6.9916269, "race": "Tour du Chablais #1 Roche", "date": {"mer. 07.04.2010": {"year": 2010, "day": 7, "month": 4, "categories": {"M-Jun": {"distance": 9, "rank": 1, "pace": 209000000000, "time": 1878.1}}, "weekday": "wednesday", "livingplace": "Massongex"}}, "location": "Ollon VD"}, "Lausanne Marathon": {"latitude": 46.5196535, "longitude": 6.6322734, "race": "Lausanne Marathon", "date": {"dim. 31.10.2010": {"year": 2010, "day": 31, "month": 10, "categories": {"21-JG": {"distance": 21, "rank": 1, "pace": 218000000000, "time": 4620.8}}, "weekday": "sunday", "livingplace": "Monthey"}}, "location": "Lausanne"}, "Tour du Chablais #6 Mouthey": {"latitude": 46.3190253, "longitude": 6.970566, "race": "Tour du Chablais #6 Mouthey", "date": {"mer. 12.05.2010": {"year": 2010, "day": 12, "month": 5, "categories": {"M-Jun": {"distance": 9, "rank": 1, "pace": 202000000000, "time": 1862.0}}, "weekday": "wednesday", "livingplace": "Massongex"}}, "location": "Aigle"}, "Tour du Chablais #4 Yvorne": {"latitude": NaN, "longitude": NaN, "race": "Tour du Chablais #4 Yvorne", "date": {"mer. 28.04.2010": {"year": 2010, "day": 28, "month": 4, "categories": {"M-Jun": {"distance": 8, "rank": 1, "pace": 216000000000, "time": 1794.3}}, "weekday": "wednesday", "livingplace": "Massongex"}}, "location": "Les Mosses"}, "Morat-Fribourg": {"latitude": 46.92922110000001, "longitude": 7.120184, "race": "Morat-Fribourg", "date": {"sam. 02.10.2010": {"year": 2010, "day": 2, "month": 10, "categories": {"17-JunH": {"distance": 17, "rank": 1, "pace": 221000000000, "time": 3807.4}}, "weekday": "saturday", "livingplace": "Monthey"}}, "location": "Murten"}, "Montreux - Les Rochers de Naye": {"latitude": 46.4312213, "longitude": 6.9106799, "race": "Montreux - Les Rochers de Naye", "date": {"dim. 11.07.2010": {"year": 2010, "day": 11, "month": 7, "categories": {"C-H-U20": {"distance": 10, "rank": 4, "pace": 343000000000, "time": 3264.5}}, "weekday": "sunday", "livingplace": "Massongex"}}, "location": "Montreux"}, "20km de Lausanne": {"latitude": 46.5196535, "longitude": 6.6322734, "race": "20km de Lausanne", "date": {"sam. 24.04.2010": {"year": 2010, "day": 24, "month": 4, "categories": {"20-H20": {"distance": 20, "rank": 19, "pace": 228000000000, "time": 4573.2}}, "weekday": "saturday", "livingplace": "Monthey"}}, "location": "Lausanne"}, "Tour du Chablais #3 Bex": {"latitude": 46.1782231, "longitude": 7.0223787, "race": "Tour du Chablais #3 Bex", "date": {"mer. 21.04.2010": {"year": 2010, "day": 21, "month": 4, "categories": {"M-Jun": {"distance": 10, "rank": 1, "pace": 215000000000, "time": 2155.8}}, "weekday": "wednesday", "livingplace": "Massongex"}}, "location": "Evionnaz"}, "Tour du Chablais #5 Leysin": {"latitude": 46.3603257, "longitude": 6.931504599999999, "race": "Tour du Chablais #5 Leysin", "date": {"mer. 05.05.2010": {"year": 2010, "day": 5, "month": 5, "categories": {"M-Jun": {"distance": 8, "rank": 1, "pace": 225000000000, "time": 1905.0}}, "weekday": "wednesday", "livingplace": "Massongex"}}, "location": "Roche VD"}, "Tour du Chablais #2 St-Gingolph": {"latitude": 46.3835529, "longitude": 6.854975199999999, "race": "Tour du Chablais #2 St-Gingolph", "date": {"mer. 14.04.2010": {"year": 2010, "day": 14, "month": 4, "categories": {"M-Jun": {"distance": 8, "rank": 1, "pace": 217000000000, "time": 1819.3}}, "weekday": "wednesday", "livingplace": "Massongex"}}, "location": "Bouveret"}}, "birth": 1991}