{"name": "Uhlmann Virginie", "sex": "F", "races": {"Tour du Pays de Vaud printanier #2 Yverdon-les-Bains": {"latitude": 46.6698891, "longitude": 6.7975224, "race": "Tour du Pays de Vaud printanier #2 Yverdon-les-Bains", "date": {"mer. 05.06.2013": {"year": 2013, "day": 5, "month": 6, "categories": {"D-Dam": {"distance": 9, "rank": 43, "pace": 436000000000, "time": 3975.7}}, "weekday": "wednesday", "livingplace": "La Rippe"}}, "location": "Moudon"}, "Tour du Pays de Vaud printanier #1 Moudon": {"latitude": 46.3832683, "longitude": 6.2347852, "race": "Tour du Pays de Vaud printanier #1 Moudon", "date": {"mer. 29.05.2013": {"year": 2013, "day": 29, "month": 5, "categories": {"D-Dam": {"distance": 8, "rank": 25, "pace": 437000000000, "time": 3737.6}}, "weekday": "wednesday", "livingplace": "La Rippe"}, "mer. 04.06.2014": {"year": 2014, "day": 4, "month": 6, "categories": {"D-Dam": {"distance": 8, "rank": 38, "pace": 398000000000, "time": 3347.9}}, "weekday": "wednesday", "livingplace": "Lausanne"}}, "location": "Nyon"}, "Tour du Pays de Vaud printanier #3 - Yens": {"latitude": 46.7829756, "longitude": 6.5728678, "race": "Tour du Pays de Vaud printanier #3 - Yens", "date": {"mer. 12.06.2013": {"year": 2013, "day": 12, "month": 6, "categories": {"D-Dam": {"distance": 9, "rank": 37, "pace": 424000000000, "time": 3864.3}}, "weekday": "wednesday", "livingplace": "La Rippe"}}, "location": "Champvent"}, "Tour du Pays de Vaud #2, Mezi\u00e8res": {"latitude": 46.5955273, "longitude": 6.7702883, "race": "Tour du Pays de Vaud #2, Mezi\u00e8res", "date": {"mer. 20.08.2014": {"year": 2014, "day": 20, "month": 8, "categories": {"D-Dam": {"distance": 8, "rank": 45, "pace": 409000000000, "time": 3319.8}}, "weekday": "wednesday", "livingplace": "Lausanne"}}, "location": "M\u00e9zi\u00e8res VD"}, "Tour du Pays de Vaud #3 - Chavornay": {"latitude": 46.7784736, "longitude": 6.641183, "race": "Tour du Pays de Vaud #3 - Chavornay", "date": {"mer. 28.08.2013": {"year": 2013, "day": 28, "month": 8, "categories": {"D-Dam": {"distance": 9, "rank": 58, "pace": 446000000000, "time": 3976.8}}, "weekday": "wednesday", "livingplace": "La Rippe"}}, "location": "Yverdon-les-Bains"}, "Tour du Pays de Vaud #4 - La Sarraz": {"latitude": 46.7088129, "longitude": 6.5707689, "race": "Tour du Pays de Vaud #4 - La Sarraz", "date": {"mer. 04.09.2013": {"year": 2013, "day": 4, "month": 9, "categories": {"D-Dam": {"distance": 9, "rank": 59, "pace": 417000000000, "time": 3547.1}}, "weekday": "wednesday", "livingplace": "La Rippe"}}, "location": "Chavornay"}, "Tour du Pays de Vaud #4, La Sarraz": {"latitude": 46.7088129, "longitude": 6.5707689, "race": "Tour du Pays de Vaud #4, La Sarraz", "date": {"mer. 03.09.2014": {"year": 2014, "day": 3, "month": 9, "categories": {"D-Dam": {"distance": 9, "rank": 45, "pace": 363000000000, "time": 3088.8}}, "weekday": "wednesday", "livingplace": "Lausanne"}}, "location": "Chavornay"}, "Tour du Pays de Vaud #1, Penthaz": {"latitude": 46.5993131, "longitude": 6.539251200000001, "race": "Tour du Pays de Vaud #1, Penthaz", "date": {"mer. 13.08.2014": {"year": 2014, "day": 13, "month": 8, "categories": {"D-Dam": {"distance": 9, "rank": 32, "pace": 383000000000, "time": 3268.5}}, "weekday": "wednesday", "livingplace": "Lausanne"}}, "location": "Penthaz"}, "Tour du Pays de Vaud #3, Chavornay": {"latitude": 46.7784736, "longitude": 6.641183, "race": "Tour du Pays de Vaud #3, Chavornay", "date": {"mer. 27.08.2014": {"year": 2014, "day": 27, "month": 8, "categories": {"D-Dam": {"distance": 9, "rank": 32, "pace": 375000000000, "time": 3226.8}}, "weekday": "wednesday", "livingplace": "Lausanne"}}, "location": "Yverdon-les-Bains"}}, "birth": 1989}