{"name": "Umiker Christof", "sex": "M", "races": {"Tour du Chablais #2 Rennaz": {"latitude": 46.3835529, "longitude": 6.854975199999999, "race": "Tour du Chablais #2 Rennaz", "date": {"mer. 04.05.2011": {"year": 2011, "day": 4, "month": 5, "categories": {"M-M50": {"distance": 9, "rank": 77, "pace": 314000000000, "time": 2936.8}}, "weekday": "wednesday", "livingplace": "Corbeyrier"}}, "location": "Bouveret"}, "Tour du Chablais #5 Bex": {"latitude": 46.3603257, "longitude": 6.931504599999999, "race": "Tour du Chablais #5 Bex", "date": {"mer. 09.05.2012": {"year": 2012, "day": 9, "month": 5, "categories": {"M-M50": {"distance": 9, "rank": 64, "pace": 320000000000, "time": 2840.9}}, "weekday": "wednesday", "livingplace": "Corbeyrier"}}, "location": "Roche VD"}, "Morat-Fribourg": {"latitude": 46.92922110000001, "longitude": 7.120184, "race": "Morat-Fribourg", "date": {"sam. 01.10.2011": {"year": 2011, "day": 1, "month": 10, "categories": {"17-M50": {"distance": 17, "rank": 431, "pace": 363000000000, "time": 6248.9}}, "weekday": "saturday", "livingplace": "Corbeyrier"}}, "location": "Murten"}, "Course de l'Avent, Yverdon": {"latitude": 46.8064773, "longitude": 7.161971899999999, "race": "Course de l'Avent, Yverdon", "date": {"dim. 28.11.2010": {"year": 2010, "day": 28, "month": 11, "categories": {"E-H53": {"distance": 8, "rank": 36, "pace": 338000000000, "time": 2615.7}}, "weekday": "sunday", "livingplace": "Corbeyrier"}}, "location": "Fribourg"}, "Tour du Chablais #3 Le Bouveret": {"latitude": 46.1782231, "longitude": 7.0223787, "race": "Tour du Chablais #3 Le Bouveret", "date": {"mer. 11.05.2011": {"year": 2011, "day": 11, "month": 5, "categories": {"M-M50": {"distance": 10, "rank": 77, "pace": 315000000000, "time": 3154.4}}, "weekday": "wednesday", "livingplace": "Corbeyrier"}}, "location": "Evionnaz"}, "20km de Lausanne": {"latitude": 46.5196535, "longitude": 6.6322734, "race": "20km de Lausanne", "date": {"sam. 30.04.2011": {"year": 2011, "day": 30, "month": 4, "categories": {"20-H50": {"distance": 20, "rank": 179, "pace": 329000000000, "time": 6581.0}}, "weekday": "saturday", "livingplace": "Corbeyrier"}, "sam. 25.04.2015": {"year": 2015, "day": 25, "month": 4, "categories": {"20-H55": {"distance": 20, "rank": 134, "pace": 367000000000, "time": 7344.5}}, "weekday": "saturday", "livingplace": "Corbeyrier"}, "sam. 28.04.2012": {"year": 2012, "day": 28, "month": 4, "categories": {"20-H50": {"distance": 20, "rank": 201, "pace": 376000000000, "time": 7523.7}}, "weekday": "saturday", "livingplace": "Vuisternens en Ogoz"}, "sam. 26.04.2014": {"year": 2014, "day": 26, "month": 4, "categories": {"20-H55": {"distance": 20, "rank": 119, "pace": 360000000000, "time": 7215.4}}, "weekday": "saturday", "livingplace": "Corbeyrier"}}, "location": "Lausanne"}, "Tour du Chablais #4 Yvorne": {"latitude": NaN, "longitude": NaN, "race": "Tour du Chablais #4 Yvorne", "date": {"mer. 28.04.2010": {"year": 2010, "day": 28, "month": 4, "categories": {"M-M50": {"distance": 8, "rank": 75, "pace": 374000000000, "time": 3101.2}}, "weekday": "wednesday", "livingplace": "Corbeyrier"}}, "location": "Les Mosses"}, "Tour du Chablais #1 Martigny": {"latitude": 46.2957462, "longitude": 6.9916269, "race": "Tour du Chablais #1 Martigny", "date": {"mer. 23.04.2014": {"year": 2014, "day": 23, "month": 4, "categories": {"M-M50": {"distance": 9, "rank": 95, "pace": 330000000000, "time": 2808.2}}, "weekday": "wednesday", "livingplace": "Corbeyrier"}}, "location": "Ollon VD"}, "Tour du Chablais #5 Leysin": {"latitude": 46.3603257, "longitude": 6.931504599999999, "race": "Tour du Chablais #5 Leysin", "date": {"mer. 05.05.2010": {"year": 2010, "day": 5, "month": 5, "categories": {"M-M50": {"distance": 8, "rank": 61, "pace": 371000000000, "time": 3142.1}}, "weekday": "wednesday", "livingplace": "Corbeyrier"}}, "location": "Roche VD"}}, "birth": 1959}