{"name": "Ummel Damien", "sex": "M", "races": {"Lucerne Marathon, Luzern": {"latitude": 47.05016819999999, "longitude": 8.3093072, "race": "Lucerne Marathon, Luzern", "date": {"dim. 30.10.2011": {"year": 2011, "day": 30, "month": 10, "categories": {"H-M20": {"distance": 21, "rank": 201, "pace": 284000000000, "time": 6006.6}}, "weekday": "sunday", "livingplace": "Fenin"}}, "location": "Luzern"}, "BCN Tour #5 Colombier": {"latitude": 46.9262933, "longitude": 6.6324944, "race": "BCN Tour #5 Colombier", "date": {"mer. 22.05.2013": {"year": 2013, "day": 22, "month": 5, "categories": {"HE": {"distance": 11, "rank": 195, "pace": 280000000000, "time": 2942.0}}, "weekday": "wednesday", "livingplace": "Fenin"}}, "location": "Couvet"}, "BCN Tour Couvet": {"latitude": 47.0624261, "longitude": 6.9175754, "race": "BCN Tour Couvet", "date": {"mer. 02.05.2012": {"year": 2012, "day": 2, "month": 5, "categories": {"HE": {"distance": 11, "rank": 154, "pace": 330000000000, "time": 3682.6}}, "weekday": "wednesday", "livingplace": "Fenin"}}, "location": "Ch\u00e9zard-St-Martin"}, "BCN Tour Cornaux": {"latitude": 46.9668714, "longitude": 6.8589727, "race": "BCN Tour Cornaux", "date": {"mer. 25.04.2012": {"year": 2012, "day": 25, "month": 4, "categories": {"HE": {"distance": 11, "rank": 151, "pace": 352000000000, "time": 3873.8}}, "weekday": "wednesday", "livingplace": "Fenin"}}, "location": "Colombier NE"}, "BCN Tour Les Ponts-de-Martel": {"latitude": 46.999113, "longitude": 6.733554799999999, "race": "BCN Tour Les Ponts-de-Martel", "date": {"mer. 09.05.2012": {"year": 2012, "day": 9, "month": 5, "categories": {"HE": {"distance": 10, "rank": 136, "pace": 308000000000, "time": 3172.6}}, "weekday": "wednesday", "livingplace": "Fenin"}}, "location": "Les Ponts-de-Martel"}}, "birth": 1986}