{"name": "Ummel Jonathan", "sex": "M", "races": {"BCN Tour M\u00f4tier": {"latitude": 46.9262933, "longitude": 6.6324944, "race": "BCN Tour M\u00f4tier", "date": {"mer. 19.05.2010": {"year": 2010, "day": 19, "month": 5, "categories": {"KG4": {"distance": 4, "rank": 20, "pace": 265000000000, "time": 1010.5}}, "weekday": "wednesday", "livingplace": "Cormoret"}}, "location": "Couvet"}, "BCN Tour Neuch\u00e2tel": {"latitude": 46.9899874, "longitude": 6.9292732, "race": "BCN Tour Neuch\u00e2tel", "date": {"mer. 26.05.2010": {"year": 2010, "day": 26, "month": 5, "categories": {"KG4": {"distance": 3, "rank": 20, "pace": 204000000000, "time": 695.6}}, "weekday": "wednesday", "livingplace": "Cormoret"}}, "location": "Neuch\u00e2tel"}, "BCN Tour Le Locle": {"latitude": 46.999113, "longitude": 6.733554799999999, "race": "BCN Tour Le Locle", "date": {"mer. 05.05.2010": {"year": 2010, "day": 5, "month": 5, "categories": {"KG4": {"distance": 4, "rank": 18, "pace": 243000000000, "time": 899.5}}, "weekday": "wednesday", "livingplace": "Cormoret"}}, "location": "Les Ponts-de-Martel"}, "BCN Tour Ponts-de-Martel": {"latitude": 47.0624261, "longitude": 6.9175754, "race": "BCN Tour Ponts-de-Martel", "date": {"mer. 28.04.2010": {"year": 2010, "day": 28, "month": 4, "categories": {"KG4": {"distance": 4, "rank": 20, "pace": 226000000000, "time": 952.6}}, "weekday": "wednesday", "livingplace": "Cormoret"}}, "location": "Ch\u00e9zard-St-Martin"}, "BCN Tour La Chaux-de-fonds": {"latitude": 47.1034892, "longitude": 6.832783800000001, "race": "BCN Tour La Chaux-de-fonds", "date": {"mer. 12.05.2010": {"year": 2010, "day": 12, "month": 5, "categories": {"KG4": {"distance": 4, "rank": 16, "pace": 244000000000, "time": 953.6}}, "weekday": "wednesday", "livingplace": "Cormoret"}}, "location": "La Chaux-de-Fonds"}, "BCN Tour Colombier": {"latitude": 46.9668714, "longitude": 6.8589727, "race": "BCN Tour Colombier", "date": {"mer. 21.04.2010": {"year": 2010, "day": 21, "month": 4, "categories": {"KG4": {"distance": 4, "rank": 19, "pace": 262000000000, "time": 1051.7}}, "weekday": "wednesday", "livingplace": "Cormoret"}}, "location": "Colombier NE"}}, "birth": 1995}