{"name": "Valenti Salvi", "sex": "M", "races": {"T\u00fcrlerseelauf Affoltern am Albis": {"latitude": 47.2795081, "longitude": 8.4540083, "race": "T\u00fcrlerseelauf Affoltern am Albis", "date": {"sam. 31.08.2013": {"year": 2013, "day": 31, "month": 8, "categories": {"C": {"distance": 14, "rank": 83, "pace": 301000000000, "time": 4252.4}}, "weekday": "saturday", "livingplace": "Urdorf"}}, "location": "Affoltern am Albis"}, "SwissCityMarathon - Lucerne, Luzern": {"latitude": 47.05016819999999, "longitude": 8.3093072, "race": "SwissCityMarathon - Lucerne, Luzern", "date": {"dim. 26.10.2014": {"year": 2014, "day": 26, "month": 10, "categories": {"M-M40": {"distance": 42, "rank": 343, "pace": 365000000000, "time": 15408.8}}, "weekday": "sunday", "livingplace": "Urdorf"}}, "location": "Luzern"}, "ASICS Bremgarter Reusslauf": {"latitude": 47.34917739999999, "longitude": 8.3397905, "race": "ASICS Bremgarter Reusslauf", "date": {"sam. 25.02.2012": {"year": 2012, "day": 25, "month": 2, "categories": {"M40": {"distance": 11, "rank": 504, "pace": 306000000000, "time": 3366.6}}, "weekday": "saturday", "livingplace": "Ttl"}}, "location": "Bremgarten AG"}, "Badener Limmat-Lauf, Baden": {"latitude": 48.5699281, "longitude": 8.5303972, "race": "Badener Limmat-Lauf, Baden", "date": {"sam. 29.03.2014": {"year": 2014, "day": 29, "month": 3, "categories": {"M40": {"distance": 13, "rank": 134, "pace": 296000000000, "time": 3900.2}}, "weekday": "saturday", "livingplace": "Urdorf"}, "sam. 28.03.2015": {"year": 2015, "day": 28, "month": 3, "categories": {"M50": {"distance": 13, "rank": 63, "pace": 290000000000, "time": 3826.3}}, "weekday": "saturday", "livingplace": "Urdorf"}}, "location": "Baden"}, "Aletsch-Halbmarathon, Bettmeralp": {"latitude": NaN, "longitude": NaN, "race": "Aletsch-Halbmarathon, Bettmeralp", "date": {"dim. 26.06.2011": {"year": 2011, "day": 26, "month": 6, "categories": {"M45": {"distance": 21, "rank": 229, "pace": 568000000000, "time": 11935.6}}, "weekday": "sunday", "livingplace": "Urdorf"}}, "location": "Bettmeralp"}, "Z\u00fcrich Marathon, Teamrun und Cityrun": {"latitude": 47.3768866, "longitude": 8.541694, "race": "Z\u00fcrich Marathon, Teamrun und Cityrun", "date": {"dim. 19.04.2015": {"year": 2015, "day": 19, "month": 4, "categories": {"42-M50": {"distance": 42, "rank": 167, "pace": 328000000000, "time": 13848.7}}, "weekday": "sunday", "livingplace": "Urdorf"}}, "location": "Z\u00fcrich"}}, "birth": 1965}