{"name": "Van Dongen Dimitri", "sex": "M", "races": {"BCN Tour M\u00f4tier": {"latitude": 46.9262933, "longitude": 6.6324944, "race": "BCN Tour M\u00f4tier", "date": {"mer. 19.05.2010": {"year": 2010, "day": 19, "month": 5, "categories": {"HJ": {"distance": 10, "rank": 18, "pace": 261000000000, "time": 2592.8}}, "weekday": "wednesday", "livingplace": "La Chaux de Fonds"}}, "location": "Couvet"}, "BCN Tour Neuch\u00e2tel": {"latitude": 46.9899874, "longitude": 6.9292732, "race": "BCN Tour Neuch\u00e2tel", "date": {"mer. 26.05.2010": {"year": 2010, "day": 26, "month": 5, "categories": {"HJ": {"distance": 10, "rank": 70, "pace": 364000000000, "time": 3533.1}}, "weekday": "wednesday", "livingplace": "La Chaux de Fonds"}}, "location": "Neuch\u00e2tel"}, "BCN Tour La Chaux-de-Fonds": {"latitude": 46.9262933, "longitude": 6.6324944, "race": "BCN Tour La Chaux-de-Fonds", "date": {"mer. 23.05.2012": {"year": 2012, "day": 23, "month": 5, "categories": {"HE": {"distance": 11, "rank": 50, "pace": 269000000000, "time": 2905.8}}, "weekday": "wednesday", "livingplace": "La Chaux de Fonds"}}, "location": "Couvet"}, "BCN Tour Le Locle": {"latitude": 46.999113, "longitude": 6.733554799999999, "race": "BCN Tour Le Locle", "date": {"mer. 05.05.2010": {"year": 2010, "day": 5, "month": 5, "categories": {"HJ": {"distance": 11, "rank": 14, "pace": 266000000000, "time": 2905.4}}, "weekday": "wednesday", "livingplace": "La Chaux de Fonds"}}, "location": "Les Ponts-de-Martel"}, "BCN Tour Ponts-de-Martel": {"latitude": 47.0624261, "longitude": 6.9175754, "race": "BCN Tour Ponts-de-Martel", "date": {"mer. 28.04.2010": {"year": 2010, "day": 28, "month": 4, "categories": {"HJ": {"distance": 11, "rank": 7, "pace": 258000000000, "time": 2898.7}}, "weekday": "wednesday", "livingplace": "La Chaux de Fonds"}}, "location": "Ch\u00e9zard-St-Martin"}, "BCN Tour La Chaux-de-fonds": {"latitude": 47.1034892, "longitude": 6.832783800000001, "race": "BCN Tour La Chaux-de-fonds", "date": {"mer. 12.05.2010": {"year": 2010, "day": 12, "month": 5, "categories": {"HJ": {"distance": 11, "rank": 21, "pace": 330000000000, "time": 3535.6}}, "weekday": "wednesday", "livingplace": "La Chaux de Fonds"}}, "location": "La Chaux-de-Fonds"}, "BCN Tour Colombier": {"latitude": 46.9668714, "longitude": 6.8589727, "race": "BCN Tour Colombier", "date": {"mer. 21.04.2010": {"year": 2010, "day": 21, "month": 4, "categories": {"HJ": {"distance": 10, "rank": 6, "pace": 274000000000, "time": 2746.2}}, "weekday": "wednesday", "livingplace": "La Chaux de Fonds"}}, "location": "Colombier NE"}}, "birth": 1992}