{"name": "Van Ewijk Richard", "sex": "M", "races": {"BCN Tour Couvet": {"latitude": 47.0624261, "longitude": 6.9175754, "race": "BCN Tour Couvet", "date": {"mer. 02.05.2012": {"year": 2012, "day": 2, "month": 5, "categories": {"HS2": {"distance": 11, "rank": 319, "pace": 435000000000, "time": 4860.7}}, "weekday": "wednesday", "livingplace": "Fontaines"}}, "location": "Ch\u00e9zard-St-Martin"}, "Morat-Fribourg": {"latitude": 46.92922110000001, "longitude": 7.120184, "race": "Morat-Fribourg", "date": {"sam. 05.10.2013": {"year": 2013, "day": 5, "month": 10, "categories": {"17-M40": {"distance": 17, "rank": 886, "pace": 435000000000, "time": 7598.5}}, "weekday": "saturday", "livingplace": "Fontaines"}, "sam. 01.10.2011": {"year": 2011, "day": 1, "month": 10, "categories": {"17-M40": {"distance": 17, "rank": 749, "pace": 408000000000, "time": 7018.5}}, "weekday": "saturday", "livingplace": "Fontaines"}}, "location": "Murten"}, "BCN Tour La Br\u00e9vine": {"latitude": 46.999113, "longitude": 6.733554799999999, "race": "BCN Tour La Br\u00e9vine", "date": {"mer. 04.05.2011": {"year": 2011, "day": 4, "month": 5, "categories": {"HS2": {"distance": 10, "rank": 314, "pace": 383000000000, "time": 3837.2}}, "weekday": "wednesday", "livingplace": "Fontaines"}}, "location": "Les Ponts-de-Martel"}, "BCN Tour Fontaine Cernier": {"latitude": 47.0624261, "longitude": 6.9175754, "race": "BCN Tour Fontaine Cernier", "date": {"mer. 27.04.2011": {"year": 2011, "day": 27, "month": 4, "categories": {"HS2": {"distance": 10, "rank": 313, "pace": 358000000000, "time": 3694.0}}, "weekday": "wednesday", "livingplace": "Fontaines"}}, "location": "Ch\u00e9zard-St-Martin"}, "BCN Tour #1 Corcelles": {"latitude": 46.9668714, "longitude": 6.8589727, "race": "BCN Tour #1 Corcelles", "date": {"mer. 24.04.2013": {"year": 2013, "day": 24, "month": 4, "categories": {"HS2": {"distance": 10, "rank": 320, "pace": 377000000000, "time": 3698.8}}, "weekday": "wednesday", "livingplace": "Fontaines"}}, "location": "Colombier NE"}, "BCN Tour Auvernier": {"latitude": 46.9668714, "longitude": 6.8589727, "race": "BCN Tour Auvernier", "date": {"mer. 20.04.2011": {"year": 2011, "day": 20, "month": 4, "categories": {"HS2": {"distance": 11, "rank": 296, "pace": 387000000000, "time": 4180.7}}, "weekday": "wednesday", "livingplace": "Fontaines"}}, "location": "Colombier NE"}, "BCN Tour #4 Fleurier": {"latitude": 47.1034892, "longitude": 6.832783800000001, "race": "BCN Tour #4 Fleurier", "date": {"mer. 15.05.2013": {"year": 2013, "day": 15, "month": 5, "categories": {"HS2": {"distance": 9, "rank": 260, "pace": 362000000000, "time": 3133.4}}, "weekday": "wednesday", "livingplace": "Fontaines"}}, "location": "La Chaux-de-Fonds"}, "BCN Tour #2 La Chaux-de-Fonds": {"latitude": 47.0624261, "longitude": 6.9175754, "race": "BCN Tour #2 La Chaux-de-Fonds", "date": {"mer. 01.05.2013": {"year": 2013, "day": 1, "month": 5, "categories": {"HS2": {"distance": 11, "rank": 325, "pace": 358000000000, "time": 3831.6}}, "weekday": "wednesday", "livingplace": "Fontaines"}}, "location": "Ch\u00e9zard-St-Martin"}, "BCN Tour La Chaux-de-Fonds": {"latitude": 47.1034892, "longitude": 6.832783800000001, "race": "BCN Tour La Chaux-de-Fonds", "date": {"mer. 23.05.2012": {"year": 2012, "day": 23, "month": 5, "categories": {"HS2": {"distance": 11, "rank": 329, "pace": 416000000000, "time": 4493.4}}, "weekday": "wednesday", "livingplace": "Fontaines"}, "mer. 11.05.2011": {"year": 2011, "day": 11, "month": 5, "categories": {"HS2": {"distance": 11, "rank": 322, "pace": 459000000000, "time": 4911.3}}, "weekday": "wednesday", "livingplace": "Fontaines"}}, "location": "La Chaux-de-Fonds"}, "BCN Tour #6 Neuch\u00e2tel": {"latitude": 46.9899874, "longitude": 6.9292732, "race": "BCN Tour #6 Neuch\u00e2tel", "date": {"mer. 29.05.2013": {"year": 2013, "day": 29, "month": 5, "categories": {"HS2": {"distance": 11, "rank": 297, "pace": 378000000000, "time": 4159.0}}, "weekday": "wednesday", "livingplace": "Fontaines"}}, "location": "Neuch\u00e2tel"}, "BCN Tour Les Ponts-de-Martel": {"latitude": 46.999113, "longitude": 6.733554799999999, "race": "BCN Tour Les Ponts-de-Martel", "date": {"mer. 09.05.2012": {"year": 2012, "day": 9, "month": 5, "categories": {"HS2": {"distance": 10, "rank": 315, "pace": 393000000000, "time": 4056.8}}, "weekday": "wednesday", "livingplace": "Fontaines"}}, "location": "Les Ponts-de-Martel"}, "BCN Tour Neuch\u00e2tel": {"latitude": 46.9899874, "longitude": 6.9292732, "race": "BCN Tour Neuch\u00e2tel", "date": {"mer. 30.05.2012": {"year": 2012, "day": 30, "month": 5, "categories": {"HS2": {"distance": 11, "rank": 327, "pace": 420000000000, "time": 4711.7}}, "weekday": "wednesday", "livingplace": "Fontaines"}, "mer. 25.05.2011": {"year": 2011, "day": 25, "month": 5, "categories": {"HS2": {"distance": 11, "rank": 315, "pace": 394000000000, "time": 4494.3}}, "weekday": "wednesday", "livingplace": "Fontaines"}}, "location": "Neuch\u00e2tel"}, "BCN Tour #5 Colombier": {"latitude": 46.9262933, "longitude": 6.6324944, "race": "BCN Tour #5 Colombier", "date": {"mer. 22.05.2013": {"year": 2013, "day": 22, "month": 5, "categories": {"HS2": {"distance": 11, "rank": 302, "pace": 322000000000, "time": 3390.9}}, "weekday": "wednesday", "livingplace": "Fontaines"}}, "location": "Couvet"}, "BCN Tour Colombier": {"latitude": 47.1034892, "longitude": 6.832783800000001, "race": "BCN Tour Colombier", "date": {"mer. 16.05.2012": {"year": 2012, "day": 16, "month": 5, "categories": {"HS2": {"distance": 11, "rank": 349, "pace": 420000000000, "time": 4536.4}}, "weekday": "wednesday", "livingplace": "Fontaines"}}, "location": "La Chaux-de-Fonds"}, "BCN Tour #3 Dombresson": {"latitude": 46.999113, "longitude": 6.733554799999999, "race": "BCN Tour #3 Dombresson", "date": {"mer. 08.05.2013": {"year": 2013, "day": 8, "month": 5, "categories": {"HS2": {"distance": 10, "rank": 311, "pace": 343000000000, "time": 3402.3}}, "weekday": "wednesday", "livingplace": "Fontaines"}}, "location": "Les Ponts-de-Martel"}}, "birth": 1969}