{"name": "Vaucher Raymond", "sex": "M", "races": {"BCN Tour M\u00f4tier": {"latitude": 46.9262933, "longitude": 6.6324944, "race": "BCN Tour M\u00f4tier", "date": {"mer. 19.05.2010": {"year": 2010, "day": 19, "month": 5, "categories": {"HV2": {"distance": 10, "rank": 41, "pace": 394000000000, "time": 3901.9}}, "weekday": "wednesday", "livingplace": "Cressier"}}, "location": "Couvet"}, "BCN Tour Fontaine Cernier": {"latitude": 47.0624261, "longitude": 6.9175754, "race": "BCN Tour Fontaine Cernier", "date": {"mer. 27.04.2011": {"year": 2011, "day": 27, "month": 4, "categories": {"HV2": {"distance": 10, "rank": 40, "pace": 402000000000, "time": 4147.5}}, "weekday": "wednesday", "livingplace": "Cressier"}}, "location": "Ch\u00e9zard-St-Martin"}, "D\u00e9fi Val-de-Travers, Couvet": {"latitude": 46.9262933, "longitude": 6.6324944, "race": "D\u00e9fi Val-de-Travers, Couvet", "date": {"sam. 21.06.2008": {"year": 2008, "day": 21, "month": 6, "categories": {"EHV": {"distance": 12, "rank": 12, "pace": 489000000000, "time": 5976.9}}, "weekday": "saturday", "livingplace": "Cressier"}, "sam. 19.06.2010": {"year": 2010, "day": 19, "month": 6, "categories": {"12-HVet": {"distance": 12, "rank": 13, "pace": 465000000000, "time": 5673.0}}, "weekday": "saturday", "livingplace": "Cressier"}}, "location": "Couvet"}, "BCN Tour Le Landeron": {"latitude": 46.9668714, "longitude": 6.8589727, "race": "BCN Tour Le Landeron", "date": {"mer. 22.04.2009": {"year": 2009, "day": 22, "month": 4, "categories": {"HV2": {"distance": 11, "rank": 35, "pace": 413000000000, "time": 4589.3}}, "weekday": "wednesday", "livingplace": "Cressier"}}, "location": "Colombier NE"}, "BCN Tour La Chaux-de-Fonds": {"latitude": 47.1034892, "longitude": 6.832783800000001, "race": "BCN Tour La Chaux-de-Fonds", "date": {"mer. 11.05.2011": {"year": 2011, "day": 11, "month": 5, "categories": {"HV2": {"distance": 11, "rank": 42, "pace": 503000000000, "time": 5390.8}}, "weekday": "wednesday", "livingplace": "Cressier"}}, "location": "La Chaux-de-Fonds"}, "BCN Tour Neuch\u00e2tel": {"latitude": 46.9899874, "longitude": 6.9292732, "race": "BCN Tour Neuch\u00e2tel", "date": {"mer. 26.05.2010": {"year": 2010, "day": 26, "month": 5, "categories": {"HV2": {"distance": 10, "rank": 51, "pace": 543000000000, "time": 5267.6}}, "weekday": "wednesday", "livingplace": "Cressier"}}, "location": "Neuch\u00e2tel"}, "BCN Tour Auvernier": {"latitude": 46.9668714, "longitude": 6.8589727, "race": "BCN Tour Auvernier", "date": {"mer. 20.04.2011": {"year": 2011, "day": 20, "month": 4, "categories": {"HV2": {"distance": 11, "rank": 39, "pace": 449000000000, "time": 4849.6}}, "weekday": "wednesday", "livingplace": "Cressier"}}, "location": "Colombier NE"}, "Kerzerslauf": {"latitude": 46.97488999999999, "longitude": 7.1954365, "race": "Kerzerslauf", "date": {"sam. 19.03.2005": {"year": 2005, "day": 19, "month": 3, "categories": {"M55": {"distance": 15, "rank": 213, "pace": 400000000000, "time": 6002.5}}, "weekday": "saturday", "livingplace": "Cressier"}}, "location": "Kerzers"}, "BCN Tour Colombier": {"latitude": 46.9668714, "longitude": 6.8589727, "race": "BCN Tour Colombier", "date": {"mer. 23.04.2008": {"year": 2008, "day": 23, "month": 4, "categories": {"HV2": {"distance": 10, "rank": 32, "pace": 423000000000, "time": 4315.4}}, "weekday": "wednesday", "livingplace": "Cressier"}, "mer. 21.04.2010": {"year": 2010, "day": 21, "month": 4, "categories": {"HV2": {"distance": 10, "rank": 42, "pace": 448000000000, "time": 4481.2}}, "weekday": "wednesday", "livingplace": "Cressier"}}, "location": "Colombier NE"}}, "birth": 1948}