{"name": "Vaudan Emmanuel", "sex": "M", "races": {"Montreux - Les Rochers de Naye": {"latitude": 46.4312213, "longitude": 6.9106799, "race": "Montreux - Les Rochers de Naye", "date": {"dim. 29.06.2003": {"year": 2003, "day": 29, "month": 6, "categories": {"Se": {"distance": 20, "rank": 2, "pace": 302000000000, "time": 6133.6}}, "weekday": "sunday", "livingplace": "Evionnaz"}}, "location": "Montreux"}, "Lausanne Marathon": {"latitude": 46.5196535, "longitude": 6.6322734, "race": "Lausanne Marathon", "date": {"dim. 31.10.2010": {"year": 2010, "day": 31, "month": 10, "categories": {"21-H2": {"distance": 21, "rank": 13, "pace": 212000000000, "time": 4491.8}}, "weekday": "sunday", "livingplace": "Evionnaz"}}, "location": "Lausanne"}, "Glacier 3000 Run, Gstaad": {"latitude": 46.4717588, "longitude": 7.2865728, "race": "Glacier 3000 Run, Gstaad", "date": {"sam. 09.08.2008": {"year": 2008, "day": 9, "month": 8, "categories": {"M30": {"distance": 26, "rank": 5, "pace": 349000000000, "time": 9083.6}}, "weekday": "saturday", "livingplace": "Monthey"}}, "location": "Gstaad"}, "D\u00e9rupe Vercorin, Vercorin": {"latitude": 46.257222, "longitude": 7.530556, "race": "D\u00e9rupe Vercorin, Vercorin", "date": {"sam. 19.11.2005": {"year": 2005, "day": 19, "month": 11, "categories": {"HO": {"distance": 6, "rank": 1, "pace": 338000000000, "time": 2031.6}}, "weekday": "saturday", "livingplace": "Evionnaz"}}, "location": "Vercorin"}, "Sierre-Zinal, Sierre": {"latitude": 46.29413110000001, "longitude": 7.533536199999999, "race": "Sierre-Zinal, Sierre", "date": {"dim. 11.08.2013": {"year": 2013, "day": 11, "month": 8, "categories": {"V\u00e9t_I": {"distance": 31, "rank": 6, "pace": 343000000000, "time": 10651.5}}, "weekday": "sunday", "livingplace": "Monthey"}}, "location": "Sierre"}}, "birth": 1971}