{"name": "Vaudroz H\u00e9l\u00e8ne", "sex": "F", "races": {"Tour du Chablais #4 Champ\u00e9ry": {"latitude": NaN, "longitude": NaN, "race": "Tour du Chablais #4 Champ\u00e9ry", "date": {"mer. 02.05.2012": {"year": 2012, "day": 2, "month": 5, "categories": {"F-F40": {"distance": 8, "rank": 63, "pace": 358000000000, "time": 2977.6}}, "weekday": "wednesday", "livingplace": "Troistorrents"}}, "location": "Les Mosses"}, "Tour du Chablais #1 Montreux": {"latitude": 46.2957462, "longitude": 6.9916269, "race": "Tour du Chablais #1 Montreux", "date": {"mer. 11.04.2012": {"year": 2012, "day": 11, "month": 4, "categories": {"F-F40": {"distance": 8, "rank": 66, "pace": 402000000000, "time": 3057.1}}, "weekday": "wednesday", "livingplace": "Troistorrents"}}, "location": "Ollon VD"}, "Tour du Chablais #6 Montreux": {"latitude": 46.3190253, "longitude": 6.970566, "race": "Tour du Chablais #6 Montreux", "date": {"mer. 16.05.2012": {"year": 2012, "day": 16, "month": 5, "categories": {"F-F40": {"distance": 9, "rank": 68, "pace": 353000000000, "time": 3274.3}}, "weekday": "wednesday", "livingplace": "Troistorrents"}}, "location": "Aigle"}, "La Montheysanne, Monthey": {"latitude": 46.2521873, "longitude": 6.9469598, "race": "La Montheysanne, Monthey", "date": {"dim. 24.08.2014": {"year": 2014, "day": 24, "month": 8, "categories": {"5-DA3": {"distance": 5, "rank": 13, "pace": 372000000000, "time": 1862.5}}, "weekday": "sunday", "livingplace": "Troistorrents"}}, "location": "Monthey"}, "Tour du Chablais #2 Bex": {"latitude": 46.3835529, "longitude": 6.854975199999999, "race": "Tour du Chablais #2 Bex", "date": {"mer. 18.04.2012": {"year": 2012, "day": 18, "month": 4, "categories": {"F-F40": {"distance": 8, "rank": 78, "pace": 387000000000, "time": 3097.7}}, "weekday": "wednesday", "livingplace": "Troistorrents"}}, "location": "Bouveret"}, "Tour du Chablais #3 Collombey-Muraz": {"latitude": 46.1782231, "longitude": 7.0223787, "race": "Tour du Chablais #3 Collombey-Muraz", "date": {"mer. 25.04.2012": {"year": 2012, "day": 25, "month": 4, "categories": {"F-F40": {"distance": 9, "rank": 66, "pace": 387000000000, "time": 3478.5}}, "weekday": "wednesday", "livingplace": "Troistorrents"}}, "location": "Evionnaz"}}, "birth": 1963}