{"name": "Vauthey Pascal", "sex": "M", "races": {"Tour du Chablais #1 Roche": {"latitude": 46.2957462, "longitude": 6.9916269, "race": "Tour du Chablais #1 Roche", "date": {"mer. 07.04.2010": {"year": 2010, "day": 7, "month": 4, "categories": {"M-M50": {"distance": 9, "rank": 71, "pace": 321000000000, "time": 2876.2}}, "weekday": "wednesday", "livingplace": "La Tour de Peilz"}}, "location": "Ollon VD"}, "Tour du Chablais #6 Mouthey": {"latitude": 46.3190253, "longitude": 6.970566, "race": "Tour du Chablais #6 Mouthey", "date": {"mer. 12.05.2010": {"year": 2010, "day": 12, "month": 5, "categories": {"M-M50": {"distance": 9, "rank": 55, "pace": 299000000000, "time": 2750.0}}, "weekday": "wednesday", "livingplace": "La Tour de Peilz"}}, "location": "Aigle"}, "Tour du Chablais #4 Yvorne": {"latitude": NaN, "longitude": NaN, "race": "Tour du Chablais #4 Yvorne", "date": {"mer. 28.04.2010": {"year": 2010, "day": 28, "month": 4, "categories": {"M-M50": {"distance": 8, "rank": 62, "pace": 349000000000, "time": 2891.0}}, "weekday": "wednesday", "livingplace": "La Tour de Peilz"}}, "location": "Les Mosses"}, "20km de Lausanne": {"latitude": 46.5196535, "longitude": 6.6322734, "race": "20km de Lausanne", "date": {"sam. 24.04.2010": {"year": 2010, "day": 24, "month": 4, "categories": {"10-H50": {"distance": 10, "rank": 117, "pace": 323000000000, "time": 3233.0}}, "weekday": "saturday", "livingplace": "La Tour de Peilz"}, "sam. 25.04.2009": {"year": 2009, "day": 25, "month": 4, "categories": {"10-H45": {"distance": 10, "rank": 274, "pace": 347000000000, "time": 3475.6}}, "weekday": "saturday", "livingplace": "La Tour de Peilz"}, "sam. 22.04.2006": {"year": 2006, "day": 22, "month": 4, "categories": {"10/H45": {"distance": 10, "rank": 160, "pace": 343000000000, "time": 3434.4}}, "weekday": "saturday", "livingplace": "La Tour de Peilz"}}, "location": "Lausanne"}, "Tour du Chablais #3 Bex": {"latitude": 46.1782231, "longitude": 7.0223787, "race": "Tour du Chablais #3 Bex", "date": {"mer. 21.04.2010": {"year": 2010, "day": 21, "month": 4, "categories": {"M-M50": {"distance": 10, "rank": 59, "pace": 311000000000, "time": 3118.5}}, "weekday": "wednesday", "livingplace": "La Tour de Peilz"}}, "location": "Evionnaz"}, "Tour du Chablais #5 Leysin": {"latitude": 46.3603257, "longitude": 6.931504599999999, "race": "Tour du Chablais #5 Leysin", "date": {"mer. 05.05.2010": {"year": 2010, "day": 5, "month": 5, "categories": {"M-M50": {"distance": 8, "rank": 55, "pace": 340000000000, "time": 2877.3}}, "weekday": "wednesday", "livingplace": "La Tour de Peilz"}}, "location": "Roche VD"}, "Tour du Chablais #2 St-Gingolph": {"latitude": 46.3835529, "longitude": 6.854975199999999, "race": "Tour du Chablais #2 St-Gingolph", "date": {"mer. 14.04.2010": {"year": 2010, "day": 14, "month": 4, "categories": {"M-M50": {"distance": 8, "rank": 67, "pace": 351000000000, "time": 2934.5}}, "weekday": "wednesday", "livingplace": "La Tour de Peilz"}}, "location": "Bouveret"}}, "birth": 1960}