{"name": "Vecellio Silvana", "sex": "F", "races": {"Lucerne Marathon, Luzern": {"latitude": 47.05016819999999, "longitude": 8.3093072, "race": "Lucerne Marathon, Luzern", "date": {"dim. 31.10.2010": {"year": 2010, "day": 31, "month": 10, "categories": {"H-F30": {"distance": 21, "rank": 189, "pace": 325000000000, "time": 6875.1}}, "weekday": "sunday", "livingplace": "Edlibach"}}, "location": "Luzern"}, "Langenthaler Stadtlauf": {"latitude": 47.2120786, "longitude": 7.790562299999999, "race": "Langenthaler Stadtlauf", "date": {"sam. 19.11.2011": {"year": 2011, "day": 19, "month": 11, "categories": {"W35": {"distance": 6, "rank": 8, "pace": 300000000000, "time": 1875.2}}, "weekday": "saturday", "livingplace": "Edlibach"}}, "location": "Langenthal"}, "Kerzerslauf": {"latitude": 46.97488999999999, "longitude": 7.1954365, "race": "Kerzerslauf", "date": {"sam. 17.03.2012": {"year": 2012, "day": 17, "month": 3, "categories": {"15-F35": {"distance": 15, "rank": 72, "pace": 308000000000, "time": 4630.8}}, "weekday": "saturday", "livingplace": "Edlibach"}, "sam. 16.03.2013": {"year": 2013, "day": 16, "month": 3, "categories": {"15-F40": {"distance": 15, "rank": 108, "pace": 319000000000, "time": 4787.6}}, "weekday": "saturday", "livingplace": "Edlibach"}}, "location": "Kerzers"}, "Sihltaler Fr\u00fchlingslauf, Gattikon": {"latitude": 47.2949282, "longitude": 8.5644799, "race": "Sihltaler Fr\u00fchlingslauf, Gattikon", "date": {"sam. 01.05.2010": {"year": 2010, "day": 1, "month": 5, "categories": {"F30": {"distance": 10, "rank": 29, "pace": 331000000000, "time": 3311.4}}, "weekday": "saturday", "livingplace": "Edlibach"}}, "location": "Gattikon"}, "Z\u00fcrich Marathon, Teamrun und Cityrun": {"latitude": 47.3768866, "longitude": 8.541694, "race": "Z\u00fcrich Marathon, Teamrun und Cityrun", "date": {"dim. 22.04.2012": {"year": 2012, "day": 22, "month": 4, "categories": {"42-W30": {"distance": 42, "rank": 70, "pace": 335000000000, "time": 14174.6}}, "weekday": "sunday", "livingplace": "Edlibach"}}, "location": "Z\u00fcrich"}}, "birth": 1973}