{"name": "Vesy Baptiste", "sex": "M", "races": {"Groupe E Tour Fribourg #1 Gurmels": {"latitude": 46.81832, "longitude": 6.977279999999999, "race": "Groupe E Tour Fribourg #1 Gurmels", "date": {"mer. 29.08.2012": {"year": 2012, "day": 29, "month": 8, "categories": {"HE": {"distance": 8, "rank": 3, "pace": 259000000000, "time": 2175.7}}, "weekday": "wednesday", "livingplace": "Ependes"}}, "location": "Cousset"}, "Morat-Fribourg": {"latitude": 46.92922110000001, "longitude": 7.120184, "race": "Morat-Fribourg", "date": {"sam. 01.10.2011": {"year": 2011, "day": 1, "month": 10, "categories": {"17-M20": {"distance": 17, "rank": 842, "pace": 295000000000, "time": 5081.6}}, "weekday": "saturday", "livingplace": "Ependes"}, "sam. 06.10.2012": {"year": 2012, "day": 6, "month": 10, "categories": {"17-M20": {"distance": 17, "rank": 236, "pace": 258000000000, "time": 4502.6}}, "weekday": "saturday", "livingplace": "Ependes"}}, "location": "Murten"}, "Groupe E Tour Fribourg #5 Fribourg": {"latitude": 46.8128615, "longitude": 7.131657799999999, "race": "Groupe E Tour Fribourg #5 Fribourg", "date": {"mer. 26.09.2012": {"year": 2012, "day": 26, "month": 9, "categories": {"HE": {"distance": 11, "rank": 8, "pace": 251000000000, "time": 2685.7}}, "weekday": "wednesday", "livingplace": "Ependes"}}, "location": "Givisiez"}, "10km, Payerne": {"latitude": 46.8220266, "longitude": 6.9405663, "race": "10km, Payerne", "date": {"sam. 10.03.2012": {"year": 2012, "day": 10, "month": 3, "categories": {"M20": {"distance": 10, "rank": 20, "pace": 245000000000, "time": 2459.0}}, "weekday": "saturday", "livingplace": "Ependes"}}, "location": "Payerne"}, "20km de Lausanne": {"latitude": 46.5196535, "longitude": 6.6322734, "race": "20km de Lausanne", "date": {"sam. 28.04.2012": {"year": 2012, "day": 28, "month": 4, "categories": {"10-H20": {"distance": 10, "rank": 98, "pace": 266000000000, "time": 2663.0}}, "weekday": "saturday", "livingplace": "Ependes"}}, "location": "Lausanne"}, "Kerzerslauf": {"latitude": 46.97488999999999, "longitude": 7.1954365, "race": "Kerzerslauf", "date": {"sam. 20.03.2010": {"year": 2010, "day": 20, "month": 3, "categories": {"15-M20": {"distance": 15, "rank": 513, "pace": 377000000000, "time": 5665.4}}, "weekday": "saturday", "livingplace": "Ependes"}, "sam. 17.03.2012": {"year": 2012, "day": 17, "month": 3, "categories": {"15-M20": {"distance": 15, "rank": 232, "pace": 269000000000, "time": 4040.7}}, "weekday": "saturday", "livingplace": "Ependes"}, "sam. 16.03.2013": {"year": 2013, "day": 16, "month": 3, "categories": {"15-M20": {"distance": 15, "rank": 124, "pace": 245000000000, "time": 3675.1}}, "weekday": "saturday", "livingplace": "Ependes"}}, "location": "Kerzers"}}, "birth": 1989}