{"name": "Veuthey Daniel", "sex": "M", "races": {"Tour du Chablais #1 Roche": {"latitude": 46.2957462, "longitude": 6.9916269, "race": "Tour du Chablais #1 Roche", "date": {"mer. 07.04.2010": {"year": 2010, "day": 7, "month": 4, "categories": {"M-M50": {"distance": 9, "rank": 52, "pace": 299000000000, "time": 2684.8}}, "weekday": "wednesday", "livingplace": "Nax"}, "mer. 03.04.2013": {"year": 2013, "day": 3, "month": 4, "categories": {"M-M50": {"distance": 9, "rank": 72, "pace": 312000000000, "time": 2765.8}}, "weekday": "wednesday", "livingplace": "Nax"}}, "location": "Ollon VD"}, "Tour du Chablais #2 Rennaz": {"latitude": 46.3835529, "longitude": 6.854975199999999, "race": "Tour du Chablais #2 Rennaz", "date": {"mer. 04.05.2011": {"year": 2011, "day": 4, "month": 5, "categories": {"M-M50": {"distance": 9, "rank": 70, "pace": 302000000000, "time": 2825.0}}, "weekday": "wednesday", "livingplace": "Nax"}}, "location": "Bouveret"}, "Morat-Fribourg": {"latitude": 46.92922110000001, "longitude": 7.120184, "race": "Morat-Fribourg", "date": {"dim. 05.10.2003": {"year": 2003, "day": 5, "month": 10, "categories": {"M40": {"distance": 17, "rank": 469, "pace": 303000000000, "time": 5210.4}}, "weekday": "sunday", "livingplace": "Sierre"}, "dim. 07.10.2001": {"year": 2001, "day": 7, "month": 10, "categories": {"M40": {"distance": 17, "rank": 608, "pace": 326000000000, "time": 5614.2}}, "weekday": "sunday", "livingplace": "Sierre"}, "dim. 06.10.2002": {"year": 2002, "day": 6, "month": 10, "categories": {"M40": {"distance": 17, "rank": 513, "pace": 306000000000, "time": 5270.7}}, "weekday": "sunday", "livingplace": "Sierre"}}, "location": "Murten"}, "Tour du Chablais #3 Le Bouveret": {"latitude": 46.1782231, "longitude": 7.0223787, "race": "Tour du Chablais #3 Le Bouveret", "date": {"mer. 11.05.2011": {"year": 2011, "day": 11, "month": 5, "categories": {"M-M50": {"distance": 10, "rank": 73, "pace": 311000000000, "time": 3113.7}}, "weekday": "wednesday", "livingplace": "Nax"}}, "location": "Evionnaz"}, "Tour du Chablais #6 Monthey": {"latitude": 46.3190253, "longitude": 6.970566, "race": "Tour du Chablais #6 Monthey", "date": {"mer. 08.05.2013": {"year": 2013, "day": 8, "month": 5, "categories": {"M-M50": {"distance": 9, "rank": 76, "pace": 322000000000, "time": 3008.5}}, "weekday": "wednesday", "livingplace": "Nax"}}, "location": "Aigle"}, "Tour du Chablais #1 Lavey": {"latitude": 46.2957462, "longitude": 6.9916269, "race": "Tour du Chablais #1 Lavey", "date": {"mer. 27.04.2011": {"year": 2011, "day": 27, "month": 4, "categories": {"M-M50": {"distance": 9, "rank": 60, "pace": 303000000000, "time": 2731.6}}, "weekday": "wednesday", "livingplace": "Nax"}}, "location": "Ollon VD"}, "Tour du Chablais #5 Morgins": {"latitude": 46.3603257, "longitude": 6.931504599999999, "race": "Tour du Chablais #5 Morgins", "date": {"mer. 01.05.2013": {"year": 2013, "day": 1, "month": 5, "categories": {"M-M50": {"distance": 8, "rank": 53, "pace": 339000000000, "time": 2583.9}}, "weekday": "wednesday", "livingplace": "Nax"}}, "location": "Roche VD"}, "Tour du Chablais #2 St-Gingolph": {"latitude": 46.3835529, "longitude": 6.854975199999999, "race": "Tour du Chablais #2 St-Gingolph", "date": {"mer. 14.04.2010": {"year": 2010, "day": 14, "month": 4, "categories": {"M-M50": {"distance": 8, "rank": 47, "pace": 321000000000, "time": 2681.9}}, "weekday": "wednesday", "livingplace": "Nax"}}, "location": "Bouveret"}, "Tour du Chablais #5 Bex": {"latitude": 46.3603257, "longitude": 6.931504599999999, "race": "Tour du Chablais #5 Bex", "date": {"mer. 09.05.2012": {"year": 2012, "day": 9, "month": 5, "categories": {"M-M50": {"distance": 9, "rank": 59, "pace": 314000000000, "time": 2782.6}}, "weekday": "wednesday", "livingplace": "Nax"}}, "location": "Roche VD"}, "Tour du Chablais #4 Champ\u00e9ry": {"latitude": NaN, "longitude": NaN, "race": "Tour du Chablais #4 Champ\u00e9ry", "date": {"mer. 02.05.2012": {"year": 2012, "day": 2, "month": 5, "categories": {"M-M50": {"distance": 8, "rank": 66, "pace": 322000000000, "time": 2674.2}}, "weekday": "wednesday", "livingplace": "Nax"}}, "location": "Les Mosses"}, "Tour du Chablais #5 Les Mosses": {"latitude": 46.3603257, "longitude": 6.931504599999999, "race": "Tour du Chablais #5 Les Mosses", "date": {"mer. 25.05.2011": {"year": 2011, "day": 25, "month": 5, "categories": {"M-M50": {"distance": 8, "rank": 41, "pace": 319000000000, "time": 2554.8}}, "weekday": "wednesday", "livingplace": "Nax"}}, "location": "Roche VD"}, "Tour du Chablais #6 Aigle": {"latitude": 46.3190253, "longitude": 6.970566, "race": "Tour du Chablais #6 Aigle", "date": {"mer. 01.06.2011": {"year": 2011, "day": 1, "month": 6, "categories": {"M-M50": {"distance": 10, "rank": 54, "pace": 294000000000, "time": 2999.3}}, "weekday": "wednesday", "livingplace": "Nax"}}, "location": "Aigle"}, "Tour du Chablais #4 St  Maurice": {"latitude": NaN, "longitude": NaN, "race": "Tour du Chablais #4 St  Maurice", "date": {"mer. 24.04.2013": {"year": 2013, "day": 24, "month": 4, "categories": {"M-M50": {"distance": 10, "rank": 59, "pace": 322000000000, "time": 3221.9}}, "weekday": "wednesday", "livingplace": "Nax"}}, "location": "Les Mosses"}, "Tour du Chablais #3 Collombey-Muraz": {"latitude": 46.1782231, "longitude": 7.0223787, "race": "Tour du Chablais #3 Collombey-Muraz", "date": {"mer. 25.04.2012": {"year": 2012, "day": 25, "month": 4, "categories": {"M-M50": {"distance": 9, "rank": 65, "pace": 313000000000, "time": 2818.8}}, "weekday": "wednesday", "livingplace": "Nax"}}, "location": "Evionnaz"}, "Tour du Chablais #1 Martigny": {"latitude": 46.2957462, "longitude": 6.9916269, "race": "Tour du Chablais #1 Martigny", "date": {"mer. 23.04.2014": {"year": 2014, "day": 23, "month": 4, "categories": {"M-M50": {"distance": 9, "rank": 96, "pace": 330000000000, "time": 2810.7}}, "weekday": "wednesday", "livingplace": "Nax"}}, "location": "Ollon VD"}, "Tour du Chablais #4 Morgins": {"latitude": NaN, "longitude": NaN, "race": "Tour du Chablais #4 Morgins", "date": {"mer. 18.05.2011": {"year": 2011, "day": 18, "month": 5, "categories": {"M-M50": {"distance": 8, "rank": 49, "pace": 314000000000, "time": 2623.2}}, "weekday": "wednesday", "livingplace": "Nax"}}, "location": "Les Mosses"}, "Tour du Chablais #6 Mouthey": {"latitude": 46.3190253, "longitude": 6.970566, "race": "Tour du Chablais #6 Mouthey", "date": {"mer. 12.05.2010": {"year": 2010, "day": 12, "month": 5, "categories": {"M-M50": {"distance": 9, "rank": 53, "pace": 296000000000, "time": 2721.9}}, "weekday": "wednesday", "livingplace": "Nax"}}, "location": "Aigle"}, "Tour du Chablais #1 Montreux": {"latitude": 46.2957462, "longitude": 6.9916269, "race": "Tour du Chablais #1 Montreux", "date": {"mer. 11.04.2012": {"year": 2012, "day": 11, "month": 4, "categories": {"M-M50": {"distance": 8, "rank": 71, "pace": 329000000000, "time": 2504.8}}, "weekday": "wednesday", "livingplace": "Nax"}}, "location": "Ollon VD"}, "Tour du Chablais #2 Yvorne": {"latitude": 46.3835529, "longitude": 6.854975199999999, "race": "Tour du Chablais #2 Yvorne", "date": {"mer. 10.04.2013": {"year": 2013, "day": 10, "month": 4, "categories": {"M-M50": {"distance": 8, "rank": 53, "pace": 341000000000, "time": 2730.6}}, "weekday": "wednesday", "livingplace": "Nax"}}, "location": "Bouveret"}, "Tour du Chablais #4 Yvorne": {"latitude": NaN, "longitude": NaN, "race": "Tour du Chablais #4 Yvorne", "date": {"mer. 28.04.2010": {"year": 2010, "day": 28, "month": 4, "categories": {"M-M50": {"distance": 8, "rank": 45, "pace": 325000000000, "time": 2691.4}}, "weekday": "wednesday", "livingplace": "Nax"}}, "location": "Les Mosses"}, "Tour du Chablais #2 Bex": {"latitude": 46.3835529, "longitude": 6.854975199999999, "race": "Tour du Chablais #2 Bex", "date": {"mer. 18.04.2012": {"year": 2012, "day": 18, "month": 4, "categories": {"M-M50": {"distance": 8, "rank": 66, "pace": 321000000000, "time": 2573.1}}, "weekday": "wednesday", "livingplace": "Nax"}}, "location": "Bouveret"}, "Tour du Chablais #6 Montreux": {"latitude": 46.3190253, "longitude": 6.970566, "race": "Tour du Chablais #6 Montreux", "date": {"mer. 16.05.2012": {"year": 2012, "day": 16, "month": 5, "categories": {"M-M50": {"distance": 9, "rank": 78, "pace": 315000000000, "time": 2916.7}}, "weekday": "wednesday", "livingplace": "Nax"}}, "location": "Aigle"}}, "birth": 1959}