{"name": "Vige Fabrizio", "sex": "M", "races": {"Grand Prix Craft, Neuch\u00e2tel": {"latitude": 46.9899874, "longitude": 6.9292732, "race": "Grand Prix Craft, Neuch\u00e2tel", "date": {"dim. 17.12.2006": {"year": 2006, "day": 17, "month": 12, "categories": {"HS1": {"distance": 7, "rank": 31, "pace": 233000000000, "time": 1631.5}}, "weekday": "sunday", "livingplace": "Marin Epagnier"}}, "location": "Neuch\u00e2tel"}, "BCN Tour M\u00f4tier": {"latitude": 46.9262933, "longitude": 6.6324944, "race": "BCN Tour M\u00f4tier", "date": {"mer. 19.05.2010": {"year": 2010, "day": 19, "month": 5, "categories": {"HS2": {"distance": 10, "rank": 53, "pace": 258000000000, "time": 2560.5}}, "weekday": "wednesday", "livingplace": "Marin Epagnier"}}, "location": "Couvet"}, "BCN Tour Le Landeron": {"latitude": 46.9668714, "longitude": 6.8589727, "race": "BCN Tour Le Landeron", "date": {"mer. 22.04.2009": {"year": 2009, "day": 22, "month": 4, "categories": {"HS2": {"distance": 11, "rank": 56, "pace": 276000000000, "time": 3065.7}}, "weekday": "wednesday", "livingplace": "Marin Epagnier"}}, "location": "Colombier NE"}, "Sierre-Zinal, Sierre": {"latitude": 46.29413110000001, "longitude": 7.533536199999999, "race": "Sierre-Zinal, Sierre", "date": {"dim. 12.08.2012": {"year": 2012, "day": 12, "month": 8, "categories": {"V\u00e9t_I": {"distance": 31, "rank": 59, "pace": 444000000000, "time": 13767.5}}, "weekday": "sunday", "livingplace": "Settimo Vittone "}}, "location": "Sierre"}, "20km de Lausanne": {"latitude": 46.5196535, "longitude": 6.6322734, "race": "20km de Lausanne", "date": {"sam. 28.04.2007": {"year": 2007, "day": 28, "month": 4, "categories": {"20H30": {"distance": 20, "rank": 385, "pace": 305000000000, "time": 6117.5}}, "weekday": "saturday", "livingplace": "Marin Epagnier"}}, "location": "Lausanne"}, "BCN Tour Ponts-de-Martel": {"latitude": 47.0624261, "longitude": 6.9175754, "race": "BCN Tour Ponts-de-Martel", "date": {"mer. 28.04.2010": {"year": 2010, "day": 28, "month": 4, "categories": {"HS2": {"distance": 11, "rank": 63, "pace": 276000000000, "time": 3093.5}}, "weekday": "wednesday", "livingplace": "Marin Epagnier"}}, "location": "Ch\u00e9zard-St-Martin"}, "BCN Tour Auvernier": {"latitude": 46.9668714, "longitude": 6.8589727, "race": "BCN Tour Auvernier", "date": {"mer. 20.04.2011": {"year": 2011, "day": 20, "month": 4, "categories": {"HS2": {"distance": 11, "rank": 59, "pace": 276000000000, "time": 2989.2}}, "weekday": "wednesday", "livingplace": "Marin Epagnier"}}, "location": "Colombier NE"}, "Kerzerslauf": {"latitude": 46.97488999999999, "longitude": 7.1954365, "race": "Kerzerslauf", "date": {"sam. 17.03.2007": {"year": 2007, "day": 17, "month": 3, "categories": {"M35": {"distance": 15, "rank": 212, "pace": 274000000000, "time": 4122.1}}, "weekday": "saturday", "livingplace": "Marin Epagnier"}}, "location": "Kerzers"}, "BCN Tour La Br\u00e9vine": {"latitude": 46.999113, "longitude": 6.733554799999999, "race": "BCN Tour La Br\u00e9vine", "date": {"mer. 04.05.2011": {"year": 2011, "day": 4, "month": 5, "categories": {"HS2": {"distance": 10, "rank": 64, "pace": 278000000000, "time": 2787.4}}, "weekday": "wednesday", "livingplace": "Marin Epagnier"}}, "location": "Les Ponts-de-Martel"}, "BCN Tour Neuch\u00e2tel": {"latitude": 46.9899874, "longitude": 6.9292732, "race": "BCN Tour Neuch\u00e2tel", "date": {"mer. 26.05.2010": {"year": 2010, "day": 26, "month": 5, "categories": {"HS2": {"distance": 10, "rank": 60, "pace": 289000000000, "time": 2805.8}}, "weekday": "wednesday", "livingplace": "Marin Epagnier"}, "mer. 25.05.2011": {"year": 2011, "day": 25, "month": 5, "categories": {"HS2": {"distance": 11, "rank": 62, "pace": 280000000000, "time": 3202.5}}, "weekday": "wednesday", "livingplace": "Marin Epagnier"}}, "location": "Neuch\u00e2tel"}, "BCN Tour Les Ponts de Martel": {"latitude": 46.9262933, "longitude": 6.6324944, "race": "BCN Tour Les Ponts de Martel", "date": {"mer. 18.05.2011": {"year": 2011, "day": 18, "month": 5, "categories": {"HS2": {"distance": 13, "rank": 65, "pace": 282000000000, "time": 3616.6}}, "weekday": "wednesday", "livingplace": "Marin Epagnier"}}, "location": "Couvet"}, "BCN Tour Boudry": {"latitude": 46.9668714, "longitude": 6.8589727, "race": "BCN Tour Boudry", "date": {"mer. 26.04.2006": {"year": 2006, "day": 26, "month": 4, "categories": {"HS1": {"distance": 10, "rank": 60, "pace": 269000000000, "time": 2753.6}}, "weekday": "wednesday", "livingplace": "Marin Epagnier"}}, "location": "Colombier NE"}, "BCN Tour La Chaux-de-fonds": {"latitude": 47.1034892, "longitude": 6.832783800000001, "race": "BCN Tour La Chaux-de-fonds", "date": {"mer. 12.05.2010": {"year": 2010, "day": 12, "month": 5, "categories": {"HS2": {"distance": 11, "rank": 72, "pace": 341000000000, "time": 3653.0}}, "weekday": "wednesday", "livingplace": "Marin Epagnier"}}, "location": "La Chaux-de-Fonds"}, "BCN Tour Colombier": {"latitude": 46.9668714, "longitude": 6.8589727, "race": "BCN Tour Colombier", "date": {"mer. 23.04.2008": {"year": 2008, "day": 23, "month": 4, "categories": {"HS1": {"distance": 10, "rank": 57, "pace": 275000000000, "time": 2811.6}}, "weekday": "wednesday", "livingplace": "Marin Epagnier"}, "mer. 21.04.2010": {"year": 2010, "day": 21, "month": 4, "categories": {"HS2": {"distance": 10, "rank": 60, "pace": 292000000000, "time": 2921.4}}, "weekday": "wednesday", "livingplace": "Marin Epagnier"}}, "location": "Colombier NE"}}, "birth": 1969}