{"name": "Vionnet Philippe", "sex": "M", "races": {"Tour du Chablais #2 Rennaz": {"latitude": 46.3835529, "longitude": 6.854975199999999, "race": "Tour du Chablais #2 Rennaz", "date": {"mer. 04.05.2011": {"year": 2011, "day": 4, "month": 5, "categories": {"M-M40": {"distance": 9, "rank": 59, "pace": 257000000000, "time": 2410.8}}, "weekday": "wednesday", "livingplace": "Monthey"}}, "location": "Bouveret"}, "Morat-Fribourg": {"latitude": 46.92922110000001, "longitude": 7.120184, "race": "Morat-Fribourg", "date": {"sam. 02.10.2010": {"year": 2010, "day": 2, "month": 10, "categories": {"17-M45": {"distance": 17, "rank": 106, "pace": 276000000000, "time": 4749.9}}, "weekday": "saturday", "livingplace": "Monthey"}}, "location": "Murten"}, "Tour du Chablais #4 Morgins": {"latitude": NaN, "longitude": NaN, "race": "Tour du Chablais #4 Morgins", "date": {"mer. 18.05.2011": {"year": 2011, "day": 18, "month": 5, "categories": {"M-M40": {"distance": 8, "rank": 57, "pace": 279000000000, "time": 2333.9}}, "weekday": "wednesday", "livingplace": "Monthey"}}, "location": "Les Mosses"}, "Tour du Chablais #3 Le Bouveret": {"latitude": 46.1782231, "longitude": 7.0223787, "race": "Tour du Chablais #3 Le Bouveret", "date": {"mer. 11.05.2011": {"year": 2011, "day": 11, "month": 5, "categories": {"M-M40": {"distance": 10, "rank": 50, "pace": 258000000000, "time": 2580.2}}, "weekday": "wednesday", "livingplace": "Monthey"}}, "location": "Evionnaz"}, "Tour du Chablais #1 Lavey": {"latitude": 46.2957462, "longitude": 6.9916269, "race": "Tour du Chablais #1 Lavey", "date": {"mer. 27.04.2011": {"year": 2011, "day": 27, "month": 4, "categories": {"M-M40": {"distance": 9, "rank": 41, "pace": 255000000000, "time": 2297.3}}, "weekday": "wednesday", "livingplace": "Monthey"}}, "location": "Ollon VD"}, "Tour du Chablais #5 Bex": {"latitude": 46.3603257, "longitude": 6.931504599999999, "race": "Tour du Chablais #5 Bex", "date": {"mer. 09.05.2012": {"year": 2012, "day": 9, "month": 5, "categories": {"M-M50": {"distance": 9, "rank": 14, "pace": 255000000000, "time": 2262.0}}, "weekday": "wednesday", "livingplace": "Monthey"}}, "location": "Roche VD"}, "Tour du Chablais #4 Champ\u00e9ry": {"latitude": NaN, "longitude": NaN, "race": "Tour du Chablais #4 Champ\u00e9ry", "date": {"mer. 02.05.2012": {"year": 2012, "day": 2, "month": 5, "categories": {"M-M50": {"distance": 8, "rank": 16, "pace": 261000000000, "time": 2168.4}}, "weekday": "wednesday", "livingplace": "Monthey"}}, "location": "Les Mosses"}, "Tour du Chablais #1 Montreux": {"latitude": 46.2957462, "longitude": 6.9916269, "race": "Tour du Chablais #1 Montreux", "date": {"mer. 11.04.2012": {"year": 2012, "day": 11, "month": 4, "categories": {"M-M50": {"distance": 8, "rank": 27, "pace": 277000000000, "time": 2111.2}}, "weekday": "wednesday", "livingplace": "Monthey"}}, "location": "Ollon VD"}, "Tour du Chablais #5 Les Mosses": {"latitude": 46.3603257, "longitude": 6.931504599999999, "race": "Tour du Chablais #5 Les Mosses", "date": {"mer. 25.05.2011": {"year": 2011, "day": 25, "month": 5, "categories": {"M-M40": {"distance": 8, "rank": 32, "pace": 274000000000, "time": 2194.8}}, "weekday": "wednesday", "livingplace": "Monthey"}}, "location": "Roche VD"}, "Tour du Chablais #6 Aigle": {"latitude": 46.3190253, "longitude": 6.970566, "race": "Tour du Chablais #6 Aigle", "date": {"mer. 01.06.2011": {"year": 2011, "day": 1, "month": 6, "categories": {"M-M40": {"distance": 10, "rank": 38, "pace": 250000000000, "time": 2556.3}}, "weekday": "wednesday", "livingplace": "Monthey"}}, "location": "Aigle"}, "Tour du Chablais #2 Bex": {"latitude": 46.3835529, "longitude": 6.854975199999999, "race": "Tour du Chablais #2 Bex", "date": {"mer. 18.04.2012": {"year": 2012, "day": 18, "month": 4, "categories": {"M-M50": {"distance": 8, "rank": 20, "pace": 264000000000, "time": 2118.0}}, "weekday": "wednesday", "livingplace": "Monthey"}}, "location": "Bouveret"}, "Tour du Chablais #3 Collombey-Muraz": {"latitude": 46.1782231, "longitude": 7.0223787, "race": "Tour du Chablais #3 Collombey-Muraz", "date": {"mer. 25.04.2012": {"year": 2012, "day": 25, "month": 4, "categories": {"M-M50": {"distance": 9, "rank": 16, "pace": 257000000000, "time": 2311.2}}, "weekday": "wednesday", "livingplace": "Monthey"}}, "location": "Evionnaz"}}, "birth": 1962}