{"name": "Vionnet Kenza", "sex": "F", "races": {"Tour du Pays de Vaud #2 - Genolier": {"latitude": 46.5955273, "longitude": 6.7702883, "race": "Tour du Pays de Vaud #2 - Genolier", "date": {"mer. 17.08.2011": {"year": 2011, "day": 17, "month": 8, "categories": {"D-Jun": {"distance": 9, "rank": 3, "pace": 304000000000, "time": 2590.2}}, "weekday": "wednesday", "livingplace": "Grandvaux"}}, "location": "M\u00e9zi\u00e8res VD"}, "Tour du pays de Vaud #5 - Penthaz": {"latitude": 46.5993131, "longitude": 6.539251200000001, "race": "Tour du pays de Vaud #5 - Penthaz", "date": {"mer. 07.09.2011": {"year": 2011, "day": 7, "month": 9, "categories": {"D-Jun": {"distance": 8, "rank": 4, "pace": 316000000000, "time": 2643.3}}, "weekday": "wednesday", "livingplace": "Grandvaux"}}, "location": "Penthaz"}, "Lausanne Marathon": {"latitude": 46.5196535, "longitude": 6.6322734, "race": "Lausanne Marathon", "date": {"dim. 26.10.2014": {"year": 2014, "day": 26, "month": 10, "categories": {"10-JunF": {"distance": 10, "rank": 7, "pace": 254000000000, "time": 2546.8}}, "weekday": "sunday", "livingplace": "Grandvaux"}}, "location": "Lausanne"}, "Morat-Fribourg": {"latitude": 46.92922110000001, "longitude": 7.120184, "race": "Morat-Fribourg", "date": {"sam. 03.10.2009": {"year": 2009, "day": 3, "month": 10, "categories": {"K-CFB": {"distance": 3, "rank": 6, "pace": 230000000000, "time": 805.6}}, "weekday": "saturday", "livingplace": "Pully"}, "sam. 02.10.2010": {"year": 2010, "day": 2, "month": 10, "categories": {"CadFB": {"distance": 3, "rank": 7, "pace": 228000000000, "time": 798.5}}, "weekday": "saturday", "livingplace": "Grandvaux"}}, "location": "Murten"}, "Tour du pays de Vaud #1 - Mezi\u00e8res": {"latitude": 46.7784736, "longitude": 6.641183, "race": "Tour du pays de Vaud #1 - Mezi\u00e8res", "date": {"mer. 10.08.2011": {"year": 2011, "day": 10, "month": 8, "categories": {"D-Jun": {"distance": 9, "rank": 6, "pace": 283000000000, "time": 2406.1}}, "weekday": "wednesday", "livingplace": "Grandvaux"}}, "location": "Yverdon-les-Bains"}, "10km, Payerne": {"latitude": 46.8220266, "longitude": 6.9405663, "race": "10km, Payerne", "date": {"sam. 10.03.2012": {"year": 2012, "day": 10, "month": 3, "categories": {"W U20": {"distance": 10, "rank": 6, "pace": 274000000000, "time": 2741.6}}, "weekday": "saturday", "livingplace": "Grandvaux"}, "sam. 16.04.2011": {"year": 2011, "day": 16, "month": 4, "categories": {"W U20": {"distance": 10, "rank": 3, "pace": 277000000000, "time": 2773.5}}, "weekday": "saturday", "livingplace": "Grandvaux"}}, "location": "Payerne"}, "Tour du pays de Vaud #6 - St  Prex": {"latitude": 46.4829113, "longitude": 6.458343500000001, "race": "Tour du pays de Vaud #6 - St  Prex", "date": {"mer. 14.09.2011": {"year": 2011, "day": 14, "month": 9, "categories": {"D-Jun": {"distance": 9, "rank": 6, "pace": 283000000000, "time": 2435.6}}, "weekday": "wednesday", "livingplace": "Grandvaux"}}, "location": "St-Prex"}, "20km de Lausanne": {"latitude": 46.5196535, "longitude": 6.6322734, "race": "20km de Lausanne", "date": {"sam. 25.04.2009": {"year": 2009, "day": 25, "month": 4, "categories": {"CadF": {"distance": 4, "rank": 15, "pace": 263000000000, "time": 1055.0}}, "weekday": "saturday", "livingplace": "Pully"}, "sam. 25.04.2015": {"year": 2015, "day": 25, "month": 4, "categories": {"10-F20": {"distance": 10, "rank": 12, "pace": 260000000000, "time": 2603.1}}, "weekday": "saturday", "livingplace": "Lausanne"}}, "location": "Lausanne"}, "Kerzerslauf": {"latitude": 46.97488999999999, "longitude": 7.1954365, "race": "Kerzerslauf", "date": {"sam. 19.03.2011": {"year": 2011, "day": 19, "month": 3, "categories": {"5-F19": {"distance": 5, "rank": 15, "pace": 268000000000, "time": 1344.5}}, "weekday": "saturday", "livingplace": "Grandvaux"}}, "location": "Kerzers"}}, "birth": 1995}