{"name": "Vogel Regula", "sex": "F", "races": {"Tour du Chablais #5 Bex": {"latitude": 46.3603257, "longitude": 6.931504599999999, "race": "Tour du Chablais #5 Bex", "date": {"mer. 09.05.2012": {"year": 2012, "day": 9, "month": 5, "categories": {"F-F40": {"distance": 9, "rank": 12, "pace": 276000000000, "time": 2452.3}}, "weekday": "wednesday", "livingplace": "Miex"}}, "location": "Roche VD"}, "Tour du Chablais #4 Champ\u00e9ry": {"latitude": NaN, "longitude": NaN, "race": "Tour du Chablais #4 Champ\u00e9ry", "date": {"mer. 02.05.2012": {"year": 2012, "day": 2, "month": 5, "categories": {"F-F40": {"distance": 8, "rank": 15, "pace": 296000000000, "time": 2457.4}}, "weekday": "wednesday", "livingplace": "Miex"}}, "location": "Les Mosses"}, "Tour du Chablais #1 Montreux": {"latitude": 46.2957462, "longitude": 6.9916269, "race": "Tour du Chablais #1 Montreux", "date": {"mer. 11.04.2012": {"year": 2012, "day": 11, "month": 4, "categories": {"F-F40": {"distance": 8, "rank": 17, "pace": 314000000000, "time": 2389.1}}, "weekday": "wednesday", "livingplace": "Vouvry"}}, "location": "Ollon VD"}, "20km de Lausanne": {"latitude": 46.5196535, "longitude": 6.6322734, "race": "20km de Lausanne", "date": {"sam. 28.04.2012": {"year": 2012, "day": 28, "month": 4, "categories": {"10-F40": {"distance": 10, "rank": 61, "pace": 326000000000, "time": 3261.3}}, "weekday": "saturday", "livingplace": "Vouvry"}}, "location": "Lausanne"}, "Tour du Chablais #2 Bex": {"latitude": 46.3835529, "longitude": 6.854975199999999, "race": "Tour du Chablais #2 Bex", "date": {"mer. 18.04.2012": {"year": 2012, "day": 18, "month": 4, "categories": {"F-F40": {"distance": 8, "rank": 16, "pace": 297000000000, "time": 2379.4}}, "weekday": "wednesday", "livingplace": "Vouvry"}}, "location": "Bouveret"}, "Tour du Chablais #3 Collombey-Muraz": {"latitude": 46.1782231, "longitude": 7.0223787, "race": "Tour du Chablais #3 Collombey-Muraz", "date": {"mer. 25.04.2012": {"year": 2012, "day": 25, "month": 4, "categories": {"F-F40": {"distance": 9, "rank": 13, "pace": 288000000000, "time": 2587.2}}, "weekday": "wednesday", "livingplace": "Miex"}}, "location": "Evionnaz"}}, "birth": 1970}