{"name": "V\u00f6gtli Christian", "sex": "M", "races": {"Lucerne Marathon, Luzern": {"latitude": 47.05016819999999, "longitude": 8.3093072, "race": "Lucerne Marathon, Luzern", "date": {"dim. 28.10.2012": {"year": 2012, "day": 28, "month": 10, "categories": {"H-M20": {"distance": 21, "rank": 129, "pace": 267000000000, "time": 5652.5}}, "weekday": "sunday", "livingplace": "Lupsingen"}}, "location": "Luzern"}, "SwissCityMarathon - Lucerne, Luzern": {"latitude": 47.05016819999999, "longitude": 8.3093072, "race": "SwissCityMarathon - Lucerne, Luzern", "date": {"dim. 26.10.2014": {"year": 2014, "day": 26, "month": 10, "categories": {"H-M20": {"distance": 21, "rank": 72, "pace": 253000000000, "time": 5345.6}}, "weekday": "sunday", "livingplace": "Lupsingen"}}, "location": "Luzern"}, "Hallwilerseelauf, Beinwil am See": {"latitude": NaN, "longitude": NaN, "race": "Hallwilerseelauf, Beinwil am See", "date": {"sam. 10.10.2015": {"year": 2015, "day": 10, "month": 10, "categories": {"21-M20": {"distance": 21, "rank": 25, "pace": 243000000000, "time": 5145.5}}, "weekday": "saturday", "livingplace": "Luzern"}}, "location": "Beinwil am See"}, "Basler Stadtlauf": {"latitude": 47.5595986, "longitude": 7.5885761, "race": "Basler Stadtlauf", "date": {"sam. 26.11.2011": {"year": 2011, "day": 26, "month": 11, "categories": {"M": {"distance": 6, "rank": 115, "pace": 238000000000, "time": 1313.9}}, "weekday": "saturday", "livingplace": "Lupsingen"}}, "location": "Basel"}, "Liestaler Stadtlauf": {"latitude": 47.4866143, "longitude": 7.7334272, "race": "Liestaler Stadtlauf", "date": {"mer. 31.08.2011": {"year": 2011, "day": 31, "month": 8, "categories": {"M20": {"distance": 12, "rank": 13, "pace": 264000000000, "time": 3175.2}}, "weekday": "wednesday", "livingplace": "Lupsingen"}}, "location": "Liestal"}, "Dreil\u00e4nder-Lauf, Basel": {"latitude": 47.5595986, "longitude": 7.5885761, "race": "Dreil\u00e4nder-Lauf, Basel", "date": {"dim. 20.05.2012": {"year": 2012, "day": 20, "month": 5, "categories": {"21M20": {"distance": 21, "rank": 8, "pace": 266000000000, "time": 5626.6}}, "weekday": "sunday", "livingplace": "Lupsingen"}}, "location": "Basel"}, "Gempenlauf, Dornach": {"latitude": 47.4790491, "longitude": 7.6170412, "race": "Gempenlauf, Dornach", "date": {"mer. 06.06.2012": {"year": 2012, "day": 6, "month": 6, "categories": {"M20": {"distance": 8, "rank": 45, "pace": 296000000000, "time": 2311.9}}, "weekday": "wednesday", "livingplace": "Lupsingen"}}, "location": "Dornach"}, "Kerzerslauf": {"latitude": 46.97488999999999, "longitude": 7.1954365, "race": "Kerzerslauf", "date": {"sam. 16.03.2013": {"year": 2013, "day": 16, "month": 3, "categories": {"15-M20": {"distance": 15, "rank": 172, "pace": 255000000000, "time": 3836.1}}, "weekday": "saturday", "livingplace": "Lupsingen"}}, "location": "Kerzers"}}, "birth": 1987}