{"name": "Voirol Thomas", "sex": "M", "races": {"Kerzerslauf": {"latitude": 46.97488999999999, "longitude": 7.1954365, "race": "Kerzerslauf", "date": {"sam. 21.03.2015": {"year": 2015, "day": 21, "month": 3, "categories": {"2-U12M": {"distance": 1, "rank": 42, "pace": 256000000000, "time": 359.2}}, "weekday": "saturday", "livingplace": "Chezard St Martin"}, "sam. 15.03.2014": {"year": 2014, "day": 15, "month": 3, "categories": {"2-U12M": {"distance": 1, "rank": 77, "pace": 268000000000, "time": 376.5}}, "weekday": "saturday", "livingplace": "Chezard St Martin"}}, "location": "Kerzers"}, "BCN Tour Couvet": {"latitude": 47.0624261, "longitude": 6.9175754, "race": "BCN Tour Couvet", "date": {"mer. 02.05.2012": {"year": 2012, "day": 2, "month": 5, "categories": {"KG1": {"distance": 2, "rank": 54, "pace": 316000000000, "time": 569.3}}, "weekday": "wednesday", "livingplace": "Chezard St Martin"}}, "location": "Ch\u00e9zard-St-Martin"}, "BCN Tour #1 Corcelles": {"latitude": 46.9668714, "longitude": 6.8589727, "race": "BCN Tour #1 Corcelles", "date": {"mer. 24.04.2013": {"year": 2013, "day": 24, "month": 4, "categories": {"KG1": {"distance": 2, "rank": 27, "pace": 347000000000, "time": 521.0}}, "weekday": "wednesday", "livingplace": "Chezard St Martin"}}, "location": "Colombier NE"}, "BCN Tour #4 Fleurier": {"latitude": 47.1034892, "longitude": 6.832783800000001, "race": "BCN Tour #4 Fleurier", "date": {"mer. 15.05.2013": {"year": 2013, "day": 15, "month": 5, "categories": {"KG1": {"distance": 2, "rank": 29, "pace": 193000000000, "time": 290.0}}, "weekday": "wednesday", "livingplace": "Chezard St Martin"}}, "location": "La Chaux-de-Fonds"}, "BCN Tour #2 La Chaux-de-Fonds": {"latitude": 47.0624261, "longitude": 6.9175754, "race": "BCN Tour #2 La Chaux-de-Fonds", "date": {"mer. 01.05.2013": {"year": 2013, "day": 1, "month": 5, "categories": {"KG1": {"distance": 1, "rank": 65, "pace": 307000000000, "time": 399.3}}, "weekday": "wednesday", "livingplace": "Chezard St Martin"}}, "location": "Ch\u00e9zard-St-Martin"}, "BCN Tour La Chaux-de-Fonds": {"latitude": 47.1034892, "longitude": 6.832783800000001, "race": "BCN Tour La Chaux-de-Fonds", "date": {"mer. 23.05.2012": {"year": 2012, "day": 23, "month": 5, "categories": {"KG1": {"distance": 2, "rank": 43, "pace": 361000000000, "time": 794.8}}, "weekday": "wednesday", "livingplace": "Chezard St Martin"}, "mer. 11.05.2011": {"year": 2011, "day": 11, "month": 5, "categories": {"KG1": {"distance": 1, "rank": 80, "pace": 581000000000, "time": 564.4}}, "weekday": "wednesday", "livingplace": "Chezard St Martin"}}, "location": "La Chaux-de-Fonds"}, "BCN Tour #6 Neuch\u00e2tel": {"latitude": 46.9899874, "longitude": 6.9292732, "race": "BCN Tour #6 Neuch\u00e2tel", "date": {"mer. 29.05.2013": {"year": 2013, "day": 29, "month": 5, "categories": {"KG1": {"distance": 1, "rank": 29, "pace": 255000000000, "time": 332.3}}, "weekday": "wednesday", "livingplace": "Chezard St Martin"}}, "location": "Neuch\u00e2tel"}, "BCN Tour Les Ponts-de-Martel": {"latitude": 46.999113, "longitude": 6.733554799999999, "race": "BCN Tour Les Ponts-de-Martel", "date": {"mer. 09.05.2012": {"year": 2012, "day": 9, "month": 5, "categories": {"KG1": {"distance": 2, "rank": 43, "pace": 300000000000, "time": 571.7}}, "weekday": "wednesday", "livingplace": "Chezard St Martin"}}, "location": "Les Ponts-de-Martel"}, "BCN Tour Neuch\u00e2tel": {"latitude": 46.9899874, "longitude": 6.9292732, "race": "BCN Tour Neuch\u00e2tel", "date": {"mer. 30.05.2012": {"year": 2012, "day": 30, "month": 5, "categories": {"KG1": {"distance": 2, "rank": 37, "pace": 292000000000, "time": 512.1}}, "weekday": "wednesday", "livingplace": "Chezard St Martin"}, "mer. 25.05.2011": {"year": 2011, "day": 25, "month": 5, "categories": {"KG1": {"distance": 2, "rank": 124, "pace": 337000000000, "time": 674.7}}, "weekday": "wednesday", "livingplace": "Chezard St Martin"}}, "location": "Neuch\u00e2tel"}, "BCN Tour Les Ponts de Martel": {"latitude": 46.9262933, "longitude": 6.6324944, "race": "BCN Tour Les Ponts de Martel", "date": {"mer. 18.05.2011": {"year": 2011, "day": 18, "month": 5, "categories": {"KG1": {"distance": 2, "rank": 85, "pace": 319000000000, "time": 629.5}}, "weekday": "wednesday", "livingplace": "Chezard St Martin"}}, "location": "Couvet"}, "BCN Tour #5 Colombier": {"latitude": 46.9262933, "longitude": 6.6324944, "race": "BCN Tour #5 Colombier", "date": {"mer. 22.05.2013": {"year": 2013, "day": 22, "month": 5, "categories": {"KG1": {"distance": 1, "rank": 28, "pace": 272000000000, "time": 326.6}}, "weekday": "wednesday", "livingplace": "Chezard St Martin"}}, "location": "Couvet"}, "BCN Tour Colombier": {"latitude": 47.1034892, "longitude": 6.832783800000001, "race": "BCN Tour Colombier", "date": {"mer. 16.05.2012": {"year": 2012, "day": 16, "month": 5, "categories": {"KG1": {"distance": 2, "rank": 57, "pace": 363000000000, "time": 545.4}}, "weekday": "wednesday", "livingplace": "Chezard St Martin"}}, "location": "La Chaux-de-Fonds"}, "BCN Tour #3 Dombresson": {"latitude": 46.999113, "longitude": 6.733554799999999, "race": "BCN Tour #3 Dombresson", "date": {"mer. 08.05.2013": {"year": 2013, "day": 8, "month": 5, "categories": {"KG1": {"distance": 1, "rank": 49, "pace": 297000000000, "time": 386.8}}, "weekday": "wednesday", "livingplace": "Chezard St Martin"}}, "location": "Les Ponts-de-Martel"}}, "birth": 2004}