{"name": "Volery Nolan", "sex": "M", "races": {"Morat-Fribourg": {"latitude": 46.92922110000001, "longitude": 7.120184, "race": "Morat-Fribourg", "date": {"sam. 03.10.2009": {"year": 2009, "day": 3, "month": 10, "categories": {"K-EMB": {"distance": 2, "rank": 50, "pace": 239000000000, "time": 502.4}}, "weekday": "saturday", "livingplace": "Yvonand"}, "sam. 04.10.2008": {"year": 2008, "day": 4, "month": 10, "categories": {"K-EMC": {"distance": 1, "rank": 61, "pace": 255000000000, "time": 357.5}}, "weekday": "saturday", "livingplace": "Yvonand"}, "sam. 06.10.2012": {"year": 2012, "day": 6, "month": 10, "categories": {"EcolMA": {"distance": 3, "rank": 56, "pace": 262000000000, "time": 734.0}}, "weekday": "saturday", "livingplace": "Yvonand"}}, "location": "Murten"}, "Course de l'Avent, Yverdon": {"latitude": 46.8064773, "longitude": 7.161971899999999, "race": "Course de l'Avent, Yverdon", "date": {"dim. 28.11.2010": {"year": 2010, "day": 28, "month": 11, "categories": {"B-Garc1": {"distance": 3, "rank": 6, "pace": 269000000000, "time": 813.9}}, "weekday": "sunday", "livingplace": "Yvonand"}}, "location": "Fribourg"}, "BCN Tour Le Landeron": {"latitude": 46.9668714, "longitude": 6.8589727, "race": "BCN Tour Le Landeron", "date": {"mer. 22.04.2009": {"year": 2009, "day": 22, "month": 4, "categories": {"KG2": {"distance": 2, "rank": 19, "pace": 256000000000, "time": 513.8}}, "weekday": "wednesday", "livingplace": "Yvonand"}}, "location": "Colombier NE"}, "Les Traine-Savates, Cheseaux-sur-Lausanne": {"latitude": 46.585452, "longitude": 6.6047712, "race": "Les Traine-Savates, Cheseaux-sur-Lausanne", "date": {"sam. 10.04.2010": {"year": 2010, "day": 10, "month": 4, "categories": {"EcolB-M": {"distance": 3, "rank": 22, "pace": 264000000000, "time": 898.9}}, "weekday": "saturday", "livingplace": "Yvonand"}}, "location": "Cheseaux-sur-Lausanne"}, "BCN Tour Ponts-de-Martel": {"latitude": 47.0624261, "longitude": 6.9175754, "race": "BCN Tour Ponts-de-Martel", "date": {"mer. 28.04.2010": {"year": 2010, "day": 28, "month": 4, "categories": {"KG2": {"distance": 2, "rank": 69, "pace": 241000000000, "time": 532.1}}, "weekday": "wednesday", "livingplace": "Yvonand"}}, "location": "Ch\u00e9zard-St-Martin"}, "Bieler Lauftage, Biel Bienne": {"latitude": 47.1367785, "longitude": 7.2467909, "race": "Bieler Lauftage, Biel Bienne", "date": {"ven. 12.06.2009": {"year": 2009, "day": 12, "month": 6, "categories": {"K/M3": {"distance": 1, "rank": 14, "pace": 251000000000, "time": 251.8}}, "weekday": "friday", "livingplace": "Yvonand"}}, "location": "Biel/Bienne"}, "BCN Tour Le Locle": {"latitude": 46.999113, "longitude": 6.733554799999999, "race": "BCN Tour Le Locle", "date": {"mer. 05.05.2010": {"year": 2010, "day": 5, "month": 5, "categories": {"KG2": {"distance": 2, "rank": 28, "pace": 279000000000, "time": 503.3}}, "weekday": "wednesday", "livingplace": "Yvonand"}}, "location": "Les Ponts-de-Martel"}, "BCN Tour Neuch\u00e2tel": {"latitude": 46.9899874, "longitude": 6.9292732, "race": "BCN Tour Neuch\u00e2tel", "date": {"mer. 26.05.2010": {"year": 2010, "day": 26, "month": 5, "categories": {"KG2": {"distance": 2, "rank": 19, "pace": 218000000000, "time": 327.5}}, "weekday": "wednesday", "livingplace": "Yvonand"}}, "location": "Neuch\u00e2tel"}, "Lausanne Marathon": {"latitude": 46.5196535, "longitude": 6.6322734, "race": "Lausanne Marathon", "date": {"dim. 31.10.2010": {"year": 2010, "day": 31, "month": 10, "categories": {"4-K3": {"distance": 4, "rank": 58, "pace": 293000000000, "time": 1232.0}}, "weekday": "sunday", "livingplace": "Yvonand"}}, "location": "Lausanne"}, "BCN Tour M\u00f4tier": {"latitude": 46.9262933, "longitude": 6.6324944, "race": "BCN Tour M\u00f4tier", "date": {"mer. 19.05.2010": {"year": 2010, "day": 19, "month": 5, "categories": {"KG2": {"distance": 2, "rank": 31, "pace": 251000000000, "time": 452.2}}, "weekday": "wednesday", "livingplace": "Yvonand"}}, "location": "Couvet"}, "BCN Tour La Chaux-de-fonds": {"latitude": 47.1034892, "longitude": 6.832783800000001, "race": "BCN Tour La Chaux-de-fonds", "date": {"mer. 12.05.2010": {"year": 2010, "day": 12, "month": 5, "categories": {"KG2": {"distance": 1, "rank": 20, "pace": 723000000000, "time": 701.4}}, "weekday": "wednesday", "livingplace": "Yvonand"}}, "location": "La Chaux-de-Fonds"}, "BCN Tour Colombier": {"latitude": 46.9668714, "longitude": 6.8589727, "race": "BCN Tour Colombier", "date": {"mer. 21.04.2010": {"year": 2010, "day": 21, "month": 4, "categories": {"KG2": {"distance": 2, "rank": 18, "pace": 287000000000, "time": 574.0}}, "weekday": "wednesday", "livingplace": "Yvonand"}}, "location": "Colombier NE"}}, "birth": 1999}