{"name": "Voltolini David", "sex": "M", "races": {"Tour du Chablais #1 Roche": {"latitude": 46.2957462, "longitude": 6.9916269, "race": "Tour du Chablais #1 Roche", "date": {"mer. 07.04.2010": {"year": 2010, "day": 7, "month": 4, "categories": {"M-M20": {"distance": 9, "rank": 154, "pace": 289000000000, "time": 2594.2}}, "weekday": "wednesday", "livingplace": "Vouvry"}, "mer. 03.04.2013": {"year": 2013, "day": 3, "month": 4, "categories": {"M-M40": {"distance": 9, "rank": 58, "pace": 265000000000, "time": 2348.9}}, "weekday": "wednesday", "livingplace": "Vouvry"}}, "location": "Ollon VD"}, "Tour du Chablais #2 Rennaz": {"latitude": 46.3835529, "longitude": 6.854975199999999, "race": "Tour du Chablais #2 Rennaz", "date": {"mer. 04.05.2011": {"year": 2011, "day": 4, "month": 5, "categories": {"M-M40": {"distance": 9, "rank": 104, "pace": 282000000000, "time": 2643.3}}, "weekday": "wednesday", "livingplace": "Vouvry"}}, "location": "Bouveret"}, "Tour du Chablais #4 St  Maurice": {"latitude": NaN, "longitude": NaN, "race": "Tour du Chablais #4 St  Maurice", "date": {"mer. 24.04.2013": {"year": 2013, "day": 24, "month": 4, "categories": {"M-M40": {"distance": 10, "rank": 55, "pace": 269000000000, "time": 2699.5}}, "weekday": "wednesday", "livingplace": "Vouvry"}}, "location": "Les Mosses"}, "Tour du Chablais #3 Bex": {"latitude": 46.1782231, "longitude": 7.0223787, "race": "Tour du Chablais #3 Bex", "date": {"mer. 21.04.2010": {"year": 2010, "day": 21, "month": 4, "categories": {"M-M20": {"distance": 10, "rank": 139, "pace": 295000000000, "time": 2952.9}}, "weekday": "wednesday", "livingplace": "Vouvry"}}, "location": "Evionnaz"}, "Morat-Fribourg": {"latitude": 46.92922110000001, "longitude": 7.120184, "race": "Morat-Fribourg", "date": {"sam. 02.10.2010": {"year": 2010, "day": 2, "month": 10, "categories": {"17-M20": {"distance": 17, "rank": 1345, "pace": 327000000000, "time": 5620.6}}, "weekday": "saturday", "livingplace": "Vouvry"}}, "location": "Murten"}, "Tour du Chablais #3 Le Bouveret": {"latitude": 46.1782231, "longitude": 7.0223787, "race": "Tour du Chablais #3 Le Bouveret", "date": {"mer. 11.05.2011": {"year": 2011, "day": 11, "month": 5, "categories": {"M-M40": {"distance": 10, "rank": 99, "pace": 283000000000, "time": 2836.9}}, "weekday": "wednesday", "livingplace": "Vouvry"}}, "location": "Evionnaz"}, "Tour du Chablais #4 Morgins": {"latitude": NaN, "longitude": NaN, "race": "Tour du Chablais #4 Morgins", "date": {"mer. 18.05.2011": {"year": 2011, "day": 18, "month": 5, "categories": {"M-M40": {"distance": 8, "rank": 107, "pace": 311000000000, "time": 2600.4}}, "weekday": "wednesday", "livingplace": "Vouvry"}}, "location": "Les Mosses"}, "Tour du Chablais #6 Monthey": {"latitude": 46.3190253, "longitude": 6.970566, "race": "Tour du Chablais #6 Monthey", "date": {"mer. 08.05.2013": {"year": 2013, "day": 8, "month": 5, "categories": {"M-M40": {"distance": 9, "rank": 57, "pace": 262000000000, "time": 2452.5}}, "weekday": "wednesday", "livingplace": "Vouvry"}}, "location": "Aigle"}, "20km de Lausanne": {"latitude": 46.5196535, "longitude": 6.6322734, "race": "20km de Lausanne", "date": {"sam. 30.04.2011": {"year": 2011, "day": 30, "month": 4, "categories": {"20-H40": {"distance": 20, "rank": 252, "pace": 301000000000, "time": 6035.6}}, "weekday": "saturday", "livingplace": "Vouvry"}, "sam. 24.04.2010": {"year": 2010, "day": 24, "month": 4, "categories": {"10-H30": {"distance": 10, "rank": 225, "pace": 292000000000, "time": 2927.2}}, "weekday": "saturday", "livingplace": "Vouvry"}}, "location": "Lausanne"}, "Tour du Chablais #1 Lavey": {"latitude": 46.2957462, "longitude": 6.9916269, "race": "Tour du Chablais #1 Lavey", "date": {"mer. 27.04.2011": {"year": 2011, "day": 27, "month": 4, "categories": {"M-M40": {"distance": 9, "rank": 96, "pace": 291000000000, "time": 2619.3}}, "weekday": "wednesday", "livingplace": "Vouvry"}}, "location": "Ollon VD"}, "Tour du Chablais #5 Morgins": {"latitude": 46.3603257, "longitude": 6.931504599999999, "race": "Tour du Chablais #5 Morgins", "date": {"mer. 01.05.2013": {"year": 2013, "day": 1, "month": 5, "categories": {"M-M40": {"distance": 8, "rank": 57, "pace": 287000000000, "time": 2183.5}}, "weekday": "wednesday", "livingplace": "Vouvry"}}, "location": "Roche VD"}, "Tour du Chablais #5 Leysin": {"latitude": 46.3603257, "longitude": 6.931504599999999, "race": "Tour du Chablais #5 Leysin", "date": {"mer. 05.05.2010": {"year": 2010, "day": 5, "month": 5, "categories": {"M-M20": {"distance": 8, "rank": 119, "pace": 326000000000, "time": 2761.3}}, "weekday": "wednesday", "livingplace": "Vouvry"}}, "location": "Roche VD"}, "Montreux - Les Rochers de Naye": {"latitude": 46.4312213, "longitude": 6.9106799, "race": "Montreux - Les Rochers de Naye", "date": {"dim. 11.07.2010": {"year": 2010, "day": 11, "month": 7, "categories": {"C-H-Spe2": {"distance": 10, "rank": 20, "pace": 533000000000, "time": 5064.7}}, "weekday": "sunday", "livingplace": "Vouvry"}}, "location": "Montreux"}, "Tour du Chablais #6 Mouthey": {"latitude": 46.3190253, "longitude": 6.970566, "race": "Tour du Chablais #6 Mouthey", "date": {"mer. 12.05.2010": {"year": 2010, "day": 12, "month": 5, "categories": {"M-M20": {"distance": 9, "rank": 149, "pace": 280000000000, "time": 2580.3}}, "weekday": "wednesday", "livingplace": "Vouvry"}}, "location": "Aigle"}, "Tour du Chablais #3 Bouveret": {"latitude": 46.1782231, "longitude": 7.0223787, "race": "Tour du Chablais #3 Bouveret", "date": {"mer. 17.04.2013": {"year": 2013, "day": 17, "month": 4, "categories": {"M-M40": {"distance": 10, "rank": 55, "pace": 270000000000, "time": 2702.4}}, "weekday": "wednesday", "livingplace": "Vouvry"}}, "location": "Evionnaz"}, "Lausanne Marathon": {"latitude": 46.5196535, "longitude": 6.6322734, "race": "Lausanne Marathon", "date": {"dim. 31.10.2010": {"year": 2010, "day": 31, "month": 10, "categories": {"21-H2": {"distance": 21, "rank": 491, "pace": 306000000000, "time": 6473.5}}, "weekday": "sunday", "livingplace": "Vouvry"}}, "location": "Lausanne"}, "Tour du Chablais #2 St-Gingolph": {"latitude": 46.3835529, "longitude": 6.854975199999999, "race": "Tour du Chablais #2 St-Gingolph", "date": {"mer. 14.04.2010": {"year": 2010, "day": 14, "month": 4, "categories": {"M-M20": {"distance": 8, "rank": 117, "pace": 310000000000, "time": 2590.1}}, "weekday": "wednesday", "livingplace": "Vouvry"}}, "location": "Bouveret"}, "Tour du Chablais #4 Yvorne": {"latitude": NaN, "longitude": NaN, "race": "Tour du Chablais #4 Yvorne", "date": {"mer. 28.04.2010": {"year": 2010, "day": 28, "month": 4, "categories": {"M-M20": {"distance": 8, "rank": 131, "pace": 303000000000, "time": 2510.3}}, "weekday": "wednesday", "livingplace": "Vouvry"}}, "location": "Les Mosses"}, "Internationaler Matterhornlauf, Zermatt": {"latitude": NaN, "longitude": NaN, "race": "Internationaler Matterhornlauf, Zermatt", "date": {"sam. 21.08.2010": {"year": 2010, "day": 21, "month": 8, "categories": {"MHL-M35": {"distance": 12, "rank": 31, "pace": 503000000000, "time": 6291.3}}, "weekday": "saturday", "livingplace": "Vouvry"}}, "location": "Zermatt"}, "Tour du Chablais #6 Montreux": {"latitude": 46.3190253, "longitude": 6.970566, "race": "Tour du Chablais #6 Montreux", "date": {"mer. 16.05.2012": {"year": 2012, "day": 16, "month": 5, "categories": {"M-M40": {"distance": 9, "rank": 75, "pace": 269000000000, "time": 2489.9}}, "weekday": "wednesday", "livingplace": "Vouvry"}}, "location": "Aigle"}}, "birth": 1971}