{"name": "Von K\u00e4nel Carole", "sex": "F", "races": {"Bl\u00fcemlisalp-Lauf, Reichenbach": {"latitude": 46.6254387, "longitude": 7.6940529, "race": "Bl\u00fcemlisalp-Lauf, Reichenbach", "date": {"dim. 30.05.2010": {"year": 2010, "day": 30, "month": 5, "categories": {"F20": {"distance": 16, "rank": 1, "pace": 305000000000, "time": 4915.9}}, "weekday": "sunday", "livingplace": "Thun"}, "dim. 31.05.2009": {"year": 2009, "day": 31, "month": 5, "categories": {"TeamF": {"distance": 16, "rank": 1, "pace": 297000000000, "time": 4783.4}}, "weekday": "sunday", "livingplace": "Thun"}}, "location": "Reichenbach im Kandertal"}, "Steinh\u00f6lzlilauf, Liebefeld": {"latitude": 46.933331, "longitude": 7.416668, "race": "Steinh\u00f6lzlilauf, Liebefeld", "date": {"dim. 04.12.2011": {"year": 2011, "day": 4, "month": 12, "categories": {"L-HKF": {"distance": 11, "rank": 2, "pace": 259000000000, "time": 2724.1}}, "weekday": "sunday", "livingplace": "Thun"}}, "location": "Liebefeld"}, "Glacier 3000 Run, Gstaad": {"latitude": 46.4717588, "longitude": 7.2865728, "race": "Glacier 3000 Run, Gstaad", "date": {"sam. 06.08.2011": {"year": 2011, "day": 6, "month": 8, "categories": {"F20": {"distance": 26, "rank": 3, "pace": 443000000000, "time": 11533.8}}, "weekday": "saturday", "livingplace": "Thun"}}, "location": "Gstaad"}, "Z\u00fcrcher Silvesterlauf, Z\u00fcrich": {"latitude": 47.3768866, "longitude": 8.541694, "race": "Z\u00fcrcher Silvesterlauf, Z\u00fcrich", "date": {"dim. 13.12.2009": {"year": 2009, "day": 13, "month": 12, "categories": {"4-DaHK": {"distance": 4, "rank": 1, "pace": 226000000000, "time": 998.2}}, "weekday": "sunday", "livingplace": "Thun"}}, "location": "Z\u00fcrich"}, "Schweizer Frauenlauf Bern": {"latitude": 46.9479739, "longitude": 7.4474468, "race": "Schweizer Frauenlauf Bern", "date": {"dim. 10.06.2012": {"year": 2012, "day": 10, "month": 6, "categories": {"5-W30": {"distance": 5, "rank": 34, "pace": 292000000000, "time": 1463.4}}, "weekday": "sunday", "livingplace": "adidas"}, "dim. 19.06.2011": {"year": 2011, "day": 19, "month": 6, "categories": {"5-W20": {"distance": 5, "rank": 87, "pace": 283000000000, "time": 1415.4}}, "weekday": "sunday", "livingplace": "adidas"}}, "location": "Bern"}}, "birth": 1982}