{"name": "Vonlanthen Damien", "sex": "M", "races": {"Groupe E Tour Fribourg #4, Siviriez": {"latitude": 46.6585092, "longitude": 6.877722, "race": "Groupe E Tour Fribourg #4, Siviriez", "date": {"mer. 10.09.2014": {"year": 2014, "day": 10, "month": 9, "categories": {"H-Jun": {"distance": 11, "rank": 8, "pace": 303000000000, "time": 3273.9}}, "weekday": "wednesday", "livingplace": "Formangueires"}}, "location": "Siviriez"}, "Morat-Fribourg": {"latitude": 46.92922110000001, "longitude": 7.120184, "race": "Morat-Fribourg", "date": {"sam. 05.10.2013": {"year": 2013, "day": 5, "month": 10, "categories": {"17-CadH": {"distance": 17, "rank": 29, "pace": 298000000000, "time": 5208.7}}, "weekday": "saturday", "livingplace": "Formangueires"}, "sam. 03.10.2015": {"year": 2015, "day": 3, "month": 10, "categories": {"17-JunH": {"distance": 17, "rank": 47, "pace": 295000000000, "time": 5079.9}}, "weekday": "saturday", "livingplace": "Formangueires"}, "sam. 06.10.2012": {"year": 2012, "day": 6, "month": 10, "categories": {"8-JoggM": {"distance": 9, "rank": 61, "pace": 292000000000, "time": 2595.4}}, "weekday": "saturday", "livingplace": "Formangueires"}, "sam. 04.10.2014": {"year": 2014, "day": 4, "month": 10, "categories": {"17-CadH": {"distance": 17, "rank": 21, "pace": 292000000000, "time": 5022.6}}, "weekday": "saturday", "livingplace": "Formangueires"}}, "location": "Murten"}, "Groupe E Tour Fribourg #2, Charmey": {"latitude": 46.6175845, "longitude": 7.1654493, "race": "Groupe E Tour Fribourg #2, Charmey", "date": {"mer. 27.08.2014": {"year": 2014, "day": 27, "month": 8, "categories": {"H-Jun": {"distance": 10, "rank": 12, "pace": 304000000000, "time": 2942.2}}, "weekday": "wednesday", "livingplace": "Formangueires"}}, "location": "Charmey (Gruy\u00e8re)"}, "Groupe E Tour Fribourg #3, Kerzers": {"latitude": 46.97488999999999, "longitude": 7.1954365, "race": "Groupe E Tour Fribourg #3, Kerzers", "date": {"mer. 03.09.2014": {"year": 2014, "day": 3, "month": 9, "categories": {"H-Jun": {"distance": 10, "rank": 9, "pace": 265000000000, "time": 2699.3}}, "weekday": "wednesday", "livingplace": "Formangueires"}}, "location": "Kerzers"}, "Groupe E Tour Fribourg #5, Givisiez": {"latitude": 46.8128615, "longitude": 7.131657799999999, "race": "Groupe E Tour Fribourg #5, Givisiez", "date": {"mer. 17.09.2014": {"year": 2014, "day": 17, "month": 9, "categories": {"H-Jun": {"distance": 10, "rank": 10, "pace": 281000000000, "time": 2894.4}}, "weekday": "wednesday", "livingplace": "Formangueires"}}, "location": "Givisiez"}, "Kerzerslauf": {"latitude": 46.97488999999999, "longitude": 7.1954365, "race": "Kerzerslauf", "date": {"sam. 15.03.2014": {"year": 2014, "day": 15, "month": 3, "categories": {"15-U20M": {"distance": 15, "rank": 24, "pace": 283000000000, "time": 4248.5}}, "weekday": "saturday", "livingplace": "Formangueires"}}, "location": "Kerzers"}, "Groupe E Tour Fribourg #1, Cousset": {"latitude": 46.81832, "longitude": 6.977279999999999, "race": "Groupe E Tour Fribourg #1, Cousset", "date": {"mer. 20.08.2014": {"year": 2014, "day": 20, "month": 8, "categories": {"H-Jun": {"distance": 9, "rank": 8, "pace": 267000000000, "time": 2518.9}}, "weekday": "wednesday", "livingplace": "Formangueires"}}, "location": "Cousset"}}, "birth": 1997}