{"name": "Vonr\u00fcti Simon", "sex": "M", "races": {"Lucerne Marathon, Luzern": {"latitude": 47.05016819999999, "longitude": 8.3093072, "race": "Lucerne Marathon, Luzern", "date": {"dim. 28.10.2012": {"year": 2012, "day": 28, "month": 10, "categories": {"M-M20": {"distance": 42, "rank": 26, "pace": 280000000000, "time": 11848.3}}, "weekday": "sunday", "livingplace": "Bern"}}, "location": "Luzern"}, "M\u00e4nnlichen Halbmarathon, Grindelwald": {"latitude": 46.624164, "longitude": 8.0413962, "race": "M\u00e4nnlichen Halbmarathon, Grindelwald", "date": {"dim. 03.06.2012": {"year": 2012, "day": 3, "month": 6, "categories": {"M20": {"distance": 21, "rank": 3, "pace": 369000000000, "time": 7787.3}}, "weekday": "sunday", "livingplace": "Bern"}}, "location": "Grindelwald"}, "Morat-Fribourg": {"latitude": 46.92922110000001, "longitude": 7.120184, "race": "Morat-Fribourg", "date": {"sam. 02.10.2010": {"year": 2010, "day": 2, "month": 10, "categories": {"17-M20": {"distance": 17, "rank": 167, "pace": 254000000000, "time": 4366.7}}, "weekday": "saturday", "livingplace": "Niederscherli"}}, "location": "Murten"}, "ASICS Bremgarter Reusslauf": {"latitude": 47.34917739999999, "longitude": 8.3397905, "race": "ASICS Bremgarter Reusslauf", "date": {"sam. 25.02.2012": {"year": 2012, "day": 25, "month": 2, "categories": {"M20": {"distance": 11, "rank": 40, "pace": 222000000000, "time": 2448.9}}, "weekday": "saturday", "livingplace": "Bern"}}, "location": "Bremgarten AG"}, "Basler Stadtlauf": {"latitude": 47.5595986, "longitude": 7.5885761, "race": "Basler Stadtlauf", "date": {"sam. 28.11.2009": {"year": 2009, "day": 28, "month": 11, "categories": {"M": {"distance": 6, "rank": 60, "pace": 219000000000, "time": 1207.6}}, "weekday": "saturday", "livingplace": "Jegenstorf"}}, "location": "Basel"}, "Ch\u00e4sitzerlouf, Kehrsatz": {"latitude": NaN, "longitude": NaN, "race": "Ch\u00e4sitzerlouf, Kehrsatz", "date": {"sam. 30.04.2011": {"year": 2011, "day": 30, "month": 4, "categories": {"12-M20": {"distance": 12, "rank": 10, "pace": 228000000000, "time": 2744.4}}, "weekday": "saturday", "livingplace": "Niederscherli"}, "sam. 27.04.2002": {"year": 2002, "day": 27, "month": 4, "categories": {"11": {"distance": 12, "rank": 6, "pace": 250000000000, "time": 3079.5}}, "weekday": "saturday", "livingplace": "Jegenstorf"}, "sam. 28.04.2012": {"year": 2012, "day": 28, "month": 4, "categories": {"12-M20": {"distance": 12, "rank": 18, "pace": 263000000000, "time": 3166.1}}, "weekday": "saturday", "livingplace": "Bern"}, "sam. 26.04.2003": {"year": 2003, "day": 26, "month": 4, "categories": {"11": {"distance": 12, "rank": 6, "pace": 254000000000, "time": 3133.6}}, "weekday": "saturday", "livingplace": "Jegenstorf"}}, "location": "Kehrsatz"}, "10km, Payerne": {"latitude": 46.8220266, "longitude": 6.9405663, "race": "10km, Payerne", "date": {"sam. 10.03.2012": {"year": 2012, "day": 10, "month": 3, "categories": {"M20": {"distance": 10, "rank": 15, "pace": 226000000000, "time": 2269.7}}, "weekday": "saturday", "livingplace": "Bern"}}, "location": "Payerne"}, "D\u00e9fi Val-de-Travers, Couvet": {"latitude": 46.9262933, "longitude": 6.6324944, "race": "D\u00e9fi Val-de-Travers, Couvet", "date": {"sam. 21.06.2008": {"year": 2008, "day": 21, "month": 6, "categories": {"SH": {"distance": 20, "rank": 17, "pace": 362000000000, "time": 7143.2}}, "weekday": "saturday", "livingplace": "Bern"}}, "location": "Couvet"}}, "birth": 1985}