{"name": "Vouilloz Anne-Catherine", "sex": "F", "races": {"Tour du Chablais #6 Monthey": {"latitude": 46.3190253, "longitude": 6.970566, "race": "Tour du Chablais #6 Monthey", "date": {"mer. 08.05.2013": {"year": 2013, "day": 8, "month": 5, "categories": {"F-F40": {"distance": 9, "rank": 6, "pace": 252000000000, "time": 2359.0}}, "weekday": "wednesday", "livingplace": "Fully"}}, "location": "Aigle"}, "Morat-Fribourg": {"latitude": 46.92922110000001, "longitude": 7.120184, "race": "Morat-Fribourg", "date": {"dim. 07.10.2001": {"year": 2001, "day": 7, "month": 10, "categories": {"W35": {"distance": 17, "rank": 98, "pace": 341000000000, "time": 5867.4}}, "weekday": "sunday", "livingplace": "Fully"}, "dim. 05.10.2003": {"year": 2003, "day": 5, "month": 10, "categories": {"W35": {"distance": 17, "rank": 70, "pace": 318000000000, "time": 5462.9}}, "weekday": "sunday", "livingplace": "Fully"}, "sam. 06.10.2012": {"year": 2012, "day": 6, "month": 10, "categories": {"17-W45": {"distance": 17, "rank": 4, "pace": 276000000000, "time": 4828.1}}, "weekday": "saturday", "livingplace": "Fully"}, "sam. 04.10.2008": {"year": 2008, "day": 4, "month": 10, "categories": {"C-W40": {"distance": 17, "rank": 47, "pace": 306000000000, "time": 5270.0}}, "weekday": "saturday", "livingplace": "Fully"}, "sam. 06.10.2007": {"year": 2007, "day": 6, "month": 10, "categories": {"C/W40": {"distance": 17, "rank": 90, "pace": 328000000000, "time": 5644.3}}, "weekday": "saturday", "livingplace": "Port"}, "dim. 06.10.2002": {"year": 2002, "day": 6, "month": 10, "categories": {"W35": {"distance": 17, "rank": 76, "pace": 324000000000, "time": 5570.8}}, "weekday": "sunday", "livingplace": "Fully"}}, "location": "Murten"}, "ASICS Bremgarter Reusslauf": {"latitude": 47.34917739999999, "longitude": 8.3397905, "race": "ASICS Bremgarter Reusslauf", "date": {"sam. 22.02.2014": {"year": 2014, "day": 22, "month": 2, "categories": {"11-F50": {"distance": 11, "rank": 21, "pace": 281000000000, "time": 3094.7}}, "weekday": "saturday", "livingplace": "Smrun"}}, "location": "Bremgarten AG"}, "Corrida Bulloise, Bulle": {"latitude": 46.6154512, "longitude": 7.057726799999999, "race": "Corrida Bulloise, Bulle", "date": {"sam. 21.11.2009": {"year": 2009, "day": 21, "month": 11, "categories": {"F40": {"distance": 6, "rank": 14, "pace": 269000000000, "time": 1657.4}}, "weekday": "saturday", "livingplace": "Fully"}, "sam. 20.11.2010": {"year": 2010, "day": 20, "month": 11, "categories": {"F40": {"distance": 6, "rank": 32, "pace": 287000000000, "time": 1766.6}}, "weekday": "saturday", "livingplace": "Fully"}, "sam. 19.11.2011": {"year": 2011, "day": 19, "month": 11, "categories": {"F40": {"distance": 6, "rank": 18, "pace": 272000000000, "time": 1676.8}}, "weekday": "saturday", "livingplace": "Fully"}}, "location": "Bulle"}, "Schweizer Frauenlauf Bern": {"latitude": 46.9479739, "longitude": 7.4474468, "race": "Schweizer Frauenlauf Bern", "date": {"dim. 10.06.2001": {"year": 2001, "day": 10, "month": 6, "categories": {"W35": {"distance": 5, "rank": 333, "pace": 294000000000, "time": 1474.6}}, "weekday": "sunday", "livingplace": "Martigny"}}, "location": "Bern"}, "Tour du Pays de Vaud #3 - Mezi\u00e8res": {"latitude": 46.7784736, "longitude": 6.641183, "race": "Tour du Pays de Vaud #3 - Mezi\u00e8res", "date": {"mer. 22.08.2012": {"year": 2012, "day": 22, "month": 8, "categories": {"D-Sen2": {"distance": 8, "rank": 3, "pace": 283000000000, "time": 2380.8}}, "weekday": "wednesday", "livingplace": "Fully"}}, "location": "Yverdon-les-Bains"}, "20km de Lausanne": {"latitude": 46.5196535, "longitude": 6.6322734, "race": "20km de Lausanne", "date": {"sam. 25.04.2015": {"year": 2015, "day": 25, "month": 4, "categories": {"10-F50": {"distance": 10, "rank": 2, "pace": 273000000000, "time": 2732.6}}, "weekday": "saturday", "livingplace": "Suisse"}, "sam. 25.04.2009": {"year": 2009, "day": 25, "month": 4, "categories": {"10-F45": {"distance": 10, "rank": 7, "pace": 287000000000, "time": 2876.9}}, "weekday": "saturday", "livingplace": "Fully"}, "sam. 28.04.2012": {"year": 2012, "day": 28, "month": 4, "categories": {"10-F45": {"distance": 10, "rank": 5, "pace": 279000000000, "time": 2791.4}}, "weekday": "saturday", "livingplace": "CABV Martigny"}, "sam. 26.04.2014": {"year": 2014, "day": 26, "month": 4, "categories": {"10-F50": {"distance": 10, "rank": 2, "pace": 269000000000, "time": 2699.0}}, "weekday": "saturday", "livingplace": "Suisse"}}, "location": "Lausanne"}, "Tour du Chablais #1 Lavey": {"latitude": 46.2957462, "longitude": 6.9916269, "race": "Tour du Chablais #1 Lavey", "date": {"mer. 27.04.2011": {"year": 2011, "day": 27, "month": 4, "categories": {"F-F40": {"distance": 9, "rank": 11, "pace": 277000000000, "time": 2496.8}}, "weekday": "wednesday", "livingplace": "Martigny"}}, "location": "Ollon VD"}, "SM CS 10km Strasse route + Volkslauf 10km, Uster": {"latitude": 47.3482747, "longitude": 8.717873899999999, "race": "SM CS 10km Strasse route + Volkslauf 10km, Uster", "date": {"sam. 23.03.2013": {"year": 2013, "day": 23, "month": 3, "categories": {"10-W45": {"distance": 10, "rank": 2, "pace": 246000000000, "time": 2467.6}}, "weekday": "saturday", "livingplace": "Fully"}}, "location": "Uster"}, "Tour du Chablais #1 Martigny": {"latitude": 46.2957462, "longitude": 6.9916269, "race": "Tour du Chablais #1 Martigny", "date": {"mer. 23.04.2014": {"year": 2014, "day": 23, "month": 4, "categories": {"F-F50": {"distance": 9, "rank": 2, "pace": 258000000000, "time": 2195.5}}, "weekday": "wednesday", "livingplace": "Fully"}}, "location": "Ollon VD"}, "Tour du Pays de Vaud #2 - Genolier": {"latitude": 46.5955273, "longitude": 6.7702883, "race": "Tour du Pays de Vaud #2 - Genolier", "date": {"mer. 15.08.2012": {"year": 2012, "day": 15, "month": 8, "categories": {"D-Sen2": {"distance": 9, "rank": 3, "pace": 261000000000, "time": 2221.2}}, "weekday": "wednesday", "livingplace": "Fully"}}, "location": "M\u00e9zi\u00e8res VD"}, "10km de Payerne": {"latitude": 46.8220266, "longitude": 6.9405663, "race": "10km de Payerne", "date": {"sam. 27.03.2010": {"year": 2010, "day": 27, "month": 3, "categories": {"W45": {"distance": 10, "rank": 7, "pace": 270000000000, "time": 2705.4}}, "weekday": "saturday", "livingplace": "Fully"}}, "location": "Payerne"}, "10km Schweizer Meisterschaften Lyss": {"latitude": 47.0746504, "longitude": 7.3077022, "race": "10km Schweizer Meisterschaften Lyss", "date": {"sam. 02.04.2011": {"year": 2011, "day": 2, "month": 4, "categories": {"10-W45": {"distance": 10, "rank": 13, "pace": 295000000000, "time": 2955.1}}, "weekday": "saturday", "livingplace": "Martigny Gare CFF"}, "sam. 31.03.2012": {"year": 2012, "day": 31, "month": 3, "categories": {"10-W45": {"distance": 10, "rank": 7, "pace": 269000000000, "time": 2690.9}}, "weekday": "saturday", "livingplace": "Martigny"}}, "location": "Lyss"}, "Tour du Pays de Vaud #4 - La Sarraz": {"latitude": 46.7088129, "longitude": 6.5707689, "race": "Tour du Pays de Vaud #4 - La Sarraz", "date": {"mer. 29.08.2012": {"year": 2012, "day": 29, "month": 8, "categories": {"D-Sen2": {"distance": 9, "rank": 2, "pace": 256000000000, "time": 2184.2}}, "weekday": "wednesday", "livingplace": "Fully"}}, "location": "Chavornay"}, "Gurtenclassic, Wabern": {"latitude": 46.92901639999999, "longitude": 7.448973199999999, "race": "Gurtenclassic, Wabern", "date": {"dim. 04.11.2007": {"year": 2007, "day": 4, "month": 11, "categories": {"W40": {"distance": 15, "rank": 24, "pace": 362000000000, "time": 5438.8}}, "weekday": "sunday", "livingplace": "Fully"}}, "location": "Wabern"}, "Tour du pays de Vaud #1 - Penthaz": {"latitude": 46.5993131, "longitude": 6.539251200000001, "race": "Tour du pays de Vaud #1 - Penthaz", "date": {"mer. 08.08.2012": {"year": 2012, "day": 8, "month": 8, "categories": {"D-Sen2": {"distance": 9, "rank": 3, "pace": 272000000000, "time": 2323.3}}, "weekday": "wednesday", "livingplace": "Fully"}}, "location": "Penthaz"}, "Tour du Chablais #3 Collombey-Muraz": {"latitude": 46.1782231, "longitude": 7.0223787, "race": "Tour du Chablais #3 Collombey-Muraz", "date": {"mer. 25.04.2012": {"year": 2012, "day": 25, "month": 4, "categories": {"F-F40": {"distance": 9, "rank": 8, "pace": 274000000000, "time": 2462.8}}, "weekday": "wednesday", "livingplace": "CABV Martigny"}}, "location": "Evionnaz"}}, "birth": 1964}