{"name": "Vout Nicolas", "sex": "M", "races": {"Course p\u00e9destre Thyon-Dixence, Thyon": {"latitude": NaN, "longitude": NaN, "race": "Course p\u00e9destre Thyon-Dixence, Thyon", "date": {"dim. 02.08.2015": {"year": 2015, "day": 2, "month": 8, "categories": {"HomElite": {"distance": 16, "rank": 86, "pace": 422000000000, "time": 6902.5}}, "weekday": "sunday", "livingplace": "Arzier"}}, "location": "Thyon-Les Collons"}, "Course de l'Escalade, Gen\u00e8ve": {"latitude": 46.2043907, "longitude": 6.1431577, "race": "Course de l'Escalade, Gen\u00e8ve", "date": {"sam. 06.12.2014": {"year": 2014, "day": 6, "month": 12, "categories": {"Elite-M": {"distance": 7, "rank": 366, "pace": 245000000000, "time": 1795.7}}, "weekday": "saturday", "livingplace": "Arzier"}}, "location": "Gen\u00e8ve"}, "Semi-Marathon de la C\u00f4te, Allaman-Nyon": {"latitude": 46.3832683, "longitude": 6.2347852, "race": "Semi-Marathon de la C\u00f4te, Allaman-Nyon", "date": {"dim. 14.09.2014": {"year": 2014, "day": 14, "month": 9, "categories": {"21-H30": {"distance": 21, "rank": 31, "pace": 253000000000, "time": 5345.9}}, "weekday": "sunday", "livingplace": "Arzier"}}, "location": "Nyon"}, "Tour du Pays de Vaud etape 2 - Genolier": {"latitude": 46.5955273, "longitude": 6.7702883, "race": "Tour du Pays de Vaud etape 2 - Genolier", "date": {"mer. 19.08.2009": {"year": 2009, "day": 19, "month": 8, "categories": {"Hom": {"distance": 8, "rank": 50, "pace": 311000000000, "time": 2525.1}}, "weekday": "wednesday", "livingplace": "Grandson"}}, "location": "M\u00e9zi\u00e8res VD"}, "Montreux - Les Rochers de Naye": {"latitude": 46.4312213, "longitude": 6.9106799, "race": "Montreux - Les Rochers de Naye", "date": {"dim. 06.07.2014": {"year": 2014, "day": 6, "month": 7, "categories": {"M-HElite": {"distance": 19, "rank": 108, "pace": 445000000000, "time": 8368.9}}, "weekday": "sunday", "livingplace": "Arzier"}}, "location": "Montreux"}, "Sierre-Zinal, Sierre": {"latitude": 46.29413110000001, "longitude": 7.533536199999999, "race": "Sierre-Zinal, Sierre", "date": {"dim. 10.08.2014": {"year": 2014, "day": 10, "month": 8, "categories": {"ElitesHo": {"distance": 31, "rank": 384, "pace": 514000000000, "time": 15938.2}}, "weekday": "sunday", "livingplace": "Arzier"}}, "location": "Sierre"}, "20km de Lausanne": {"latitude": 46.5196535, "longitude": 6.6322734, "race": "20km de Lausanne", "date": {"sam. 25.04.2015": {"year": 2015, "day": 25, "month": 4, "categories": {"20-H30": {"distance": 20, "rank": 96, "pace": 247000000000, "time": 4959.1}}, "weekday": "saturday", "livingplace": "Arzier"}, "sam. 22.04.2006": {"year": 2006, "day": 22, "month": 4, "categories": {"20/H20": {"distance": 20, "rank": 63, "pace": 271000000000, "time": 5422.7}}, "weekday": "saturday", "livingplace": "Yverdon les Bains"}}, "location": "Lausanne"}, "Humani'Trail, Les Diablerets": {"latitude": 46.351389, "longitude": 7.158055999999999, "race": "Humani'Trail, Les Diablerets", "date": {"sam. 21.09.2013": {"year": 2013, "day": 21, "month": 9, "categories": {"25-HS": {"distance": 25, "rank": 76, "pace": 672000000000, "time": 16807.8}}, "weekday": "saturday", "livingplace": "Lausanne"}}, "location": "Les Diablerets"}, "Bieler Lauftage, Biel Bienne": {"latitude": 47.1367785, "longitude": 7.2467909, "race": "Bieler Lauftage, Biel Bienne", "date": {"jeu. 11.06.2015": {"year": 2015, "day": 11, "month": 6, "categories": {"100-M35": {"distance": 100, "rank": 22, "pace": 395000000000, "time": 39520.7}}, "weekday": "thursday", "livingplace": "Arzier"}}, "location": "Biel/Bienne"}}, "birth": 1980}