{"name": "Vout Dawn", "sex": "F", "races": {"Semi-Marathon de la C\u00f4te, Allaman-Nyon": {"latitude": 46.3832683, "longitude": 6.2347852, "race": "Semi-Marathon de la C\u00f4te, Allaman-Nyon", "date": {"dim. 14.09.2014": {"year": 2014, "day": 14, "month": 9, "categories": {"21-F30": {"distance": 21, "rank": 7, "pace": 265000000000, "time": 5611.0}}, "weekday": "sunday", "livingplace": "Arzier"}}, "location": "Nyon"}, "Tour du Pays de Vaud #3 - Chavornay": {"latitude": 46.7784736, "longitude": 6.641183, "race": "Tour du Pays de Vaud #3 - Chavornay", "date": {"mer. 28.08.2013": {"year": 2013, "day": 28, "month": 8, "categories": {"D-Sen1": {"distance": 9, "rank": 10, "pace": 277000000000, "time": 2473.2}}, "weekday": "wednesday", "livingplace": "Prilly"}}, "location": "Yverdon-les-Bains"}, "Course p\u00e9destre Thyon-Dixence, Thyon": {"latitude": NaN, "longitude": NaN, "race": "Course p\u00e9destre Thyon-Dixence, Thyon", "date": {"dim. 02.08.2015": {"year": 2015, "day": 2, "month": 8, "categories": {"FemElite": {"distance": 16, "rank": 40, "pace": 483000000000, "time": 7902.1}}, "weekday": "sunday", "livingplace": "Arzier"}}, "location": "Thyon-Les Collons"}, "Tour du pays de Vaud #1 - Penthaz": {"latitude": 46.5993131, "longitude": 6.539251200000001, "race": "Tour du pays de Vaud #1 - Penthaz", "date": {"mer. 14.08.2013": {"year": 2013, "day": 14, "month": 8, "categories": {"D-Sen1": {"distance": 9, "rank": 7, "pace": 269000000000, "time": 2295.2}}, "weekday": "wednesday", "livingplace": "Prilly"}}, "location": "Penthaz"}, "Humani'Trail, Les Diablerets": {"latitude": 46.351389, "longitude": 7.158055999999999, "race": "Humani'Trail, Les Diablerets", "date": {"sam. 21.09.2013": {"year": 2013, "day": 21, "month": 9, "categories": {"25-FS": {"distance": 25, "rank": 16, "pace": 620000000000, "time": 15519.0}}, "weekday": "saturday", "livingplace": "Lausanne"}}, "location": "Les Diablerets"}, "20km de Lausanne": {"latitude": 46.5196535, "longitude": 6.6322734, "race": "20km de Lausanne", "date": {"sam. 25.04.2015": {"year": 2015, "day": 25, "month": 4, "categories": {"20-F30": {"distance": 20, "rank": 12, "pace": 262000000000, "time": 5250.3}}, "weekday": "saturday", "livingplace": "Arzier"}}, "location": "Lausanne"}, "Bieler Lauftage, Biel Bienne": {"latitude": 47.1367785, "longitude": 7.2467909, "race": "Bieler Lauftage, Biel Bienne", "date": {"jeu. 11.06.2015": {"year": 2015, "day": 11, "month": 6, "categories": {"M-W35": {"distance": 42, "rank": 1, "pace": 296000000000, "time": 12527.6}}, "weekday": "thursday", "livingplace": "Arzier"}}, "location": "Biel/Bienne"}}, "birth": 1976}