{"name": "Vuilleumier Lionel", "sex": "M", "races": {"BCN Tour Couvet": {"latitude": 47.0624261, "longitude": 6.9175754, "race": "BCN Tour Couvet", "date": {"mer. 02.05.2012": {"year": 2012, "day": 2, "month": 5, "categories": {"HS2": {"distance": 11, "rank": 162, "pace": 319000000000, "time": 3556.9}}, "weekday": "wednesday", "livingplace": "Areuse"}}, "location": "Ch\u00e9zard-St-Martin"}, "BCN Tour M\u00f4tier": {"latitude": 46.9262933, "longitude": 6.6324944, "race": "BCN Tour M\u00f4tier", "date": {"mer. 19.05.2010": {"year": 2010, "day": 19, "month": 5, "categories": {"HS2": {"distance": 10, "rank": 185, "pace": 309000000000, "time": 3067.3}}, "weekday": "wednesday", "livingplace": "Areuse"}}, "location": "Couvet"}, "BCN Tour Les Ponts-de-Martel": {"latitude": 46.999113, "longitude": 6.733554799999999, "race": "BCN Tour Les Ponts-de-Martel", "date": {"mer. 09.05.2012": {"year": 2012, "day": 9, "month": 5, "categories": {"HS2": {"distance": 10, "rank": 134, "pace": 307000000000, "time": 3163.5}}, "weekday": "wednesday", "livingplace": "Areuse"}}, "location": "Les Ponts-de-Martel"}, "BCN Tour Fontaine Cernier": {"latitude": 47.0624261, "longitude": 6.9175754, "race": "BCN Tour Fontaine Cernier", "date": {"mer. 27.04.2011": {"year": 2011, "day": 27, "month": 4, "categories": {"HS2": {"distance": 10, "rank": 182, "pace": 303000000000, "time": 3122.2}}, "weekday": "wednesday", "livingplace": "Areuse"}}, "location": "Ch\u00e9zard-St-Martin"}, "BCN Tour Le Locle": {"latitude": 46.999113, "longitude": 6.733554799999999, "race": "BCN Tour Le Locle", "date": {"mer. 05.05.2010": {"year": 2010, "day": 5, "month": 5, "categories": {"HS2": {"distance": 11, "rank": 211, "pace": 343000000000, "time": 3748.2}}, "weekday": "wednesday", "livingplace": "Areuse"}}, "location": "Les Ponts-de-Martel"}, "BCN Tour Ponts-de-Martel": {"latitude": 47.0624261, "longitude": 6.9175754, "race": "BCN Tour Ponts-de-Martel", "date": {"mer. 28.04.2010": {"year": 2010, "day": 28, "month": 4, "categories": {"HS2": {"distance": 11, "rank": 219, "pace": 341000000000, "time": 3829.2}}, "weekday": "wednesday", "livingplace": "Areuse"}}, "location": "Ch\u00e9zard-St-Martin"}, "BCN Tour Auvernier": {"latitude": 46.9668714, "longitude": 6.8589727, "race": "BCN Tour Auvernier", "date": {"mer. 20.04.2011": {"year": 2011, "day": 20, "month": 4, "categories": {"HS2": {"distance": 11, "rank": 177, "pace": 329000000000, "time": 3555.7}}, "weekday": "wednesday", "livingplace": "Areuse"}}, "location": "Colombier NE"}, "BCN Tour Cornaux": {"latitude": 46.9668714, "longitude": 6.8589727, "race": "BCN Tour Cornaux", "date": {"mer. 25.04.2012": {"year": 2012, "day": 25, "month": 4, "categories": {"HS2": {"distance": 11, "rank": 158, "pace": 344000000000, "time": 3783.4}}, "weekday": "wednesday", "livingplace": "Areuse"}}, "location": "Colombier NE"}, "BCN Tour #1 Corcelles": {"latitude": 46.9668714, "longitude": 6.8589727, "race": "BCN Tour #1 Corcelles", "date": {"mer. 24.04.2013": {"year": 2013, "day": 24, "month": 4, "categories": {"HS2": {"distance": 10, "rank": 119, "pace": 290000000000, "time": 2842.8}}, "weekday": "wednesday", "livingplace": "Areuse"}}, "location": "Colombier NE"}, "BCN Tour La Chaux-de-Fonds": {"latitude": 47.1034892, "longitude": 6.832783800000001, "race": "BCN Tour La Chaux-de-Fonds", "date": {"mer. 11.05.2011": {"year": 2011, "day": 11, "month": 5, "categories": {"HS2": {"distance": 11, "rank": 180, "pace": 362000000000, "time": 3882.3}}, "weekday": "wednesday", "livingplace": "Areuse"}}, "location": "La Chaux-de-Fonds"}, "BCN Tour #6 Neuch\u00e2tel": {"latitude": 46.9899874, "longitude": 6.9292732, "race": "BCN Tour #6 Neuch\u00e2tel", "date": {"mer. 29.05.2013": {"year": 2013, "day": 29, "month": 5, "categories": {"HS2": {"distance": 11, "rank": 244, "pace": 347000000000, "time": 3824.7}}, "weekday": "wednesday", "livingplace": "Areuse"}}, "location": "Neuch\u00e2tel"}, "BCN Tour La Br\u00e9vine": {"latitude": 46.999113, "longitude": 6.733554799999999, "race": "BCN Tour La Br\u00e9vine", "date": {"mer. 04.05.2011": {"year": 2011, "day": 4, "month": 5, "categories": {"HS2": {"distance": 10, "rank": 154, "pace": 313000000000, "time": 3138.9}}, "weekday": "wednesday", "livingplace": "Areuse"}}, "location": "Les Ponts-de-Martel"}, "BCN Tour Neuch\u00e2tel": {"latitude": 46.9899874, "longitude": 6.9292732, "race": "BCN Tour Neuch\u00e2tel", "date": {"mer. 26.05.2010": {"year": 2010, "day": 26, "month": 5, "categories": {"HS2": {"distance": 10, "rank": 208, "pace": 391000000000, "time": 3796.6}}, "weekday": "wednesday", "livingplace": "Areuse"}, "mer. 30.05.2012": {"year": 2012, "day": 30, "month": 5, "categories": {"HS2": {"distance": 11, "rank": 98, "pace": 301000000000, "time": 3374.3}}, "weekday": "wednesday", "livingplace": "Areuse"}, "mer. 25.05.2011": {"year": 2011, "day": 25, "month": 5, "categories": {"HS2": {"distance": 11, "rank": 179, "pace": 328000000000, "time": 3745.3}}, "weekday": "wednesday", "livingplace": "Areuse"}}, "location": "Neuch\u00e2tel"}, "BCN Tour Les Ponts de Martel": {"latitude": 46.9262933, "longitude": 6.6324944, "race": "BCN Tour Les Ponts de Martel", "date": {"mer. 18.05.2011": {"year": 2011, "day": 18, "month": 5, "categories": {"HS2": {"distance": 13, "rank": 174, "pace": 321000000000, "time": 4116.4}}, "weekday": "wednesday", "livingplace": "Areuse"}}, "location": "Couvet"}, "BCN Tour #5 Colombier": {"latitude": 46.9262933, "longitude": 6.6324944, "race": "BCN Tour #5 Colombier", "date": {"mer. 22.05.2013": {"year": 2013, "day": 22, "month": 5, "categories": {"HS2": {"distance": 11, "rank": 276, "pace": 313000000000, "time": 3294.7}}, "weekday": "wednesday", "livingplace": "Areuse"}}, "location": "Couvet"}, "BCN Tour #2 La Chaux-de-Fonds": {"latitude": 47.0624261, "longitude": 6.9175754, "race": "BCN Tour #2 La Chaux-de-Fonds", "date": {"mer. 01.05.2013": {"year": 2013, "day": 1, "month": 5, "categories": {"HS2": {"distance": 11, "rank": 272, "pace": 327000000000, "time": 3499.2}}, "weekday": "wednesday", "livingplace": "Areuse"}}, "location": "Ch\u00e9zard-St-Martin"}, "BCN Tour La Chaux-de-fonds": {"latitude": 47.1034892, "longitude": 6.832783800000001, "race": "BCN Tour La Chaux-de-fonds", "date": {"mer. 12.05.2010": {"year": 2010, "day": 12, "month": 5, "categories": {"HS2": {"distance": 11, "rank": 242, "pace": 435000000000, "time": 4662.4}}, "weekday": "wednesday", "livingplace": "Areuse"}}, "location": "La Chaux-de-Fonds"}, "BCN Tour Colombier": {"latitude": 46.9668714, "longitude": 6.8589727, "race": "BCN Tour Colombier", "date": {"mer. 16.05.2012": {"year": 2012, "day": 16, "month": 5, "categories": {"HS2": {"distance": 11, "rank": 342, "pace": 393000000000, "time": 4249.5}}, "weekday": "wednesday", "livingplace": "Areuse"}, "mer. 21.04.2010": {"year": 2010, "day": 21, "month": 4, "categories": {"HS2": {"distance": 10, "rank": 245, "pace": 374000000000, "time": 3749.0}}, "weekday": "wednesday", "livingplace": "Areuse"}}, "location": "Colombier NE"}}, "birth": 1970}