{"name": "Vulliez Ivan", "sex": "M", "races": {"Tour de Presinge": {"latitude": 46.21860299999999, "longitude": 6.2535283, "race": "Tour de Presinge", "date": {"dim. 16.03.2014": {"year": 2014, "day": 16, "month": 3, "categories": {"1-PosF": {"distance": 1, "rank": 47, "pace": 331000000000, "time": 331.8}}, "weekday": "sunday", "livingplace": "Geneve"}}, "location": "Presinge"}, "Course de l'Escalade, Gen\u00e8ve": {"latitude": 46.2043907, "longitude": 6.1431577, "race": "Course de l'Escalade, Gen\u00e8ve", "date": {"sam. 05.12.2015": {"year": 2015, "day": 5, "month": 12, "categories": {"PousM-B7": {"distance": 2, "rank": 130, "pace": 336000000000, "time": 585.0}}, "weekday": "saturday", "livingplace": "Chene Bougeries"}, "sam. 06.12.2014": {"year": 2014, "day": 6, "month": 12, "categories": {"PousM-B6": {"distance": 2, "rank": 173, "pace": 361000000000, "time": 617.5}}, "weekday": "saturday", "livingplace": "Chene Bougeries"}}, "location": "Gen\u00e8ve"}, "Noviodurun, Nyon": {"latitude": 46.3832683, "longitude": 6.2347852, "race": "Noviodurun, Nyon", "date": {"sam. 01.11.2014": {"year": 2014, "day": 1, "month": 11, "categories": {"PoussB-M": {"distance": 2, "rank": 78, "pace": 337000000000, "time": 527.0}}, "weekday": "saturday", "livingplace": "Chene Bougeries"}}, "location": "Nyon"}, "Lausanne Marathon": {"latitude": 46.5196535, "longitude": 6.6322734, "race": "Lausanne Marathon", "date": {"sam. 24.10.2015": {"year": 2015, "day": 24, "month": 10, "categories": {"M-Gar2": {"distance": 1, "rank": 36, "pace": 305000000000, "time": 366.7}}, "weekday": "saturday", "livingplace": "Chene Bougeries"}}, "location": "Lausanne"}, "Run to Run de Carouge": {"latitude": 46.1829674, "longitude": 6.1378539, "race": "Run to Run de Carouge", "date": {"sam. 27.09.2014": {"year": 2014, "day": 27, "month": 9, "categories": {"PoussB-M": {"distance": 1, "rank": 35, "pace": 338000000000, "time": 338.0}}, "weekday": "saturday", "livingplace": "Geneve"}}, "location": "Carouge GE"}, "20km de Lausanne": {"latitude": 46.5196535, "longitude": 6.6322734, "race": "20km de Lausanne", "date": {"sam. 25.04.2015": {"year": 2015, "day": 25, "month": 4, "categories": {"2-H9": {"distance": 2, "rank": 203, "pace": 327000000000, "time": 654.5}}, "weekday": "saturday", "livingplace": "Chene Bougeries"}}, "location": "Lausanne"}}, "birth": 2008}