{"name": "Vulliemin S\u00e9bastien", "sex": "M", "races": {"Tour du Pays de Vaud printanier #2 Yverdon-les-Bains": {"latitude": 46.6698891, "longitude": 6.7975224, "race": "Tour du Pays de Vaud printanier #2 Yverdon-les-Bains", "date": {"mer. 11.06.2014": {"year": 2014, "day": 11, "month": 6, "categories": {"H-Sen2": {"distance": 9, "rank": 49, "pace": 353000000000, "time": 3216.8}}, "weekday": "wednesday", "livingplace": "Ste Croix"}, "mer. 05.06.2013": {"year": 2013, "day": 5, "month": 6, "categories": {"H-Sen2": {"distance": 9, "rank": 81, "pace": 376000000000, "time": 3424.1}}, "weekday": "wednesday", "livingplace": "Ste Croix"}}, "location": "Moudon"}, "Glacier 3000 Run, Gstaad": {"latitude": 46.4717588, "longitude": 7.2865728, "race": "Glacier 3000 Run, Gstaad", "date": {"sam. 09.08.2008": {"year": 2008, "day": 9, "month": 8, "categories": {"M40": {"distance": 26, "rank": 116, "pace": 718000000000, "time": 18687.8}}, "weekday": "saturday", "livingplace": "Yverdon"}}, "location": "Gstaad"}, "Morat-Fribourg": {"latitude": 46.92922110000001, "longitude": 7.120184, "race": "Morat-Fribourg", "date": {"sam. 05.10.2013": {"year": 2013, "day": 5, "month": 10, "categories": {"17-M45": {"distance": 17, "rank": 710, "pace": 359000000000, "time": 6276.4}}, "weekday": "saturday", "livingplace": "Ste Croix"}, "dim. 05.10.2003": {"year": 2003, "day": 5, "month": 10, "categories": {"M20": {"distance": 17, "rank": 886, "pace": 282000000000, "time": 4849.7}}, "weekday": "sunday", "livingplace": "Yverdon les Bains"}}, "location": "Murten"}, "Lausanne Marathon": {"latitude": 46.5196535, "longitude": 6.6322734, "race": "Lausanne Marathon", "date": {"dim. 31.10.2010": {"year": 2010, "day": 31, "month": 10, "categories": {"21-H3": {"distance": 21, "rank": 802, "pace": 354000000000, "time": 7489.4}}, "weekday": "sunday", "livingplace": "Yverdon les Bains"}}, "location": "Lausanne"}, "SwissCityMarathon - Lucerne, Luzern": {"latitude": 47.05016819999999, "longitude": 8.3093072, "race": "SwissCityMarathon - Lucerne, Luzern", "date": {"dim. 26.10.2014": {"year": 2014, "day": 26, "month": 10, "categories": {"M-M40": {"distance": 42, "rank": 381, "pace": 408000000000, "time": 17253.0}}, "weekday": "sunday", "livingplace": "Ste Croix"}}, "location": "Luzern"}, "Tour du Pays de Vaud #1, Penthaz": {"latitude": 46.5993131, "longitude": 6.539251200000001, "race": "Tour du Pays de Vaud #1, Penthaz", "date": {"mer. 13.08.2014": {"year": 2014, "day": 13, "month": 8, "categories": {"H-Sen2": {"distance": 9, "rank": 106, "pace": 357000000000, "time": 3045.6}}, "weekday": "wednesday", "livingplace": "Ste Croix"}}, "location": "Penthaz"}, "Z\u00fcrich Marathon, Teamrun und Cityrun": {"latitude": 47.3768866, "longitude": 8.541694, "race": "Z\u00fcrich Marathon, Teamrun und Cityrun", "date": {"dim. 03.04.2005": {"year": 2005, "day": 3, "month": 4, "categories": {"M30": {"distance": 42, "rank": 997, "pace": 328000000000, "time": 13853.2}}, "weekday": "sunday", "livingplace": "Yverdon les Bains"}, "dim. 04.04.2004": {"year": 2004, "day": 4, "month": 4, "categories": {"M30": {"distance": 42, "rank": 955, "pace": 318000000000, "time": 13422.1}}, "weekday": "sunday", "livingplace": "Yverdon les Bains"}}, "location": "Z\u00fcrich"}}, "birth": 1967}