{"name": "Wagni\u00e8res Jean-Pierre", "sex": "M", "races": {"Tour du Pays de Vaud etape 5 - La Sarraz": {"latitude": 46.5993131, "longitude": 6.539251200000001, "race": "Tour du Pays de Vaud etape 5 - La Sarraz", "date": {"mer. 10.09.2008": {"year": 2008, "day": 10, "month": 9, "categories": {"HomSen3": {"distance": 9, "rank": 14, "pace": 255000000000, "time": 2195.6}}, "weekday": "wednesday", "livingplace": "Gland"}}, "location": "Penthaz"}, "Tour du pays de Vaud #1 \u2013 St  Prex": {"latitude": 46.7784736, "longitude": 6.641183, "race": "Tour du pays de Vaud #1 \u2013 St  Prex", "date": {"mer. 11.08.2010": {"year": 2010, "day": 11, "month": 8, "categories": {"HSen3": {"distance": 8, "rank": 10, "pace": 276000000000, "time": 2325.5}}, "weekday": "wednesday", "livingplace": "Gland"}}, "location": "Yverdon-les-Bains"}, "Tour du pays de Vaud #6 - St  Prex": {"latitude": 46.4829113, "longitude": 6.458343500000001, "race": "Tour du pays de Vaud #6 - St  Prex", "date": {"mer. 14.09.2011": {"year": 2011, "day": 14, "month": 9, "categories": {"H-Sen3": {"distance": 9, "rank": 18, "pace": 257000000000, "time": 2214.6}}, "weekday": "wednesday", "livingplace": "Gland"}}, "location": "St-Prex"}, "20km de Lausanne": {"latitude": 46.5196535, "longitude": 6.6322734, "race": "20km de Lausanne", "date": {"sam. 30.04.2011": {"year": 2011, "day": 30, "month": 4, "categories": {"10-H55": {"distance": 10, "rank": 5, "pace": 255000000000, "time": 2550.1}}, "weekday": "saturday", "livingplace": "Gland"}, "sam. 24.04.2010": {"year": 2010, "day": 24, "month": 4, "categories": {"10-H55": {"distance": 10, "rank": 6, "pace": 256000000000, "time": 2568.9}}, "weekday": "saturday", "livingplace": "Gland"}, "sam. 25.04.2009": {"year": 2009, "day": 25, "month": 4, "categories": {"10-H55": {"distance": 10, "rank": 7, "pace": 247000000000, "time": 2470.5}}, "weekday": "saturday", "livingplace": "Gland"}, "sam. 28.04.2012": {"year": 2012, "day": 28, "month": 4, "categories": {"10-H55": {"distance": 10, "rank": 11, "pace": 265000000000, "time": 2657.5}}, "weekday": "saturday", "livingplace": "Gland"}}, "location": "Lausanne"}, "Kerzerslauf": {"latitude": 46.97488999999999, "longitude": 7.1954365, "race": "Kerzerslauf", "date": {"sam. 21.03.2009": {"year": 2009, "day": 21, "month": 3, "categories": {"15-M55": {"distance": 15, "rank": 22, "pace": 256000000000, "time": 3854.7}}, "weekday": "saturday", "livingplace": "Gland"}, "sam. 15.03.2008": {"year": 2008, "day": 15, "month": 3, "categories": {"15/M50": {"distance": 15, "rank": 148, "pace": 281000000000, "time": 4222.4}}, "weekday": "saturday", "livingplace": "Gland"}}, "location": "Kerzers"}, "Jungfrau-Marathon, Interlaken": {"latitude": NaN, "longitude": NaN, "race": "Jungfrau-Marathon, Interlaken", "date": {"sam. 01.09.2001": {"year": 2001, "day": 1, "month": 9, "categories": {"M45": {"distance": 42, "rank": 127, "pace": 381000000000, "time": 16087.5}}, "weekday": "saturday", "livingplace": "Gland"}}, "location": "Interlaken"}, "Tour du Pays de Vaud etape 2 - Genolier": {"latitude": 46.5955273, "longitude": 6.7702883, "race": "Tour du Pays de Vaud etape 2 - Genolier", "date": {"mer. 20.08.2008": {"year": 2008, "day": 20, "month": 8, "categories": {"HomSen3": {"distance": 8, "rank": 18, "pace": 262000000000, "time": 2182.1}}, "weekday": "wednesday", "livingplace": "Gland"}, "mer. 19.08.2009": {"year": 2009, "day": 19, "month": 8, "categories": {"HSen3": {"distance": 8, "rank": 8, "pace": 260000000000, "time": 2107.0}}, "weekday": "wednesday", "livingplace": "Gland"}}, "location": "M\u00e9zi\u00e8res VD"}, "Tour du Pays de Vaud etape 3 - Aubonne": {"latitude": 46.7829756, "longitude": 6.5728678, "race": "Tour du Pays de Vaud etape 3 - Aubonne", "date": {"mer. 27.08.2008": {"year": 2008, "day": 27, "month": 8, "categories": {"HomSen3": {"distance": 8, "rank": 14, "pace": 277000000000, "time": 2165.2}}, "weekday": "wednesday", "livingplace": "Gland"}}, "location": "Champvent"}, "Lausanne Marathon": {"latitude": 46.5196535, "longitude": 6.6322734, "race": "Lausanne Marathon", "date": {"dim. 30.10.2011": {"year": 2011, "day": 30, "month": 10, "categories": {"21-H4": {"distance": 21, "rank": 146, "pace": 298000000000, "time": 6308.5}}, "weekday": "sunday", "livingplace": "Gland"}}, "location": "Lausanne"}, "Morat-Fribourg": {"latitude": 46.92922110000001, "longitude": 7.120184, "race": "Morat-Fribourg", "date": {"sam. 01.10.2011": {"year": 2011, "day": 1, "month": 10, "categories": {"17-M55": {"distance": 17, "rank": 34, "pace": 277000000000, "time": 4765.1}}, "weekday": "saturday", "livingplace": "Gland"}}, "location": "Murten"}, "Int Greifenseelauf, Uster": {"latitude": 47.3482747, "longitude": 8.717873899999999, "race": "Int Greifenseelauf, Uster", "date": {"sam. 19.09.2009": {"year": 2009, "day": 19, "month": 9, "categories": {"H-M55": {"distance": 21, "rank": 16, "pace": 270000000000, "time": 5702.3}}, "weekday": "saturday", "livingplace": "Gland"}}, "location": "Uster"}, "Tour du Pays de Vaud #5 - La Sarraz": {"latitude": 46.5993131, "longitude": 6.539251200000001, "race": "Tour du Pays de Vaud #5 - La Sarraz", "date": {"mer. 08.09.2010": {"year": 2010, "day": 8, "month": 9, "categories": {"HSen3": {"distance": 9, "rank": 10, "pace": 264000000000, "time": 2411.3}}, "weekday": "wednesday", "livingplace": "Gland"}}, "location": "Penthaz"}}, "birth": 1954}