{"name": "Wahli Jo\u00ebl", "sex": "M", "races": {"BCN Tour Fontaine Cernier": {"latitude": 47.0624261, "longitude": 6.9175754, "race": "BCN Tour Fontaine Cernier", "date": {"mer. 27.04.2011": {"year": 2011, "day": 27, "month": 4, "categories": {"HS1": {"distance": 10, "rank": 81, "pace": 264000000000, "time": 2727.4}}, "weekday": "wednesday", "livingplace": "St Aubin Sauges"}}, "location": "Ch\u00e9zard-St-Martin"}, "Sierre-Zinal, Sierre": {"latitude": 46.29413110000001, "longitude": 7.533536199999999, "race": "Sierre-Zinal, Sierre", "date": {"dim. 11.08.2013": {"year": 2013, "day": 11, "month": 8, "categories": {"Elites": {"distance": 31, "rank": 202, "pace": 476000000000, "time": 14762.6}}, "weekday": "sunday", "livingplace": "St Aubin Sauges"}}, "location": "Sierre"}, "BCN Tour #1 Corcelles": {"latitude": 46.9668714, "longitude": 6.8589727, "race": "BCN Tour #1 Corcelles", "date": {"mer. 24.04.2013": {"year": 2013, "day": 24, "month": 4, "categories": {"HS1": {"distance": 10, "rank": 46, "pace": 258000000000, "time": 2535.8}}, "weekday": "wednesday", "livingplace": "St Aubin Sauges"}}, "location": "Colombier NE"}, "BCN Tour Auvernier": {"latitude": 46.9668714, "longitude": 6.8589727, "race": "BCN Tour Auvernier", "date": {"mer. 20.04.2011": {"year": 2011, "day": 20, "month": 4, "categories": {"HS1": {"distance": 11, "rank": 71, "pace": 281000000000, "time": 3042.9}}, "weekday": "wednesday", "livingplace": "St Aubin Sauges"}}, "location": "Colombier NE"}, "BCN Tour #4 Fleurier": {"latitude": 47.1034892, "longitude": 6.832783800000001, "race": "BCN Tour #4 Fleurier", "date": {"mer. 15.05.2013": {"year": 2013, "day": 15, "month": 5, "categories": {"HS1": {"distance": 9, "rank": 32, "pace": 253000000000, "time": 2188.6}}, "weekday": "wednesday", "livingplace": "St Aubin Sauges"}}, "location": "La Chaux-de-Fonds"}, "BCN Tour #2 La Chaux-de-Fonds": {"latitude": 47.0624261, "longitude": 6.9175754, "race": "BCN Tour #2 La Chaux-de-Fonds", "date": {"mer. 01.05.2013": {"year": 2013, "day": 1, "month": 5, "categories": {"HS1": {"distance": 11, "rank": 52, "pace": 254000000000, "time": 2726.6}}, "weekday": "wednesday", "livingplace": "St Aubin Sauges"}}, "location": "Ch\u00e9zard-St-Martin"}, "BCN Tour Les Ponts de Martel": {"latitude": 46.9262933, "longitude": 6.6324944, "race": "BCN Tour Les Ponts de Martel", "date": {"mer. 18.05.2011": {"year": 2011, "day": 18, "month": 5, "categories": {"HS1": {"distance": 13, "rank": 66, "pace": 279000000000, "time": 3572.1}}, "weekday": "wednesday", "livingplace": "St Aubin Sauges"}}, "location": "Couvet"}, "BCN Tour La Chaux-de-Fonds": {"latitude": 47.1034892, "longitude": 6.832783800000001, "race": "BCN Tour La Chaux-de-Fonds", "date": {"mer. 11.05.2011": {"year": 2011, "day": 11, "month": 5, "categories": {"HS1": {"distance": 11, "rank": 90, "pace": 317000000000, "time": 3402.1}}, "weekday": "wednesday", "livingplace": "St Aubin Sauges"}}, "location": "La Chaux-de-Fonds"}, "BCN Tour #6 Neuch\u00e2tel": {"latitude": 46.9899874, "longitude": 6.9292732, "race": "BCN Tour #6 Neuch\u00e2tel", "date": {"mer. 29.05.2013": {"year": 2013, "day": 29, "month": 5, "categories": {"HS1": {"distance": 11, "rank": 33, "pace": 260000000000, "time": 2865.9}}, "weekday": "wednesday", "livingplace": "St Aubin Sauges"}}, "location": "Neuch\u00e2tel"}, "BCN Tour La Br\u00e9vine": {"latitude": 46.999113, "longitude": 6.733554799999999, "race": "BCN Tour La Br\u00e9vine", "date": {"mer. 04.05.2011": {"year": 2011, "day": 4, "month": 5, "categories": {"HS1": {"distance": 10, "rank": 80, "pace": 279000000000, "time": 2798.4}}, "weekday": "wednesday", "livingplace": "St Aubin Sauges"}}, "location": "Les Ponts-de-Martel"}, "BCN Tour Neuch\u00e2tel": {"latitude": 46.9899874, "longitude": 6.9292732, "race": "BCN Tour Neuch\u00e2tel", "date": {"mer. 26.05.2010": {"year": 2010, "day": 26, "month": 5, "categories": {"HS1": {"distance": 10, "rank": 68, "pace": 289000000000, "time": 2805.1}}, "weekday": "wednesday", "livingplace": "St Aubin Sauges"}, "mer. 25.05.2011": {"year": 2011, "day": 25, "month": 5, "categories": {"HS1": {"distance": 11, "rank": 75, "pace": 272000000000, "time": 3112.0}}, "weekday": "wednesday", "livingplace": "St Aubin Sauges"}}, "location": "Neuch\u00e2tel"}, "Lausanne Marathon": {"latitude": 46.5196535, "longitude": 6.6322734, "race": "Lausanne Marathon", "date": {"dim. 28.10.2012": {"year": 2012, "day": 28, "month": 10, "categories": {"42-H2": {"distance": 42, "rank": 180, "pace": 338000000000, "time": 14286.1}}, "weekday": "sunday", "livingplace": "St Aubin Sauges"}}, "location": "Lausanne"}, "BCN Tour #5 Colombier": {"latitude": 46.9262933, "longitude": 6.6324944, "race": "BCN Tour #5 Colombier", "date": {"mer. 22.05.2013": {"year": 2013, "day": 22, "month": 5, "categories": {"HS1": {"distance": 11, "rank": 53, "pace": 240000000000, "time": 2521.9}}, "weekday": "wednesday", "livingplace": "St Aubin Sauges"}}, "location": "Couvet"}, "BCN Tour La Chaux-de-fonds": {"latitude": 47.1034892, "longitude": 6.832783800000001, "race": "BCN Tour La Chaux-de-fonds", "date": {"mer. 12.05.2010": {"year": 2010, "day": 12, "month": 5, "categories": {"HS1": {"distance": 11, "rank": 70, "pace": 338000000000, "time": 3623.9}}, "weekday": "wednesday", "livingplace": "St Aubin Sauges"}}, "location": "La Chaux-de-Fonds"}, "BCN Tour Colombier": {"latitude": 46.9668714, "longitude": 6.8589727, "race": "BCN Tour Colombier", "date": {"mer. 21.04.2010": {"year": 2010, "day": 21, "month": 4, "categories": {"HS1": {"distance": 10, "rank": 54, "pace": 295000000000, "time": 2955.3}}, "weekday": "wednesday", "livingplace": "St Aubin Sauges"}}, "location": "Colombier NE"}, "BCN Tour #3 Dombresson": {"latitude": 46.999113, "longitude": 6.733554799999999, "race": "BCN Tour #3 Dombresson", "date": {"mer. 08.05.2013": {"year": 2013, "day": 8, "month": 5, "categories": {"HS1": {"distance": 10, "rank": 42, "pace": 250000000000, "time": 2479.8}}, "weekday": "wednesday", "livingplace": "St Aubin Sauges"}}, "location": "Les Ponts-de-Martel"}}, "birth": 1978}