{"name": "Walliser Annette", "sex": "F", "races": {"Kerzerslauf": {"latitude": 46.97488999999999, "longitude": 7.1954365, "race": "Kerzerslauf", "date": {"sam. 21.03.2015": {"year": 2015, "day": 21, "month": 3, "categories": {"15-F45": {"distance": 15, "rank": 226, "pace": 370000000000, "time": 5563.1}}, "weekday": "saturday", "livingplace": "Cugy"}}, "location": "Kerzers"}, "20km de Lausanne": {"latitude": 46.5196535, "longitude": 6.6322734, "race": "20km de Lausanne", "date": {"sam. 26.04.2014": {"year": 2014, "day": 26, "month": 4, "categories": {"20-F45": {"distance": 20, "rank": 60, "pace": 343000000000, "time": 6867.1}}, "weekday": "saturday", "livingplace": "Bcv"}}, "location": "Lausanne"}, "Morat-Fribourg": {"latitude": 46.92922110000001, "longitude": 7.120184, "race": "Morat-Fribourg", "date": {"sam. 04.10.2014": {"year": 2014, "day": 4, "month": 10, "categories": {"17-W45": {"distance": 17, "rank": 207, "pace": 386000000000, "time": 6630.0}}, "weekday": "saturday", "livingplace": "Cugy"}}, "location": "Murten"}, "Les Traine-Savates, Cheseaux-sur-Lausanne": {"latitude": 46.585452, "longitude": 6.6047712, "race": "Les Traine-Savates, Cheseaux-sur-Lausanne", "date": {"sam. 12.04.2014": {"year": 2014, "day": 12, "month": 4, "categories": {"10-W40": {"distance": 10, "rank": 43, "pace": 333000000000, "time": 3431.3}}, "weekday": "saturday", "livingplace": "Cugy"}}, "location": "Cheseaux-sur-Lausanne"}, "Schweizer Frauenlauf Bern": {"latitude": 46.9479739, "longitude": 7.4474468, "race": "Schweizer Frauenlauf Bern", "date": {"dim. 15.06.2003": {"year": 2003, "day": 15, "month": 6, "categories": {"W35": {"distance": 5, "rank": 909, "pace": 357000000000, "time": 1789.0}}, "weekday": "sunday", "livingplace": "Cugy"}}, "location": "Bern"}}, "birth": 1967}