{"name": "Walt Daniel", "sex": "M", "races": {"Kerzerslauf": {"latitude": 46.97488999999999, "longitude": 7.1954365, "race": "Kerzerslauf", "date": {"sam. 18.03.2000": {"year": 2000, "day": 18, "month": 3, "categories": {"M20": {"distance": 15, "rank": 69, "pace": 215000000000, "time": 3233.4}}, "weekday": "saturday", "livingplace": "Fiesch"}, "sam. 17.03.2012": {"year": 2012, "day": 17, "month": 3, "categories": {"15-M35": {"distance": 15, "rank": 31, "pace": 233000000000, "time": 3509.5}}, "weekday": "saturday", "livingplace": "Uster"}, "sam. 17.03.2001": {"year": 2001, "day": 17, "month": 3, "categories": {"M20": {"distance": 15, "rank": 88, "pace": 228000000000, "time": 3434.5}}, "weekday": "saturday", "livingplace": "Fiesch"}}, "location": "Kerzers"}, "Neujahrsmarathon Z\u00fcrich, Schlieren": {"latitude": 47.3982611, "longitude": 8.448795, "race": "Neujahrsmarathon Z\u00fcrich, Schlieren", "date": {"jeu. 01.01.2009": {"year": 2009, "day": 1, "month": 1, "categories": {"1/2MaraM": {"distance": 21, "rank": 3, "pace": 252000000000, "time": 5318.3}}, "weekday": "thursday", "livingplace": "Uster"}}, "location": "Schlieren"}, "M\u00e4nned\u00f6rfler Waldlauf": {"latitude": 47.2574625, "longitude": 8.6946733, "race": "M\u00e4nned\u00f6rfler Waldlauf", "date": {"sam. 29.03.2014": {"year": 2014, "day": 29, "month": 3, "categories": {"C": {"distance": 12, "rank": 16, "pace": 238000000000, "time": 2742.1}}, "weekday": "saturday", "livingplace": "Uster"}}, "location": "M\u00e4nnedorf"}, "GP der Stadt D\u00fcbendorf": {"latitude": 47.3971476, "longitude": 8.618012799999999, "race": "GP der Stadt D\u00fcbendorf", "date": {"sam. 12.04.2014": {"year": 2014, "day": 12, "month": 4, "categories": {"C": {"distance": 10, "rank": 12, "pace": 229000000000, "time": 2291.7}}, "weekday": "saturday", "livingplace": "Uster"}}, "location": "D\u00fcbendorf"}, "Jungfrau-Marathon, Interlaken": {"latitude": NaN, "longitude": NaN, "race": "Jungfrau-Marathon, Interlaken", "date": {"sam. 09.09.2006": {"year": 2006, "day": 9, "month": 9, "categories": {"M20": {"distance": 42, "rank": 27, "pace": 313000000000, "time": 13240.3}}, "weekday": "saturday", "livingplace": "Uster"}}, "location": "Interlaken"}, "Dietiker Neujahrslauf, Dietikon": {"latitude": 47.4053885, "longitude": 8.39977, "race": "Dietiker Neujahrslauf, Dietikon", "date": {"sam. 10.01.2015": {"year": 2015, "day": 10, "month": 1, "categories": {"C": {"distance": 12, "rank": 26, "pace": 233000000000, "time": 2819.8}}, "weekday": "saturday", "livingplace": "Uster"}}, "location": "Dietikon"}, "10km Schweizer Meisterschaften Lyss": {"latitude": 47.0746504, "longitude": 7.3077022, "race": "10km Schweizer Meisterschaften Lyss", "date": {"sam. 31.03.2012": {"year": 2012, "day": 31, "month": 3, "categories": {"10-M35": {"distance": 10, "rank": 21, "pace": 222000000000, "time": 2229.7}}, "weekday": "saturday", "livingplace": "Uster"}}, "location": "Lyss"}, "Int Greifenseelauf, Uster": {"latitude": 47.3482747, "longitude": 8.717873899999999, "race": "Int Greifenseelauf, Uster", "date": {"sam. 16.09.2006": {"year": 2006, "day": 16, "month": 9, "categories": {"H/M30": {"distance": 21, "rank": 15, "pace": 226000000000, "time": 4789.1}}, "weekday": "saturday", "livingplace": "Uster"}, "sam. 17.09.2005": {"year": 2005, "day": 17, "month": 9, "categories": {"H/M30": {"distance": 21, "rank": 19, "pace": 224000000000, "time": 4728.2}}, "weekday": "saturday", "livingplace": "Uster"}}, "location": "Uster"}, "Z\u00fcrcher Silvesterlauf, Z\u00fcrich": {"latitude": 47.3768866, "longitude": 8.541694, "race": "Z\u00fcrcher Silvesterlauf, Z\u00fcrich", "date": {"dim. 14.12.2008": {"year": 2008, "day": 14, "month": 12, "categories": {"MenAK1-8": {"distance": 9, "rank": 39, "pace": 219000000000, "time": 1891.4}}, "weekday": "sunday", "livingplace": "Uster"}}, "location": "Z\u00fcrich"}, "Z\u00fcrich Marathon, Teamrun und Cityrun": {"latitude": 47.3768866, "longitude": 8.541694, "race": "Z\u00fcrich Marathon, Teamrun und Cityrun", "date": {"dim. 01.04.2007": {"year": 2007, "day": 1, "month": 4, "categories": {"M30": {"distance": 42, "rank": 21, "pace": 231000000000, "time": 9757.6}}, "weekday": "sunday", "livingplace": "Uster"}}, "location": "Z\u00fcrich"}}, "birth": 1973}