{"name": "Weber Yvan", "sex": "M", "races": {"Tour du Pays de Vaud printanier #2 Yverdon-les-Bains": {"latitude": 46.6698891, "longitude": 6.7975224, "race": "Tour du Pays de Vaud printanier #2 Yverdon-les-Bains", "date": {"mer. 11.06.2014": {"year": 2014, "day": 11, "month": 6, "categories": {"H-Sen2": {"distance": 9, "rank": 45, "pace": 347000000000, "time": 3164.5}}, "weekday": "wednesday", "livingplace": "Blonay"}}, "location": "Moudon"}, "Morat-Fribourg": {"latitude": 46.92922110000001, "longitude": 7.120184, "race": "Morat-Fribourg", "date": {"sam. 03.10.2015": {"year": 2015, "day": 3, "month": 10, "categories": {"8-JoggM": {"distance": 9, "rank": 105, "pace": 314000000000, "time": 2731.2}}, "weekday": "saturday", "livingplace": "Blonay"}, "sam. 04.10.2014": {"year": 2014, "day": 4, "month": 10, "categories": {"8-JoggM": {"distance": 9, "rank": 104, "pace": 302000000000, "time": 2628.6}}, "weekday": "saturday", "livingplace": "Blonay"}}, "location": "Murten"}, "20km de Lausanne": {"latitude": 46.5196535, "longitude": 6.6322734, "race": "20km de Lausanne", "date": {"sam. 25.04.2015": {"year": 2015, "day": 25, "month": 4, "categories": {"10-H50": {"distance": 10, "rank": 120, "pace": 302000000000, "time": 3029.7}}, "weekday": "saturday", "livingplace": "Blonay"}, "sam. 26.04.2014": {"year": 2014, "day": 26, "month": 4, "categories": {"10-H45": {"distance": 10, "rank": 226, "pace": 317000000000, "time": 3175.3}}, "weekday": "saturday", "livingplace": "Blonay"}}, "location": "Lausanne"}, "Tour du Pays de Vaud printanier #1 Moudon": {"latitude": 46.3832683, "longitude": 6.2347852, "race": "Tour du Pays de Vaud printanier #1 Moudon", "date": {"mer. 04.06.2014": {"year": 2014, "day": 4, "month": 6, "categories": {"H-Sen2": {"distance": 8, "rank": 46, "pace": 333000000000, "time": 2801.6}}, "weekday": "wednesday", "livingplace": "Blonay"}}, "location": "Nyon"}, "Tour du Pays de Vaud #3, Chavornay": {"latitude": 46.7784736, "longitude": 6.641183, "race": "Tour du Pays de Vaud #3, Chavornay", "date": {"mer. 27.08.2014": {"year": 2014, "day": 27, "month": 8, "categories": {"H-Sen2": {"distance": 9, "rank": 102, "pace": 325000000000, "time": 2798.5}}, "weekday": "wednesday", "livingplace": "Blonay"}}, "location": "Yverdon-les-Bains"}, "Tour du Chablais #1 Martigny": {"latitude": 46.2957462, "longitude": 6.9916269, "race": "Tour du Chablais #1 Martigny", "date": {"mer. 23.04.2014": {"year": 2014, "day": 23, "month": 4, "categories": {"M-M40": {"distance": 9, "rank": 109, "pace": 305000000000, "time": 2596.6}}, "weekday": "wednesday", "livingplace": "Blonay"}}, "location": "Ollon VD"}, "Montreux - Les Rochers de Naye": {"latitude": 46.4312213, "longitude": 6.9106799, "race": "Montreux - Les Rochers de Naye", "date": {"dim. 05.07.2015": {"year": 2015, "day": 5, "month": 7, "categories": {"C-HV\u00e9t2": {"distance": 10, "rank": 7, "pace": 563000000000, "time": 5349.9}}, "weekday": "sunday", "livingplace": "Blonay"}}, "location": "Montreux"}, "Tour du Pays de Vaud #4, La Sarraz": {"latitude": 46.7088129, "longitude": 6.5707689, "race": "Tour du Pays de Vaud #4, La Sarraz", "date": {"mer. 03.09.2014": {"year": 2014, "day": 3, "month": 9, "categories": {"H-Sen2": {"distance": 9, "rank": 85, "pace": 309000000000, "time": 2634.9}}, "weekday": "wednesday", "livingplace": "Blonay"}}, "location": "Chavornay"}, "Tour du Pays de Vaud printanier #3 - Yens": {"latitude": 46.7829756, "longitude": 6.5728678, "race": "Tour du Pays de Vaud printanier #3 - Yens", "date": {"mer. 18.06.2014": {"year": 2014, "day": 18, "month": 6, "categories": {"H-Sen2": {"distance": 9, "rank": 61, "pace": 321000000000, "time": 2926.3}}, "weekday": "wednesday", "livingplace": "Blonay"}}, "location": "Champvent"}, "Tour du Pays de Vaud #2 - Mezi\u00e8res": {"latitude": 46.5955273, "longitude": 6.7702883, "race": "Tour du Pays de Vaud #2 - Mezi\u00e8res", "date": {"mer. 21.08.2013": {"year": 2013, "day": 21, "month": 8, "categories": {"H-Sen2": {"distance": 8, "rank": 162, "pace": 387000000000, "time": 3138.3}}, "weekday": "wednesday", "livingplace": "Blonay"}}, "location": "M\u00e9zi\u00e8res VD"}, "Tour du Pays de Vaud #2, Mezi\u00e8res": {"latitude": 46.5955273, "longitude": 6.7702883, "race": "Tour du Pays de Vaud #2, Mezi\u00e8res", "date": {"mer. 20.08.2014": {"year": 2014, "day": 20, "month": 8, "categories": {"H-Sen2": {"distance": 8, "rank": 80, "pace": 340000000000, "time": 2759.4}}, "weekday": "wednesday", "livingplace": "Blonay"}}, "location": "M\u00e9zi\u00e8res VD"}, "Tour du Pays de Vaud #3 - Chavornay": {"latitude": 46.7784736, "longitude": 6.641183, "race": "Tour du Pays de Vaud #3 - Chavornay", "date": {"mer. 28.08.2013": {"year": 2013, "day": 28, "month": 8, "categories": {"H-Sen2": {"distance": 9, "rank": 173, "pace": 350000000000, "time": 3115.0}}, "weekday": "wednesday", "livingplace": "Blonay"}}, "location": "Yverdon-les-Bains"}, "Lausanne Marathon": {"latitude": 46.5196535, "longitude": 6.6322734, "race": "Lausanne Marathon", "date": {"sam. 24.10.2015": {"year": 2015, "day": 24, "month": 10, "categories": {"10-H50": {"distance": 10, "rank": 138, "pace": 297000000000, "time": 2976.7}}, "weekday": "saturday", "livingplace": "Blonay"}, "dim. 26.10.2014": {"year": 2014, "day": 26, "month": 10, "categories": {"10-H40": {"distance": 10, "rank": 204, "pace": 285000000000, "time": 2855.5}}, "weekday": "sunday", "livingplace": "Blonay"}, "dim. 27.10.2013": {"year": 2013, "day": 27, "month": 10, "categories": {"10-H3": {"distance": 10, "rank": 340, "pace": 327000000000, "time": 3270.7}}, "weekday": "sunday", "livingplace": "Blonay"}}, "location": "Lausanne"}, "Course de l'Escalade, Gen\u00e8ve": {"latitude": 46.2043907, "longitude": 6.1431577, "race": "Course de l'Escalade, Gen\u00e8ve", "date": {"sam. 05.12.2015": {"year": 2015, "day": 5, "month": 12, "categories": {"Mix3-H": {"distance": 7, "rank": 455, "pace": 312000000000, "time": 2286.9}}, "weekday": "saturday", "livingplace": "Blonay"}}, "location": "Gen\u00e8ve"}, "Tour du Pays de Vaud #4 - La Sarraz": {"latitude": 46.7088129, "longitude": 6.5707689, "race": "Tour du Pays de Vaud #4 - La Sarraz", "date": {"mer. 04.09.2013": {"year": 2013, "day": 4, "month": 9, "categories": {"H-Sen2": {"distance": 9, "rank": 175, "pace": 358000000000, "time": 3050.8}}, "weekday": "wednesday", "livingplace": "Blonay"}}, "location": "Chavornay"}}, "birth": 1965}