{"name": "Weedon Russ", "sex": "M", "races": {"ASICS Bremgarter Reusslauf": {"latitude": 47.34917739999999, "longitude": 8.3397905, "race": "ASICS Bremgarter Reusslauf", "date": {"sam. 26.02.2011": {"year": 2011, "day": 26, "month": 2, "categories": {"M30": {"distance": 11, "rank": 76, "pace": 230000000000, "time": 2530.2}}, "weekday": "saturday", "livingplace": "Boll"}}, "location": "Bremgarten AG"}, "Lausanne Marathon": {"latitude": 46.5196535, "longitude": 6.6322734, "race": "Lausanne Marathon", "date": {"dim. 31.10.2010": {"year": 2010, "day": 31, "month": 10, "categories": {"21-H2": {"distance": 21, "rank": 70, "pace": 247000000000, "time": 5231.6}}, "weekday": "sunday", "livingplace": "Boll"}}, "location": "Lausanne"}, "Aletsch-Halbmarathon, Bettmeralp": {"latitude": NaN, "longitude": NaN, "race": "Aletsch-Halbmarathon, Bettmeralp", "date": {"dim. 28.06.2009": {"year": 2009, "day": 28, "month": 6, "categories": {"M30": {"distance": 21, "rank": 75, "pace": 399000000000, "time": 8392.4}}, "weekday": "sunday", "livingplace": "Bern"}}, "location": "Bettmeralp"}, "Gurtenclassic, Wabern": {"latitude": 46.92901639999999, "longitude": 7.448973199999999, "race": "Gurtenclassic, Wabern", "date": {"dim. 01.11.2009": {"year": 2009, "day": 1, "month": 11, "categories": {"M33": {"distance": 15, "rank": 39, "pace": 291000000000, "time": 4377.5}}, "weekday": "sunday", "livingplace": "Bern"}}, "location": "Wabern"}, "Kerzerslauf": {"latitude": 46.97488999999999, "longitude": 7.1954365, "race": "Kerzerslauf", "date": {"sam. 20.03.2010": {"year": 2010, "day": 20, "month": 3, "categories": {"15-M35": {"distance": 15, "rank": 83, "pace": 243000000000, "time": 3647.6}}, "weekday": "saturday", "livingplace": "Boll"}}, "location": "Kerzers"}, "Z\u00fcrich Marathon, Teamrun und Cityrun": {"latitude": 47.3768866, "longitude": 8.541694, "race": "Z\u00fcrich Marathon, Teamrun und Cityrun", "date": {"dim. 11.04.2010": {"year": 2010, "day": 11, "month": 4, "categories": {"M30": {"distance": 42, "rank": 117, "pace": 269000000000, "time": 11380.3}}, "weekday": "sunday", "livingplace": "Boll"}}, "location": "Z\u00fcrich"}}, "birth": 1974}