{"name": "Wege Ute", "sex": "F", "races": {"Langenthaler Stadtlauf": {"latitude": 47.2120786, "longitude": 7.790562299999999, "race": "Langenthaler Stadtlauf", "date": {"sam. 18.11.2006": {"year": 2006, "day": 18, "month": 11, "categories": {"W45": {"distance": 6, "rank": 4, "pace": 367000000000, "time": 2298.0}}, "weekday": "saturday", "livingplace": "Triengen"}}, "location": "Langenthal"}, "Pfingstlauf Wohlen AG": {"latitude": 47.3493653, "longitude": 8.2768762, "race": "Pfingstlauf Wohlen AG", "date": {"sam. 03.06.2006": {"year": 2006, "day": 3, "month": 6, "categories": {"F40": {"distance": 8, "rank": 61, "pace": 361000000000, "time": 2963.7}}, "weekday": "saturday", "livingplace": "Triengen"}}, "location": "Wohlen AG"}, "Int Greifenseelauf, Uster": {"latitude": 47.3482747, "longitude": 8.717873899999999, "race": "Int Greifenseelauf, Uster", "date": {"sam. 18.09.2004": {"year": 2004, "day": 18, "month": 9, "categories": {"H/W40": {"distance": 21, "rank": 471, "pace": 393000000000, "time": 8302.5}}, "weekday": "saturday", "livingplace": "Triengen"}}, "location": "Uster"}, "Morat-Fribourg": {"latitude": 46.92922110000001, "longitude": 7.120184, "race": "Morat-Fribourg", "date": {"dim. 07.10.2001": {"year": 2001, "day": 7, "month": 10, "categories": {"W40": {"distance": 17, "rank": 168, "pace": 399000000000, "time": 6857.5}}, "weekday": "sunday", "livingplace": "Solothurn"}, "dim. 06.10.2002": {"year": 2002, "day": 6, "month": 10, "categories": {"W40": {"distance": 17, "rank": 181, "pace": 394000000000, "time": 6775.4}}, "weekday": "sunday", "livingplace": "Solothurn"}}, "location": "Murten"}, "Schweizer Frauenlauf Bern": {"latitude": 46.9479739, "longitude": 7.4474468, "race": "Schweizer Frauenlauf Bern", "date": {"dim. 10.06.2001": {"year": 2001, "day": 10, "month": 6, "categories": {"W40": {"distance": 5, "rank": 760, "pace": 331000000000, "time": 1658.0}}, "weekday": "sunday", "livingplace": "Solothurn"}}, "location": "Bern"}}, "birth": 1960}