{"name": "Wehren Line", "sex": "F", "races": {"BCN Tour La Br\u00e9vine": {"latitude": 46.999113, "longitude": 6.733554799999999, "race": "BCN Tour La Br\u00e9vine", "date": {"mer. 04.05.2011": {"year": 2011, "day": 4, "month": 5, "categories": {"DJ": {"distance": 10, "rank": 30, "pace": 366000000000, "time": 3661.7}}, "weekday": "wednesday", "livingplace": "St Sulpice"}}, "location": "Les Ponts-de-Martel"}, "BCN Tour Les Ponts-de-Martel": {"latitude": 46.999113, "longitude": 6.733554799999999, "race": "BCN Tour Les Ponts-de-Martel", "date": {"mer. 09.05.2012": {"year": 2012, "day": 9, "month": 5, "categories": {"DJ": {"distance": 10, "rank": 19, "pace": 344000000000, "time": 3543.9}}, "weekday": "wednesday", "livingplace": "St Sulpice"}}, "location": "Les Ponts-de-Martel"}, "BCN Tour Neuch\u00e2tel": {"latitude": 46.9899874, "longitude": 6.9292732, "race": "BCN Tour Neuch\u00e2tel", "date": {"mer. 30.05.2012": {"year": 2012, "day": 30, "month": 5, "categories": {"DJ": {"distance": 11, "rank": 13, "pace": 360000000000, "time": 4041.2}}, "weekday": "wednesday", "livingplace": "St Sulpice"}}, "location": "Neuch\u00e2tel"}, "BCN Tour Couvet": {"latitude": 47.0624261, "longitude": 6.9175754, "race": "BCN Tour Couvet", "date": {"mer. 02.05.2012": {"year": 2012, "day": 2, "month": 5, "categories": {"DJ": {"distance": 11, "rank": 10, "pace": 344000000000, "time": 3838.7}}, "weekday": "wednesday", "livingplace": "St Sulpice"}}, "location": "Ch\u00e9zard-St-Martin"}, "D\u00e9fi Val-de-Travers, Couvet": {"latitude": 46.9262933, "longitude": 6.6324944, "race": "D\u00e9fi Val-de-Travers, Couvet", "date": {"sam. 20.06.2009": {"year": 2009, "day": 20, "month": 6, "categories": {"FCB": {"distance": 3, "rank": 5, "pace": 283000000000, "time": 836.7}}, "weekday": "saturday", "livingplace": "St Sulpice"}, "sam. 19.06.2010": {"year": 2010, "day": 19, "month": 6, "categories": {"FCB": {"distance": 3, "rank": 3, "pace": 288000000000, "time": 850.9}}, "weekday": "saturday", "livingplace": "St Sulpice"}}, "location": "Couvet"}, "BCN Tour Fontaine Cernier": {"latitude": 47.0624261, "longitude": 6.9175754, "race": "BCN Tour Fontaine Cernier", "date": {"mer. 27.04.2011": {"year": 2011, "day": 27, "month": 4, "categories": {"DJ": {"distance": 10, "rank": 36, "pace": 389000000000, "time": 4008.7}}, "weekday": "wednesday", "livingplace": "St Sulpice"}}, "location": "Ch\u00e9zard-St-Martin"}, "BCN Tour #4 Fleurier": {"latitude": 47.1034892, "longitude": 6.832783800000001, "race": "BCN Tour #4 Fleurier", "date": {"mer. 15.05.2013": {"year": 2013, "day": 15, "month": 5, "categories": {"DJ": {"distance": 9, "rank": 18, "pace": 322000000000, "time": 2789.0}}, "weekday": "wednesday", "livingplace": "St Sulpice"}}, "location": "La Chaux-de-Fonds"}, "BCN Tour #2 La Chaux-de-Fonds": {"latitude": 47.0624261, "longitude": 6.9175754, "race": "BCN Tour #2 La Chaux-de-Fonds", "date": {"mer. 01.05.2013": {"year": 2013, "day": 1, "month": 5, "categories": {"DJ": {"distance": 11, "rank": 21, "pace": 325000000000, "time": 3484.6}}, "weekday": "wednesday", "livingplace": "St Sulpice"}}, "location": "Ch\u00e9zard-St-Martin"}}, "birth": 1995}