{"name": "Weibel Dominique", "sex": "M", "races": {"Morat-Fribourg": {"latitude": 46.92922110000001, "longitude": 7.120184, "race": "Morat-Fribourg", "date": {"dim. 07.10.2001": {"year": 2001, "day": 7, "month": 10, "categories": {"M45": {"distance": 17, "rank": 180, "pace": 286000000000, "time": 4910.7}}, "weekday": "sunday", "livingplace": "Le Brassus"}}, "location": "Murten"}, "Tour du Pays de Vaud etape 2 - Genolier": {"latitude": 46.5955273, "longitude": 6.7702883, "race": "Tour du Pays de Vaud etape 2 - Genolier", "date": {"mer. 20.08.2008": {"year": 2008, "day": 20, "month": 8, "categories": {"HomSen3": {"distance": 8, "rank": 23, "pace": 272000000000, "time": 2259.3}}, "weekday": "wednesday", "livingplace": "Le Brassus"}, "mer. 19.08.2009": {"year": 2009, "day": 19, "month": 8, "categories": {"HSen3": {"distance": 8, "rank": 18, "pace": 274000000000, "time": 2225.6}}, "weekday": "wednesday", "livingplace": "Le Brassus"}}, "location": "M\u00e9zi\u00e8res VD"}, "Tour du Pays de Vaud etape 3 - Aubonne": {"latitude": 46.7829756, "longitude": 6.5728678, "race": "Tour du Pays de Vaud etape 3 - Aubonne", "date": {"mer. 27.08.2008": {"year": 2008, "day": 27, "month": 8, "categories": {"HomSen3": {"distance": 8, "rank": 26, "pace": 295000000000, "time": 2304.1}}, "weekday": "wednesday", "livingplace": "Le Brassus"}}, "location": "Champvent"}, "Montreux - Les Rochers de Naye": {"latitude": 46.4312213, "longitude": 6.9106799, "race": "Montreux - Les Rochers de Naye", "date": {"dim. 30.06.2002": {"year": 2002, "day": 30, "month": 6, "categories": {"V\u00e9t1": {"distance": 20, "rank": 35, "pace": 442000000000, "time": 8980.1}}, "weekday": "sunday", "livingplace": "Le Brassus"}}, "location": "Montreux"}, "Tour du Pays de Vaud etape 1 - Le Mont sur Lausanne": {"latitude": 46.7784736, "longitude": 6.641183, "race": "Tour du Pays de Vaud etape 1 - Le Mont sur Lausanne", "date": {"mer. 13.08.2008": {"year": 2008, "day": 13, "month": 8, "categories": {"HomSen3": {"distance": 8, "rank": 20, "pace": 270000000000, "time": 2274.3}}, "weekday": "wednesday", "livingplace": "Le Brassus"}}, "location": "Yverdon-les-Bains"}, "20km de Lausanne": {"latitude": 46.5196535, "longitude": 6.6322734, "race": "20km de Lausanne", "date": {"sam. 25.04.2009": {"year": 2009, "day": 25, "month": 4, "categories": {"20-H50": {"distance": 20, "rank": 48, "pace": 280000000000, "time": 5613.5}}, "weekday": "saturday", "livingplace": "Le Brassus"}}, "location": "Lausanne"}, "Les Traine-Savates, Cheseaux-sur-Lausanne": {"latitude": 46.585452, "longitude": 6.6047712, "race": "Les Traine-Savates, Cheseaux-sur-Lausanne", "date": {"sam. 04.04.2009": {"year": 2009, "day": 4, "month": 4, "categories": {"Hom V2": {"distance": 10, "rank": 20, "pace": 263000000000, "time": 2742.2}}, "weekday": "saturday", "livingplace": "Le Brassus"}}, "location": "Cheseaux-sur-Lausanne"}}, "birth": 1956}