{"name": "Weible Louise", "sex": "F", "races": {"BCN Tour La Chaux-de-Fonds": {"latitude": 46.9262933, "longitude": 6.6324944, "race": "BCN Tour La Chaux-de-Fonds", "date": {"mer. 23.05.2012": {"year": 2012, "day": 23, "month": 5, "categories": {"DJ": {"distance": 11, "rank": 15, "pace": 342000000000, "time": 3696.7}}, "weekday": "wednesday", "livingplace": "Neuchatel"}}, "location": "Couvet"}, "BCN Tour Les Ponts-de-Martel": {"latitude": 46.999113, "longitude": 6.733554799999999, "race": "BCN Tour Les Ponts-de-Martel", "date": {"mer. 09.05.2012": {"year": 2012, "day": 9, "month": 5, "categories": {"DJ": {"distance": 10, "rank": 16, "pace": 335000000000, "time": 3454.9}}, "weekday": "wednesday", "livingplace": "Neuchatel"}}, "location": "Les Ponts-de-Martel"}, "BCN Tour Neuch\u00e2tel": {"latitude": 46.9899874, "longitude": 6.9292732, "race": "BCN Tour Neuch\u00e2tel", "date": {"mer. 30.05.2012": {"year": 2012, "day": 30, "month": 5, "categories": {"DJ": {"distance": 11, "rank": 17, "pace": 365000000000, "time": 4091.5}}, "weekday": "wednesday", "livingplace": "Neuchatel"}}, "location": "Neuch\u00e2tel"}, "20km de Lausanne": {"latitude": 46.5196535, "longitude": 6.6322734, "race": "20km de Lausanne", "date": {"sam. 25.04.2015": {"year": 2015, "day": 25, "month": 4, "categories": {"20-F20": {"distance": 20, "rank": 85, "pace": 312000000000, "time": 6259.9}}, "weekday": "saturday", "livingplace": "Se bouger pour sa sante 4"}, "sam. 28.04.2012": {"year": 2012, "day": 28, "month": 4, "categories": {"20-Fesp": {"distance": 20, "rank": 4, "pace": 333000000000, "time": 6666.2}}, "weekday": "saturday", "livingplace": "Neuchatel"}, "sam. 26.04.2014": {"year": 2014, "day": 26, "month": 4, "categories": {"20-F20": {"distance": 20, "rank": 132, "pace": 349000000000, "time": 6987.1}}, "weekday": "saturday", "livingplace": "Se bouger pour sa sante 6"}}, "location": "Lausanne"}, "BCN Tour Couvet": {"latitude": 47.0624261, "longitude": 6.9175754, "race": "BCN Tour Couvet", "date": {"mer. 02.05.2012": {"year": 2012, "day": 2, "month": 5, "categories": {"DJ": {"distance": 11, "rank": 9, "pace": 340000000000, "time": 3799.8}}, "weekday": "wednesday", "livingplace": "Neuchatel"}}, "location": "Ch\u00e9zard-St-Martin"}, "BCN Tour Colombier": {"latitude": 47.1034892, "longitude": 6.832783800000001, "race": "BCN Tour Colombier", "date": {"mer. 16.05.2012": {"year": 2012, "day": 16, "month": 5, "categories": {"DJ": {"distance": 11, "rank": 15, "pace": 334000000000, "time": 3613.2}}, "weekday": "wednesday", "livingplace": "Neuchatel"}}, "location": "La Chaux-de-Fonds"}}, "birth": 1993}