{"name": "Welsh Brian", "sex": "M", "races": {"Lausanne Marathon": {"latitude": 46.5196535, "longitude": 6.6322734, "race": "Lausanne Marathon", "date": {"dim. 26.10.2014": {"year": 2014, "day": 26, "month": 10, "categories": {"21-H50": {"distance": 21, "rank": 149, "pace": 300000000000, "time": 6330.3}}, "weekday": "sunday", "livingplace": "Glion"}}, "location": "Lausanne"}, "Montreux - Les Rochers de Naye": {"latitude": 46.4312213, "longitude": 6.9106799, "race": "Montreux - Les Rochers de Naye", "date": {"dim. 05.07.2015": {"year": 2015, "day": 5, "month": 7, "categories": {"M-HV\u00e9t2": {"distance": 19, "rank": 40, "pace": 535000000000, "time": 10065.2}}, "weekday": "sunday", "livingplace": "Glion"}}, "location": "Montreux"}, "Tour du Pays de Vaud #1, Penthaz": {"latitude": 46.5993131, "longitude": 6.539251200000001, "race": "Tour du Pays de Vaud #1, Penthaz", "date": {"mer. 13.08.2014": {"year": 2014, "day": 13, "month": 8, "categories": {"H-Sen3": {"distance": 9, "rank": 35, "pace": 298000000000, "time": 2542.9}}, "weekday": "wednesday", "livingplace": "Glion"}}, "location": "Penthaz"}, "Tour du Pays de Vaud #2, Mezi\u00e8res": {"latitude": 46.5955273, "longitude": 6.7702883, "race": "Tour du Pays de Vaud #2, Mezi\u00e8res", "date": {"mer. 20.08.2014": {"year": 2014, "day": 20, "month": 8, "categories": {"H-Sen3": {"distance": 8, "rank": 46, "pace": 327000000000, "time": 2650.6}}, "weekday": "wednesday", "livingplace": "Glion"}}, "location": "M\u00e9zi\u00e8res VD"}, "Tour du Pays de Vaud #3, Chavornay": {"latitude": 46.7784736, "longitude": 6.641183, "race": "Tour du Pays de Vaud #3, Chavornay", "date": {"mer. 27.08.2014": {"year": 2014, "day": 27, "month": 8, "categories": {"H-Sen3": {"distance": 9, "rank": 38, "pace": 303000000000, "time": 2611.4}}, "weekday": "wednesday", "livingplace": "Glion"}}, "location": "Yverdon-les-Bains"}}, "birth": 1957}