{"name": "Werder Cornel", "sex": "M", "races": {"Lucerne Marathon, Luzern": {"latitude": 47.05016819999999, "longitude": 8.3093072, "race": "Lucerne Marathon, Luzern", "date": {"dim. 31.10.2010": {"year": 2010, "day": 31, "month": 10, "categories": {"H-M40": {"distance": 21, "rank": 959, "pace": 335000000000, "time": 7077.6}}, "weekday": "sunday", "livingplace": "Latti"}, "dim. 30.10.2011": {"year": 2011, "day": 30, "month": 10, "categories": {"H-M40": {"distance": 21, "rank": 1042, "pace": 331000000000, "time": 6991.8}}, "weekday": "sunday", "livingplace": "Latti"}}, "location": "Luzern"}, "Derendinger Abendlauf, Derendingen": {"latitude": 47.1952433, "longitude": 7.585593099999999, "race": "Derendinger Abendlauf, Derendingen", "date": {"ven. 29.06.2012": {"year": 2012, "day": 29, "month": 6, "categories": {"M40": {"distance": 10, "rank": 41, "pace": 292000000000, "time": 2980.3}}, "weekday": "friday", "livingplace": "Latti"}}, "location": "Derendingen"}, "SwissCityMarathon - Lucerne, Luzern": {"latitude": 47.05016819999999, "longitude": 8.3093072, "race": "SwissCityMarathon - Lucerne, Luzern", "date": {"dim. 25.10.2015": {"year": 2015, "day": 25, "month": 10, "categories": {"H-M45": {"distance": 21, "rank": 268, "pace": 299000000000, "time": 6319.7}}, "weekday": "sunday", "livingplace": "Latti"}, "dim. 27.10.2013": {"year": 2013, "day": 27, "month": 10, "categories": {"H-M40": {"distance": 21, "rank": 418, "pace": 288000000000, "time": 6095.0}}, "weekday": "sunday", "livingplace": "Latti"}}, "location": "Luzern"}, "Kerzerslauf": {"latitude": 46.97488999999999, "longitude": 7.1954365, "race": "Kerzerslauf", "date": {"sam. 15.03.2014": {"year": 2014, "day": 15, "month": 3, "categories": {"15-M40": {"distance": 15, "rank": 131, "pace": 260000000000, "time": 3900.7}}, "weekday": "saturday", "livingplace": "Latti"}, "sam. 16.03.2013": {"year": 2013, "day": 16, "month": 3, "categories": {"15-M40": {"distance": 15, "rank": 379, "pace": 321000000000, "time": 4820.1}}, "weekday": "saturday", "livingplace": "Latti"}}, "location": "Kerzers"}, "Emmenlauf Utzenstorf": {"latitude": 47.12816670000001, "longitude": 7.5588034, "race": "Emmenlauf Utzenstorf", "date": {"mer. 15.08.2012": {"year": 2012, "day": 15, "month": 8, "categories": {"Herren3": {"distance": 11, "rank": 55, "pace": 275000000000, "time": 2892.3}}, "weekday": "wednesday", "livingplace": "Latti"}}, "location": "Utzenstorf"}, "Z\u00fcrich Marathon, Teamrun und Cityrun": {"latitude": 47.3768866, "longitude": 8.541694, "race": "Z\u00fcrich Marathon, Teamrun und Cityrun", "date": {"dim. 06.04.2014": {"year": 2014, "day": 6, "month": 4, "categories": {"42-M40": {"distance": 42, "rank": 153, "pace": 298000000000, "time": 12588.3}}, "weekday": "sunday", "livingplace": "Latti"}}, "location": "Z\u00fcrich"}}, "birth": 1970}