{"name": "Wettstein Matthias", "sex": "M", "races": {"Lenzburger Lauf": {"latitude": 47.3904443, "longitude": 8.172154500000001, "race": "Lenzburger Lauf", "date": {"sam. 23.05.2009": {"year": 2009, "day": 23, "month": 5, "categories": {"M20": {"distance": 12, "rank": 18, "pace": 329000000000, "time": 3817.4}}, "weekday": "saturday", "livingplace": "Remetschwil"}}, "location": "Lenzburg"}, "ASICS Bremgarter Reusslauf": {"latitude": 47.34917739999999, "longitude": 8.3397905, "race": "ASICS Bremgarter Reusslauf", "date": {"sam. 23.02.2008": {"year": 2008, "day": 23, "month": 2, "categories": {"M20": {"distance": 11, "rank": 107, "pace": 289000000000, "time": 3179.6}}, "weekday": "saturday", "livingplace": "Remetschwil"}}, "location": "Bremgarten AG"}, "Badener Limmat-Lauf, Baden": {"latitude": 48.5699281, "longitude": 8.5303972, "race": "Badener Limmat-Lauf, Baden", "date": {"sam. 28.03.2009": {"year": 2009, "day": 28, "month": 3, "categories": {"M20": {"distance": 13, "rank": 31, "pace": 314000000000, "time": 4154.9}}, "weekday": "saturday", "livingplace": "Remetschwil"}}, "location": "Baden"}, "GP Fricktal, Eiken": {"latitude": NaN, "longitude": NaN, "race": "GP Fricktal, Eiken", "date": {"sam. 11.04.2009": {"year": 2009, "day": 11, "month": 4, "categories": {"M20": {"distance": 16, "rank": 27, "pace": 311000000000, "time": 5016.5}}, "weekday": "saturday", "livingplace": "Remetschwil"}, "sam. 22.03.2008": {"year": 2008, "day": 22, "month": 3, "categories": {"M20": {"distance": 16, "rank": 43, "pace": 327000000000, "time": 5275.9}}, "weekday": "saturday", "livingplace": "Remetschwil"}}, "location": "Eiken"}, "Kerzerslauf": {"latitude": 46.97488999999999, "longitude": 7.1954365, "race": "Kerzerslauf", "date": {"sam. 21.03.2009": {"year": 2009, "day": 21, "month": 3, "categories": {"15-M20": {"distance": 15, "rank": 502, "pace": 328000000000, "time": 4929.4}}, "weekday": "saturday", "livingplace": "Remetschwil"}}, "location": "Kerzers"}, "Z\u00fcrich Marathon, Teamrun und Cityrun": {"latitude": 47.3768866, "longitude": 8.541694, "race": "Z\u00fcrich Marathon, Teamrun und Cityrun", "date": {"dim. 26.04.2009": {"year": 2009, "day": 26, "month": 4, "categories": {"M20": {"distance": 42, "rank": 347, "pace": 393000000000, "time": 16615.1}}, "weekday": "sunday", "livingplace": "Remetschwil"}}, "location": "Z\u00fcrich"}}, "birth": 1987}