{"name": "Wey Mirjam", "sex": "F", "races": {"Lucerne Marathon, Luzern": {"latitude": 47.05016819999999, "longitude": 8.3093072, "race": "Lucerne Marathon, Luzern", "date": {"dim. 25.10.2009": {"year": 2009, "day": 25, "month": 10, "categories": {"H-F40": {"distance": 21, "rank": 231, "pace": 336000000000, "time": 7095.1}}, "weekday": "sunday", "livingplace": "Nuglar"}, "dim. 28.10.2012": {"year": 2012, "day": 28, "month": 10, "categories": {"M-F40": {"distance": 42, "rank": 61, "pace": 362000000000, "time": 15289.6}}, "weekday": "sunday", "livingplace": "Nuglar"}}, "location": "Luzern"}, "IWB Basel Marathon": {"latitude": 47.5595986, "longitude": 7.5885761, "race": "IWB Basel Marathon", "date": {"dim. 23.09.2012": {"year": 2012, "day": 23, "month": 9, "categories": {"H-21-F45": {"distance": 21, "rank": 17, "pace": 337000000000, "time": 7111.2}}, "weekday": "sunday", "livingplace": "Nuglar"}}, "location": "Basel"}, "Jungfrau-Marathon, Interlaken": {"latitude": NaN, "longitude": NaN, "race": "Jungfrau-Marathon, Interlaken", "date": {"sam. 11.09.2004": {"year": 2004, "day": 11, "month": 9, "categories": {"F20": {"distance": 42, "rank": 164, "pace": 472000000000, "time": 19927.5}}, "weekday": "saturday", "livingplace": "Nuglar"}, "sam. 10.09.2011": {"year": 2011, "day": 10, "month": 9, "categories": {"F45": {"distance": 42, "rank": 128, "pace": 508000000000, "time": 21442.8}}, "weekday": "saturday", "livingplace": "Nuglar"}}, "location": "Interlaken"}, "Basel City Marathon": {"latitude": 47.5595986, "longitude": 7.5885761, "race": "Basel City Marathon", "date": {"dim. 28.08.2005": {"year": 2005, "day": 28, "month": 8, "categories": {"F40": {"distance": 42, "rank": 58, "pace": 359000000000, "time": 15181.0}}, "weekday": "sunday", "livingplace": "Nuglar"}, "dim. 03.09.2006": {"year": 2006, "day": 3, "month": 9, "categories": {"M-F40": {"distance": 42, "rank": 30, "pace": 376000000000, "time": 15906.0}}, "weekday": "sunday", "livingplace": "Nuglar"}}, "location": "Basel"}, "Z\u00fcrich Marathon, Teamrun und Cityrun": {"latitude": 47.3768866, "longitude": 8.541694, "race": "Z\u00fcrich Marathon, Teamrun und Cityrun", "date": {"dim. 17.04.2011": {"year": 2011, "day": 17, "month": 4, "categories": {"42-W45": {"distance": 42, "rank": 82, "pace": 364000000000, "time": 15383.0}}, "weekday": "sunday", "livingplace": "Nuglar"}}, "location": "Z\u00fcrich"}, "Gempenlauf, Dornach": {"latitude": 47.4790491, "longitude": 7.6170412, "race": "Gempenlauf, Dornach", "date": {"mer. 04.06.2014": {"year": 2014, "day": 4, "month": 6, "categories": {"F45": {"distance": 8, "rank": 28, "pace": 424000000000, "time": 3311.0}}, "weekday": "wednesday", "livingplace": "Nuglar"}}, "location": "Dornach"}, "Z\u00fcrcher Silvesterlauf, Z\u00fcrich": {"latitude": 47.3768866, "longitude": 8.541694, "race": "Z\u00fcrcher Silvesterlauf, Z\u00fcrich", "date": {"dim. 12.12.2010": {"year": 2010, "day": 12, "month": 12, "categories": {"8-DaAK2": {"distance": 9, "rank": 242, "pace": 326000000000, "time": 2809.7}}, "weekday": "sunday", "livingplace": "Nuglar"}}, "location": "Z\u00fcrich"}, "Bieler Lauftage, Biel Bienne": {"latitude": 47.1367785, "longitude": 7.2467909, "race": "Bieler Lauftage, Biel Bienne", "date": {"jeu. 11.06.2015": {"year": 2015, "day": 11, "month": 6, "categories": {"H-W50": {"distance": 21, "rank": 9, "pace": 357000000000, "time": 7532.9}}, "weekday": "thursday", "livingplace": "Nuglar"}}, "location": "Biel/Bienne"}, "Int Greifenseelauf, Uster": {"latitude": 47.3482747, "longitude": 8.717873899999999, "race": "Int Greifenseelauf, Uster", "date": {"sam. 19.09.2009": {"year": 2009, "day": 19, "month": 9, "categories": {"H-W40": {"distance": 21, "rank": 294, "pace": 357000000000, "time": 7534.5}}, "weekday": "saturday", "livingplace": "Nuglar"}}, "location": "Uster"}}, "birth": 1965}