{"name": "Wicht Linda", "sex": "F", "races": {"Tour du Chablais #1 Martigny": {"latitude": 46.2957462, "longitude": 6.9916269, "race": "Tour du Chablais #1 Martigny", "date": {"mer. 23.04.2014": {"year": 2014, "day": 23, "month": 4, "categories": {"F-F20": {"distance": 9, "rank": 9, "pace": 260000000000, "time": 2216.4}}, "weekday": "wednesday", "livingplace": "Vetroz"}}, "location": "Ollon VD"}, "Morat-Fribourg": {"latitude": 46.92922110000001, "longitude": 7.120184, "race": "Morat-Fribourg", "date": {"sam. 05.10.2013": {"year": 2013, "day": 5, "month": 10, "categories": {"17-W20": {"distance": 17, "rank": 374, "pace": 353000000000, "time": 6167.9}}, "weekday": "saturday", "livingplace": "Lausanne"}, "sam. 02.10.2010": {"year": 2010, "day": 2, "month": 10, "categories": {"17-W20": {"distance": 17, "rank": 137, "pace": 328000000000, "time": 5638.8}}, "weekday": "saturday", "livingplace": "Lausanne"}, "sam. 01.10.2011": {"year": 2011, "day": 1, "month": 10, "categories": {"17-W20": {"distance": 17, "rank": 46, "pace": 291000000000, "time": 4998.9}}, "weekday": "saturday", "livingplace": "Vetroz"}}, "location": "Murten"}, "Corrida Bulloise, Bulle": {"latitude": 46.6154512, "longitude": 7.057726799999999, "race": "Corrida Bulloise, Bulle", "date": {"sam. 16.11.2013": {"year": 2013, "day": 16, "month": 11, "categories": {"F20": {"distance": 6, "rank": 40, "pace": 265000000000, "time": 1633.5}}, "weekday": "saturday", "livingplace": "Lausanne"}, "sam. 19.11.2011": {"year": 2011, "day": 19, "month": 11, "categories": {"F20": {"distance": 6, "rank": 38, "pace": 275000000000, "time": 1693.9}}, "weekday": "saturday", "livingplace": "Vetroz"}}, "location": "Bulle"}, "Tour du Chablais #3 Le Bouveret": {"latitude": 46.1782231, "longitude": 7.0223787, "race": "Tour du Chablais #3 Le Bouveret", "date": {"mer. 11.05.2011": {"year": 2011, "day": 11, "month": 5, "categories": {"F-F20": {"distance": 10, "rank": 20, "pace": 283000000000, "time": 2830.2}}, "weekday": "wednesday", "livingplace": "Lausanne"}}, "location": "Evionnaz"}, "Schweizer Frauenlauf Bern": {"latitude": 46.9479739, "longitude": 7.4474468, "race": "Schweizer Frauenlauf Bern", "date": {"dim. 13.06.2010": {"year": 2010, "day": 13, "month": 6, "categories": {"10-W20": {"distance": 10, "rank": 139, "pace": 307000000000, "time": 3079.3}}, "weekday": "sunday", "livingplace": "Lausanne"}}, "location": "Bern"}, "20km de Lausanne": {"latitude": 46.5196535, "longitude": 6.6322734, "race": "20km de Lausanne", "date": {"sam. 30.04.2011": {"year": 2011, "day": 30, "month": 4, "categories": {"20-F20": {"distance": 20, "rank": 8, "pace": 289000000000, "time": 5785.3}}, "weekday": "saturday", "livingplace": "Lausanne"}, "sam. 24.04.2010": {"year": 2010, "day": 24, "month": 4, "categories": {"20-F20": {"distance": 20, "rank": 35, "pace": 316000000000, "time": 6337.2}}, "weekday": "saturday", "livingplace": "Lausanne"}, "sam. 26.04.2014": {"year": 2014, "day": 26, "month": 4, "categories": {"20-F20": {"distance": 20, "rank": 23, "pace": 296000000000, "time": 5922.7}}, "weekday": "saturday", "livingplace": "Team Valais / of@campus"}, "sam. 28.04.2012": {"year": 2012, "day": 28, "month": 4, "categories": {"20-F20": {"distance": 20, "rank": 58, "pace": 323000000000, "time": 6476.6}}, "weekday": "saturday", "livingplace": "Lausanne"}, "sam. 22.04.2006": {"year": 2006, "day": 22, "month": 4, "categories": {"10/F20": {"distance": 10, "rank": 269, "pace": 409000000000, "time": 4096.7}}, "weekday": "saturday", "livingplace": "Arzier"}}, "location": "Lausanne"}, "Tour du Pays de Vaud printanier #1 Moudon": {"latitude": 46.3832683, "longitude": 6.2347852, "race": "Tour du Pays de Vaud printanier #1 Moudon", "date": {"mer. 29.05.2013": {"year": 2013, "day": 29, "month": 5, "categories": {"D-Dam": {"distance": 8, "rank": 4, "pace": 285000000000, "time": 2439.1}}, "weekday": "wednesday", "livingplace": "Lausanne"}, "mer. 04.06.2014": {"year": 2014, "day": 4, "month": 6, "categories": {"D-Dam": {"distance": 8, "rank": 6, "pace": 282000000000, "time": 2370.3}}, "weekday": "wednesday", "livingplace": "Vetroz"}}, "location": "Nyon"}, "Tour du Pays de Vaud #4, La Sarraz": {"latitude": 46.7088129, "longitude": 6.5707689, "race": "Tour du Pays de Vaud #4, La Sarraz", "date": {"mer. 03.09.2014": {"year": 2014, "day": 3, "month": 9, "categories": {"D-Dam": {"distance": 9, "rank": 4, "pace": 266000000000, "time": 2264.6}}, "weekday": "wednesday", "livingplace": "Vetroz"}}, "location": "Chavornay"}, "Tour du Pays de Vaud #2 - Genolier": {"latitude": 46.5955273, "longitude": 6.7702883, "race": "Tour du Pays de Vaud #2 - Genolier", "date": {"mer. 17.08.2011": {"year": 2011, "day": 17, "month": 8, "categories": {"D-Dam": {"distance": 9, "rank": 2, "pace": 282000000000, "time": 2397.9}}, "weekday": "wednesday", "livingplace": "Vetroz"}}, "location": "M\u00e9zi\u00e8res VD"}, "Semi-Marathon de la C\u00f4te, Allaman-Nyon": {"latitude": 46.3832683, "longitude": 6.2347852, "race": "Semi-Marathon de la C\u00f4te, Allaman-Nyon", "date": {"dim. 14.09.2014": {"year": 2014, "day": 14, "month": 9, "categories": {"21-F20": {"distance": 21, "rank": 6, "pace": 283000000000, "time": 5988.1}}, "weekday": "sunday", "livingplace": "Vetroz"}}, "location": "Nyon"}, "Tour du Pays de Vaud #1, Penthaz": {"latitude": 46.5993131, "longitude": 6.539251200000001, "race": "Tour du Pays de Vaud #1, Penthaz", "date": {"mer. 13.08.2014": {"year": 2014, "day": 13, "month": 8, "categories": {"D-Dam": {"distance": 9, "rank": 3, "pace": 263000000000, "time": 2248.3}}, "weekday": "wednesday", "livingplace": "Vetroz"}}, "location": "Penthaz"}, "Tour du Pays de Vaud printanier #3 - Yens": {"latitude": 46.7829756, "longitude": 6.5728678, "race": "Tour du Pays de Vaud printanier #3 - Yens", "date": {"mer. 12.06.2013": {"year": 2013, "day": 12, "month": 6, "categories": {"D-Dam": {"distance": 9, "rank": 4, "pace": 286000000000, "time": 2609.4}}, "weekday": "wednesday", "livingplace": "Lausanne"}, "mer. 18.06.2014": {"year": 2014, "day": 18, "month": 6, "categories": {"D-Dam": {"distance": 9, "rank": 6, "pace": 278000000000, "time": 2538.2}}, "weekday": "wednesday", "livingplace": "Vetroz"}}, "location": "Champvent"}, "Tour du Pays de Vaud #2 - Mezi\u00e8res": {"latitude": 46.5955273, "longitude": 6.7702883, "race": "Tour du Pays de Vaud #2 - Mezi\u00e8res", "date": {"mer. 21.08.2013": {"year": 2013, "day": 21, "month": 8, "categories": {"D-Dam": {"distance": 8, "rank": 7, "pace": 297000000000, "time": 2408.6}}, "weekday": "wednesday", "livingplace": "Lausanne"}}, "location": "M\u00e9zi\u00e8res VD"}, "Tour du Pays de Vaud #2, Mezi\u00e8res": {"latitude": 46.5955273, "longitude": 6.7702883, "race": "Tour du Pays de Vaud #2, Mezi\u00e8res", "date": {"mer. 20.08.2014": {"year": 2014, "day": 20, "month": 8, "categories": {"D-Dam": {"distance": 8, "rank": 7, "pace": 306000000000, "time": 2479.2}}, "weekday": "wednesday", "livingplace": "Vetroz"}}, "location": "M\u00e9zi\u00e8res VD"}, "Tour du Chablais #6 Aigle": {"latitude": 46.3190253, "longitude": 6.970566, "race": "Tour du Chablais #6 Aigle", "date": {"mer. 01.06.2011": {"year": 2011, "day": 1, "month": 6, "categories": {"F-F20": {"distance": 10, "rank": 14, "pace": 263000000000, "time": 2687.0}}, "weekday": "wednesday", "livingplace": "Vetroz"}}, "location": "Aigle"}, "Tour du pays de Vaud #6 - St  Prex": {"latitude": 46.4829113, "longitude": 6.458343500000001, "race": "Tour du pays de Vaud #6 - St  Prex", "date": {"mer. 14.09.2011": {"year": 2011, "day": 14, "month": 9, "categories": {"D-Dam": {"distance": 9, "rank": 2, "pace": 265000000000, "time": 2283.8}}, "weekday": "wednesday", "livingplace": "Vetroz"}}, "location": "St-Prex"}, "Course de l'Avent, Fribourg": {"latitude": 46.8064773, "longitude": 7.161971899999999, "race": "Course de l'Avent, Fribourg", "date": {"dim. 24.11.2013": {"year": 2013, "day": 24, "month": 11, "categories": {"P-F20": {"distance": 6, "rank": 5, "pace": 277000000000, "time": 1745.3}}, "weekday": "sunday", "livingplace": "Lausanne"}}, "location": "Fribourg"}, "Tour du Pays de Vaud #4 - La Sarraz": {"latitude": 46.7088129, "longitude": 6.5707689, "race": "Tour du Pays de Vaud #4 - La Sarraz", "date": {"mer. 04.09.2013": {"year": 2013, "day": 4, "month": 9, "categories": {"D-Dam": {"distance": 9, "rank": 6, "pace": 283000000000, "time": 2412.1}}, "weekday": "wednesday", "livingplace": "Lausanne"}}, "location": "Chavornay"}, "Tour du Pays de Vaud printanier #2 Yverdon-les-Bains": {"latitude": 46.6698891, "longitude": 6.7975224, "race": "Tour du Pays de Vaud printanier #2 Yverdon-les-Bains", "date": {"mer. 11.06.2014": {"year": 2014, "day": 11, "month": 6, "categories": {"D-Dam": {"distance": 9, "rank": 6, "pace": 298000000000, "time": 2719.7}}, "weekday": "wednesday", "livingplace": "Vetroz"}}, "location": "Moudon"}, "Tour du pays de Vaud #1 - Penthaz": {"latitude": 46.5993131, "longitude": 6.539251200000001, "race": "Tour du pays de Vaud #1 - Penthaz", "date": {"mer. 14.08.2013": {"year": 2013, "day": 14, "month": 8, "categories": {"D-Dam": {"distance": 9, "rank": 7, "pace": 274000000000, "time": 2344.5}}, "weekday": "wednesday", "livingplace": "Lausanne"}}, "location": "Penthaz"}, "Course de l'Avent, Yverdon": {"latitude": 46.8064773, "longitude": 7.161971899999999, "race": "Course de l'Avent, Yverdon", "date": {"dim. 27.11.2011": {"year": 2011, "day": 27, "month": 11, "categories": {"E-F2": {"distance": 8, "rank": 6, "pace": 259000000000, "time": 2006.6}}, "weekday": "sunday", "livingplace": "Vetroz"}}, "location": "Fribourg"}}, "birth": 1985}