{"name": "Wicht Marie", "sex": "F", "races": {"A travers Carouge - Run to Run": {"latitude": 46.1829674, "longitude": 6.1378539, "race": "A travers Carouge - Run to Run", "date": {"sam. 20.09.2008": {"year": 2008, "day": 20, "month": 9, "categories": {"W45/10": {"distance": 10, "rank": 6, "pace": 273000000000, "time": 2739.9}}, "weekday": "saturday", "livingplace": "Carouge"}}, "location": "Carouge GE"}, "Corrida Bulloise, Bulle": {"latitude": 46.6154512, "longitude": 7.057726799999999, "race": "Corrida Bulloise, Bulle", "date": {"sam. 17.11.2012": {"year": 2012, "day": 17, "month": 11, "categories": {"F50": {"distance": 6, "rank": 23, "pace": 304000000000, "time": 1870.7}}, "weekday": "saturday", "livingplace": "Les Acacias"}}, "location": "Bulle"}, "Les Traine-Savates, Cheseaux-sur-Lausanne": {"latitude": 46.585452, "longitude": 6.6047712, "race": "Les Traine-Savates, Cheseaux-sur-Lausanne", "date": {"sam. 13.04.2013": {"year": 2013, "day": 13, "month": 4, "categories": {"10-W50": {"distance": 10, "rank": 14, "pace": 301000000000, "time": 3103.5}}, "weekday": "saturday", "livingplace": "Les Acacias"}}, "location": "Cheseaux-sur-Lausanne"}, "20km de Lausanne": {"latitude": 46.5196535, "longitude": 6.6322734, "race": "20km de Lausanne", "date": {"sam. 30.04.2011": {"year": 2011, "day": 30, "month": 4, "categories": {"20-F50": {"distance": 20, "rank": 8, "pace": 305000000000, "time": 6102.5}}, "weekday": "saturday", "livingplace": "Carouge"}}, "location": "Lausanne"}, "Kerzerslauf": {"latitude": 46.97488999999999, "longitude": 7.1954365, "race": "Kerzerslauf", "date": {"sam. 17.03.2012": {"year": 2012, "day": 17, "month": 3, "categories": {"15-F50": {"distance": 15, "rank": 45, "pace": 318000000000, "time": 4773.1}}, "weekday": "saturday", "livingplace": "Les Acacias"}}, "location": "Kerzers"}, "Z\u00fcrich Marathon, Teamrun und Cityrun": {"latitude": 47.3768866, "longitude": 8.541694, "race": "Z\u00fcrich Marathon, Teamrun und Cityrun", "date": {"dim. 26.04.2009": {"year": 2009, "day": 26, "month": 4, "categories": {"W45": {"distance": 42, "rank": 69, "pace": 351000000000, "time": 14814.3}}, "weekday": "sunday", "livingplace": "Geneve"}}, "location": "Z\u00fcrich"}}, "birth": 1961}