{"name": "Widmer Fr\u00e9d\u00e9ric", "sex": "M", "races": {"Morat-Fribourg": {"latitude": 46.92922110000001, "longitude": 7.120184, "race": "Morat-Fribourg", "date": {"sam. 03.10.2015": {"year": 2015, "day": 3, "month": 10, "categories": {"17-M20": {"distance": 17, "rank": 422, "pace": 272000000000, "time": 4678.3}}, "weekday": "saturday", "livingplace": "Lausanne"}}, "location": "Murten"}, "Lausanne Marathon": {"latitude": 46.5196535, "longitude": 6.6322734, "race": "Lausanne Marathon", "date": {"dim. 28.10.2012": {"year": 2012, "day": 28, "month": 10, "categories": {"10-H1": {"distance": 10, "rank": 79, "pace": 256000000000, "time": 2568.5}}, "weekday": "sunday", "livingplace": "Epalinges"}}, "location": "Lausanne"}, "Sierre-Zinal, Sierre": {"latitude": 46.29413110000001, "longitude": 7.533536199999999, "race": "Sierre-Zinal, Sierre", "date": {"dim. 09.08.2015": {"year": 2015, "day": 9, "month": 8, "categories": {"ElitesHo": {"distance": 31, "rank": 317, "pace": 505000000000, "time": 15671.9}}, "weekday": "sunday", "livingplace": "Lausanne"}}, "location": "Sierre"}, "20km de Lausanne": {"latitude": 46.5196535, "longitude": 6.6322734, "race": "20km de Lausanne", "date": {"sam. 30.04.2011": {"year": 2011, "day": 30, "month": 4, "categories": {"10-H20": {"distance": 10, "rank": 178, "pace": 281000000000, "time": 2819.7}}, "weekday": "saturday", "livingplace": "Epalinges"}, "sam. 27.04.2013": {"year": 2013, "day": 27, "month": 4, "categories": {"10-H20": {"distance": 10, "rank": 146, "pace": 264000000000, "time": 2642.9}}, "weekday": "saturday", "livingplace": "Epalinges"}, "sam. 26.04.2014": {"year": 2014, "day": 26, "month": 4, "categories": {"20-H20": {"distance": 20, "rank": 403, "pace": 309000000000, "time": 6189.0}}, "weekday": "saturday", "livingplace": "Lausanne"}}, "location": "Lausanne"}, "D\u00e9fi du vignoble, Cully": {"latitude": 45.565921, "longitude": -122.6066627, "race": "D\u00e9fi du vignoble, Cully", "date": {"mer. 14.05.2014": {"year": 2014, "day": 14, "month": 5, "categories": {"M20": {"distance": 4, "rank": 32, "pace": 541000000000, "time": 1971.8}}, "weekday": "wednesday", "livingplace": "Lausanne"}}, "location": "Cully"}, "Kerzerslauf": {"latitude": 46.97488999999999, "longitude": 7.1954365, "race": "Kerzerslauf", "date": {"sam. 21.03.2015": {"year": 2015, "day": 21, "month": 3, "categories": {"15-M20": {"distance": 15, "rank": 295, "pace": 279000000000, "time": 4199.3}}, "weekday": "saturday", "livingplace": "Lausanne"}}, "location": "Kerzers"}, "Z\u00fcrich Marathon, Teamrun und Cityrun": {"latitude": 47.3768866, "longitude": 8.541694, "race": "Z\u00fcrich Marathon, Teamrun und Cityrun", "date": {"dim. 19.04.2015": {"year": 2015, "day": 19, "month": 4, "categories": {"42-M20": {"distance": 42, "rank": 163, "pace": 336000000000, "time": 14195.7}}, "weekday": "sunday", "livingplace": "Lausanne"}}, "location": "Z\u00fcrich"}}, "birth": 1986}