{"name": "Widmer Stefan", "sex": "M", "races": {"Frauenfelder": {"latitude": NaN, "longitude": NaN, "race": "Frauenfelder", "date": {"dim. 20.11.2011": {"year": 2011, "day": 20, "month": 11, "categories": {"HM-M30": {"distance": 21, "rank": 10, "pace": 225000000000, "time": 4753.9}}, "weekday": "sunday", "livingplace": "Mosnang"}}, "location": "Frauenfeld"}, "SwissCityMarathon - Lucerne, Luzern": {"latitude": 47.05016819999999, "longitude": 8.3093072, "race": "SwissCityMarathon - Lucerne, Luzern", "date": {"dim. 25.10.2015": {"year": 2015, "day": 25, "month": 10, "categories": {"M-M35": {"distance": 42, "rank": 2, "pace": 229000000000, "time": 9669.5}}, "weekday": "sunday", "livingplace": "Mosnang"}}, "location": "Luzern"}, "Laufsporttag Winterthur": {"latitude": 39.8088766, "longitude": -75.6037351, "race": "Laufsporttag Winterthur", "date": {"sam. 06.03.2004": {"year": 2004, "day": 6, "month": 3, "categories": {"A": {"distance": 11, "rank": 9, "pace": 216000000000, "time": 2386.2}}, "weekday": "saturday", "livingplace": "Wil"}}, "location": "Winterthur"}, "Schlosslauf Rapperswil-Jona": {"latitude": 47.2266239, "longitude": 8.818437399999999, "race": "Schlosslauf Rapperswil-Jona", "date": {"dim. 18.10.2015": {"year": 2015, "day": 18, "month": 10, "categories": {"10-M2": {"distance": 10, "rank": 2, "pace": 203000000000, "time": 2031.5}}, "weekday": "sunday", "livingplace": "Mosnang"}}, "location": "Rapperswil SG"}, "Z\u00fcrich Marathon, Teamrun und Cityrun": {"latitude": 47.3768866, "longitude": 8.541694, "race": "Z\u00fcrich Marathon, Teamrun und Cityrun", "date": {"dim. 03.04.2005": {"year": 2005, "day": 3, "month": 4, "categories": {"M20": {"distance": 42, "rank": 19, "pace": 223000000000, "time": 9416.4}}, "weekday": "sunday", "livingplace": "Wil"}}, "location": "Z\u00fcrich"}, "Int Greifenseelauf, Uster": {"latitude": 47.3482747, "longitude": 8.717873899999999, "race": "Int Greifenseelauf, Uster", "date": {"sam. 17.09.2005": {"year": 2005, "day": 17, "month": 9, "categories": {"H/M20": {"distance": 21, "rank": 38, "pace": 235000000000, "time": 4974.7}}, "weekday": "saturday", "livingplace": "Wil"}}, "location": "Uster"}}, "birth": 1978}