{"name": "Widmer Alexander", "sex": "M", "races": {"ASICS Bremgarter Reusslauf": {"latitude": 47.34917739999999, "longitude": 8.3397905, "race": "ASICS Bremgarter Reusslauf", "date": {"sam. 27.02.2010": {"year": 2010, "day": 27, "month": 2, "categories": {"M30": {"distance": 11, "rank": 254, "pace": 285000000000, "time": 3139.1}}, "weekday": "saturday", "livingplace": "Lyss"}}, "location": "Bremgarten AG"}, "La Trotteuse-Tissot, La Chaux-de-Fonds": {"latitude": 47.1034892, "longitude": 6.832783800000001, "race": "La Trotteuse-Tissot, La Chaux-de-Fonds", "date": {"sam. 17.12.2011": {"year": 2011, "day": 17, "month": 12, "categories": {"GC-H30": {"distance": 8, "rank": 64, "pace": 296000000000, "time": 2372.9}}, "weekday": "saturday", "livingplace": "Ittigen"}}, "location": "La Chaux-de-Fonds"}, "Ch\u00e4sitzerlouf, Kehrsatz": {"latitude": NaN, "longitude": NaN, "race": "Ch\u00e4sitzerlouf, Kehrsatz", "date": {"sam. 30.04.2011": {"year": 2011, "day": 30, "month": 4, "categories": {"12-M30": {"distance": 12, "rank": 81, "pace": 288000000000, "time": 3461.9}}, "weekday": "saturday", "livingplace": "Ittigen"}, "sam. 25.04.2015": {"year": 2015, "day": 25, "month": 4, "categories": {"12-M30": {"distance": 12, "rank": 106, "pace": 313000000000, "time": 3767.2}}, "weekday": "saturday", "livingplace": "Ittigen"}}, "location": "Kehrsatz"}, "10km, Payerne": {"latitude": 46.8220266, "longitude": 6.9405663, "race": "10km, Payerne", "date": {"sam. 16.04.2011": {"year": 2011, "day": 16, "month": 4, "categories": {"M30": {"distance": 10, "rank": 32, "pace": 266000000000, "time": 2661.9}}, "weekday": "saturday", "livingplace": "Ittigen"}}, "location": "Payerne"}, "Winterthur Marathon": {"latitude": 39.8088766, "longitude": -75.6037351, "race": "Winterthur Marathon", "date": {"dim. 29.05.2011": {"year": 2011, "day": 29, "month": 5, "categories": {"H-M30": {"distance": 21, "rank": 123, "pace": 295000000000, "time": 6200.5}}, "weekday": "sunday", "livingplace": "Ittigen"}}, "location": "Winterthur"}, "20km de Lausanne": {"latitude": 46.5196535, "longitude": 6.6322734, "race": "20km de Lausanne", "date": {"sam. 24.04.2010": {"year": 2010, "day": 24, "month": 4, "categories": {"20-H30": {"distance": 20, "rank": 367, "pace": 298000000000, "time": 5960.0}}, "weekday": "saturday", "livingplace": "Lyss"}}, "location": "Lausanne"}, "Kerzerslauf": {"latitude": 46.97488999999999, "longitude": 7.1954365, "race": "Kerzerslauf", "date": {"sam. 21.03.2015": {"year": 2015, "day": 21, "month": 3, "categories": {"15-M35": {"distance": 15, "rank": 338, "pace": 328000000000, "time": 4932.9}}, "weekday": "saturday", "livingplace": "Ittigen"}, "sam. 19.03.2011": {"year": 2011, "day": 19, "month": 3, "categories": {"15-M20": {"distance": 15, "rank": 400, "pace": 314000000000, "time": 4713.7}}, "weekday": "saturday", "livingplace": "Ittigen"}}, "location": "Kerzers"}, "Z\u00fcrcher Silvesterlauf, Z\u00fcrich": {"latitude": 47.3768866, "longitude": 8.541694, "race": "Z\u00fcrcher Silvesterlauf, Z\u00fcrich", "date": {"dim. 12.12.2010": {"year": 2010, "day": 12, "month": 12, "categories": {"8-MenAK1": {"distance": 9, "rank": 591, "pace": 294000000000, "time": 2535.0}}, "weekday": "sunday", "livingplace": "Ittigen"}}, "location": "Z\u00fcrich"}}, "birth": 1977}