{"name": "Wiederkehr Beat", "sex": "M", "races": {"Wylandlauf, Andelfingen": {"latitude": NaN, "longitude": NaN, "race": "Wylandlauf, Andelfingen", "date": {"sam. 19.06.2004": {"year": 2004, "day": 19, "month": 6, "categories": {"C": {"distance": 15, "rank": 69, "pace": 263000000000, "time": 3950.1}}, "weekday": "saturday", "livingplace": "Zurcher Patrouilleure"}}, "location": "Andelfingen"}, "Schlosslauf Rapperswil-Jona": {"latitude": 47.2266239, "longitude": 8.818437399999999, "race": "Schlosslauf Rapperswil-Jona", "date": {"dim. 08.10.2006": {"year": 2006, "day": 8, "month": 10, "categories": {"M3": {"distance": 9, "rank": 28, "pace": 245000000000, "time": 2215.1}}, "weekday": "sunday", "livingplace": "Zurcher Patrouilleure"}}, "location": "Rapperswil SG"}, "ASICS Bremgarter Reusslauf": {"latitude": 47.34917739999999, "longitude": 8.3397905, "race": "ASICS Bremgarter Reusslauf", "date": {"sam. 21.02.2004": {"year": 2004, "day": 21, "month": 2, "categories": {"13": {"distance": 11, "rank": 218, "pace": 257000000000, "time": 2707.3}}, "weekday": "saturday", "livingplace": "zurcher patrouilleure"}}, "location": "Bremgarten AG"}, "Laufsporttag Winterthur": {"latitude": 39.8088766, "longitude": -75.6037351, "race": "Laufsporttag Winterthur", "date": {"sam. 06.03.2004": {"year": 2004, "day": 6, "month": 3, "categories": {"C": {"distance": 11, "rank": 102, "pace": 268000000000, "time": 2950.7}}, "weekday": "saturday", "livingplace": "Zurcher Patrouilleure"}}, "location": "Winterthur"}, "Langenthaler Stadtlauf": {"latitude": 47.2120786, "longitude": 7.790562299999999, "race": "Langenthaler Stadtlauf", "date": {"sam. 22.11.2003": {"year": 2003, "day": 22, "month": 11, "categories": {"M35": {"distance": 8, "rank": 33, "pace": 243000000000, "time": 1827.4}}, "weekday": "saturday", "livingplace": "Zurcher Patrouilleure"}}, "location": "Langenthal"}, "Dietiker Neujahrslauf, Dietikon": {"latitude": 47.4053885, "longitude": 8.39977, "race": "Dietiker Neujahrslauf, Dietikon", "date": {"sam. 10.01.2004": {"year": 2004, "day": 10, "month": 1, "categories": {"C": {"distance": 12, "rank": 100, "pace": 256000000000, "time": 3099.8}}, "weekday": "saturday", "livingplace": "Zurcher Patrouilleure"}}, "location": "Dietikon"}, "Panoramalauf, Richterswil": {"latitude": NaN, "longitude": NaN, "race": "Panoramalauf, Richterswil", "date": {"dim. 03.09.2006": {"year": 2006, "day": 3, "month": 9, "categories": {"C": {"distance": 10, "rank": 49, "pace": 263000000000, "time": 2634.9}}, "weekday": "sunday", "livingplace": "Zurcher Patrouilleure"}}, "location": "Richterswil"}, "Course en f\u00f4ret, Romont": {"latitude": 46.691887, "longitude": 6.9118086, "race": "Course en f\u00f4ret, Romont", "date": {"dim. 19.09.2004": {"year": 2004, "day": 19, "month": 9, "categories": {"H40": {"distance": 15, "rank": 53, "pace": 263000000000, "time": 3880.4}}, "weekday": "sunday", "livingplace": "Zurcher Patrouillleure"}}, "location": "Romont FR"}}, "birth": 0}