{"name": "Wiedmer Simon", "sex": "M", "races": {"Badener Limmat-Lauf, Baden": {"latitude": 48.5699281, "longitude": 8.5303972, "race": "Badener Limmat-Lauf, Baden", "date": {"sam. 28.03.2015": {"year": 2015, "day": 28, "month": 3, "categories": {"MU18": {"distance": 2, "rank": 2, "pace": 204000000000, "time": 442.0}}, "weekday": "saturday", "livingplace": "Brugg"}, "sam. 16.03.2013": {"year": 2013, "day": 16, "month": 3, "categories": {"MU16": {"distance": 2, "rank": 4, "pace": 227000000000, "time": 490.8}}, "weekday": "saturday", "livingplace": "Brugg"}}, "location": "Baden"}, "Lenzburger Lauf": {"latitude": 47.3904443, "longitude": 8.172154500000001, "race": "Lenzburger Lauf", "date": {"sam. 25.05.2013": {"year": 2013, "day": 25, "month": 5, "categories": {"JugB-M": {"distance": 3, "rank": 3, "pace": 263000000000, "time": 685.3}}, "weekday": "saturday", "livingplace": "Brugg"}}, "location": "Lenzburg"}, "Pfingstlauf Wohlen AG": {"latitude": 47.3493653, "longitude": 8.2768762, "race": "Pfingstlauf Wohlen AG", "date": {"sam. 18.05.2013": {"year": 2013, "day": 18, "month": 5, "categories": {"MJB": {"distance": 2, "rank": 4, "pace": 203000000000, "time": 325.6}}, "weekday": "saturday", "livingplace": "Brugg"}}, "location": "Wohlen AG"}, "Basler Stadtlauf": {"latitude": 47.5595986, "longitude": 7.5885761, "race": "Basler Stadtlauf", "date": {"sam. 29.11.2014": {"year": 2014, "day": 29, "month": 11, "categories": {"U18m": {"distance": 6, "rank": 28, "pace": 232000000000, "time": 1277.2}}, "weekday": "saturday", "livingplace": "Brugg"}, "sam. 24.11.2012": {"year": 2012, "day": 24, "month": 11, "categories": {"U16m": {"distance": 2, "rank": 45, "pace": 220000000000, "time": 352.8}}, "weekday": "saturday", "livingplace": "Brugg"}}, "location": "Basel"}, "ASICS Bremgarter Reusslauf": {"latitude": 47.34917739999999, "longitude": 8.3397905, "race": "ASICS Bremgarter Reusslauf", "date": {"sam. 28.02.2015": {"year": 2015, "day": 28, "month": 2, "categories": {"3-U18m": {"distance": 7, "rank": 6, "pace": 221000000000, "time": 1463.2}}, "weekday": "saturday", "livingplace": "Brugg"}}, "location": "Bremgarten AG"}}, "birth": 1998}