{"name": "Wilk Stephan", "sex": "M", "races": {"Kerzerslauf": {"latitude": 46.97488999999999, "longitude": 7.1954365, "race": "Kerzerslauf", "date": {"sam. 21.03.2009": {"year": 2009, "day": 21, "month": 3, "categories": {"15-M40": {"distance": 15, "rank": 506, "pace": 328000000000, "time": 4932.0}}, "weekday": "saturday", "livingplace": "Bruttisellen"}}, "location": "Kerzers"}, "IWB Basel Marathon": {"latitude": 47.5595986, "longitude": 7.5885761, "race": "IWB Basel Marathon", "date": {"dim. 28.09.2014": {"year": 2014, "day": 28, "month": 9, "categories": {"21-M45": {"distance": 21, "rank": 100, "pace": 346000000000, "time": 7315.8}}, "weekday": "sunday", "livingplace": "Untersiggenthal"}}, "location": "Basel"}, "Morat-Fribourg": {"latitude": 46.92922110000001, "longitude": 7.120184, "race": "Morat-Fribourg", "date": {"sam. 01.10.2011": {"year": 2011, "day": 1, "month": 10, "categories": {"17-M45": {"distance": 17, "rank": 633, "pace": 368000000000, "time": 6335.2}}, "weekday": "saturday", "livingplace": "Untersiggenthal"}}, "location": "Murten"}, "Z\u00fcrcher Silvesterlauf, Z\u00fcrich": {"latitude": 47.3768866, "longitude": 8.541694, "race": "Z\u00fcrcher Silvesterlauf, Z\u00fcrich", "date": {"dim. 16.12.2007": {"year": 2007, "day": 16, "month": 12, "categories": {"MenAK2-8": {"distance": 9, "rank": 817, "pace": 302000000000, "time": 2597.4}}, "weekday": "sunday", "livingplace": "Bruttisellen"}}, "location": "Z\u00fcrich"}, "Int Greifenseelauf, Uster": {"latitude": 47.3482747, "longitude": 8.717873899999999, "race": "Int Greifenseelauf, Uster", "date": {"sam. 22.09.2007": {"year": 2007, "day": 22, "month": 9, "categories": {"H/M40": {"distance": 21, "rank": 1058, "pace": 367000000000, "time": 7766.0}}, "weekday": "saturday", "livingplace": "Bruttisellen"}, "sam. 19.09.2009": {"year": 2009, "day": 19, "month": 9, "categories": {"H-M40": {"distance": 21, "rank": 986, "pace": 350000000000, "time": 7403.8}}, "weekday": "saturday", "livingplace": "Bruttisellen"}}, "location": "Uster"}}, "birth": 1965}