{"name": "Winkler Karin", "sex": "F", "races": {"Gippinger Stauseelauf": {"latitude": 47.5810513, "longitude": 8.2152586, "race": "Gippinger Stauseelauf", "date": {"lun. 31.12.2007": {"year": 2007, "day": 31, "month": 12, "categories": {"F20": {"distance": 8, "rank": 9, "pace": 237000000000, "time": 1790.8}}, "weekday": "monday", "livingplace": "Seftigen"}}, "location": "Leuggern"}, "Thuner Stadtlauf, Thun": {"latitude": 46.7579868, "longitude": 7.6279881, "race": "Thuner Stadtlauf, Thun", "date": {"dim. 24.08.2008": {"year": 2008, "day": 24, "month": 8, "categories": {"5-VolksF": {"distance": 5, "rank": 1, "pace": 228000000000, "time": 1143.2}}, "weekday": "sunday", "livingplace": "All Blacks"}, "dim. 28.08.2011": {"year": 2011, "day": 28, "month": 8, "categories": {"5-VolksF": {"distance": 5, "rank": 2, "pace": 226000000000, "time": 1130.4}}, "weekday": "sunday", "livingplace": "Thun"}}, "location": "Thun"}, "Campionati Svizzeri di Cross, Tenero": {"latitude": NaN, "longitude": NaN, "race": "Campionati Svizzeri di Cross, Tenero", "date": {"sam. 08.03.2008": {"year": 2008, "day": 8, "month": 3, "categories": {"Women": {"distance": 6, "rank": 12, "pace": 238000000000, "time": 1428.2}}, "weekday": "saturday", "livingplace": "Seftigen"}}, "location": "Tenero"}, "Basler Stadtlauf": {"latitude": 47.5595986, "longitude": 7.5885761, "race": "Basler Stadtlauf", "date": {"sam. 24.11.2012": {"year": 2012, "day": 24, "month": 11, "categories": {"F20": {"distance": 6, "rank": 11, "pace": 233000000000, "time": 1286.3}}, "weekday": "saturday", "livingplace": "Thun"}}, "location": "Basel"}, "Schweizer Frauenlauf Bern": {"latitude": 46.9479739, "longitude": 7.4474468, "race": "Schweizer Frauenlauf Bern", "date": {"dim. 09.06.2013": {"year": 2013, "day": 9, "month": 6, "categories": {"5-W20": {"distance": 5, "rank": 5, "pace": 233000000000, "time": 1167.2}}, "weekday": "sunday", "livingplace": "Thun"}}, "location": "Bern"}, "Kerzerslauf": {"latitude": 46.97488999999999, "longitude": 7.1954365, "race": "Kerzerslauf", "date": {"sam. 18.03.2006": {"year": 2006, "day": 18, "month": 3, "categories": {"F-KU": {"distance": 5, "rank": 23, "pace": 245000000000, "time": 1227.0}}, "weekday": "saturday", "livingplace": "Seftigen"}}, "location": "Kerzers"}}, "birth": 1985}