{"name": "Winzer-Tr\u00f6sch Heidi", "sex": "F", "races": {"Lucerne Marathon, Luzern": {"latitude": 47.05016819999999, "longitude": 8.3093072, "race": "Lucerne Marathon, Luzern", "date": {"dim. 31.10.2010": {"year": 2010, "day": 31, "month": 10, "categories": {"H-F30": {"distance": 21, "rank": 372, "pace": 363000000000, "time": 7666.2}}, "weekday": "sunday", "livingplace": "Luterkofen"}}, "location": "Luzern"}, "ASICS Bremgarter Reusslauf": {"latitude": 47.34917739999999, "longitude": 8.3397905, "race": "ASICS Bremgarter Reusslauf", "date": {"sam. 23.02.2008": {"year": 2008, "day": 23, "month": 2, "categories": {"F30": {"distance": 11, "rank": 117, "pace": 332000000000, "time": 3660.5}}, "weekday": "saturday", "livingplace": "Luterkofen"}}, "location": "Bremgarten AG"}, "Schweizer Frauenlauf Bern": {"latitude": 46.9479739, "longitude": 7.4474468, "race": "Schweizer Frauenlauf Bern", "date": {"dim. 01.06.2008": {"year": 2008, "day": 1, "month": 6, "categories": {"W35-10": {"distance": 10, "rank": 197, "pace": 328000000000, "time": 3288.0}}, "weekday": "sunday", "livingplace": "Luterkofen"}, "dim. 10.06.2007": {"year": 2007, "day": 10, "month": 6, "categories": {"10/W35": {"distance": 10, "rank": 275, "pace": 344000000000, "time": 3447.8}}, "weekday": "sunday", "livingplace": "Luterkofen"}, "dim. 14.06.2009": {"year": 2009, "day": 14, "month": 6, "categories": {"10-W35": {"distance": 10, "rank": 163, "pace": 330000000000, "time": 3301.1}}, "weekday": "sunday", "livingplace": "Luterkofen"}, "dim. 19.06.2011": {"year": 2011, "day": 19, "month": 6, "categories": {"10-W40": {"distance": 10, "rank": 365, "pace": 335000000000, "time": 3352.1}}, "weekday": "sunday", "livingplace": "Luterkofen"}}, "location": "Bern"}, "20km de Lausanne": {"latitude": 46.5196535, "longitude": 6.6322734, "race": "20km de Lausanne", "date": {"sam. 24.04.2010": {"year": 2010, "day": 24, "month": 4, "categories": {"10-F30": {"distance": 10, "rank": 109, "pace": 324000000000, "time": 3240.0}}, "weekday": "saturday", "livingplace": "Luterkofen"}}, "location": "Lausanne"}, "Kerzerslauf": {"latitude": 46.97488999999999, "longitude": 7.1954365, "race": "Kerzerslauf", "date": {"sam. 17.03.2007": {"year": 2007, "day": 17, "month": 3, "categories": {"F35": {"distance": 15, "rank": 175, "pace": 367000000000, "time": 5514.4}}, "weekday": "saturday", "livingplace": "Luterkofen"}}, "location": "Kerzers"}, "Int Greifenseelauf, Uster": {"latitude": 47.3482747, "longitude": 8.717873899999999, "race": "Int Greifenseelauf, Uster", "date": {"sam. 22.09.2007": {"year": 2007, "day": 22, "month": 9, "categories": {"K/W35": {"distance": 21, "rank": 298, "pace": 369000000000, "time": 7808.4}}, "weekday": "saturday", "livingplace": "Luterkofen"}, "sam. 19.09.2009": {"year": 2009, "day": 19, "month": 9, "categories": {"H-W35": {"distance": 21, "rank": 151, "pace": 338000000000, "time": 7147.0}}, "weekday": "saturday", "livingplace": "Luterkofen"}}, "location": "Uster"}}, "birth": 1971}