{"name": "Wirth Roxane", "sex": "F", "races": {"BCN Tour M\u00f4tier": {"latitude": 46.9262933, "longitude": 6.6324944, "race": "BCN Tour M\u00f4tier", "date": {"mer. 19.05.2010": {"year": 2010, "day": 19, "month": 5, "categories": {"DJ": {"distance": 10, "rank": 23, "pace": 347000000000, "time": 3438.2}}, "weekday": "wednesday", "livingplace": "Cortaillod"}}, "location": "Couvet"}, "BCN Tour La Br\u00e9vine": {"latitude": 46.999113, "longitude": 6.733554799999999, "race": "BCN Tour La Br\u00e9vine", "date": {"mer. 04.05.2011": {"year": 2011, "day": 4, "month": 5, "categories": {"DJ": {"distance": 10, "rank": 46, "pace": 405000000000, "time": 4058.9}}, "weekday": "wednesday", "livingplace": "Cortaillod"}}, "location": "Les Ponts-de-Martel"}, "BCN Tour Fontaine Cernier": {"latitude": 47.0624261, "longitude": 6.9175754, "race": "BCN Tour Fontaine Cernier", "date": {"mer. 27.04.2011": {"year": 2011, "day": 27, "month": 4, "categories": {"DJ": {"distance": 10, "rank": 41, "pace": 397000000000, "time": 4090.5}}, "weekday": "wednesday", "livingplace": "Cortaillod"}}, "location": "Ch\u00e9zard-St-Martin"}, "BCN Tour Neuch\u00e2tel": {"latitude": 46.9899874, "longitude": 6.9292732, "race": "BCN Tour Neuch\u00e2tel", "date": {"mer. 26.05.2010": {"year": 2010, "day": 26, "month": 5, "categories": {"DJ": {"distance": 10, "rank": 40, "pace": 460000000000, "time": 4468.3}}, "weekday": "wednesday", "livingplace": "Cortaillod"}, "mer. 25.05.2011": {"year": 2011, "day": 25, "month": 5, "categories": {"DJ": {"distance": 11, "rank": 44, "pace": 430000000000, "time": 4912.8}}, "weekday": "wednesday", "livingplace": "Cortaillod"}}, "location": "Neuch\u00e2tel"}, "BCN Tour Le Locle": {"latitude": 46.999113, "longitude": 6.733554799999999, "race": "BCN Tour Le Locle", "date": {"mer. 05.05.2010": {"year": 2010, "day": 5, "month": 5, "categories": {"DJ": {"distance": 11, "rank": 25, "pace": 380000000000, "time": 4144.4}}, "weekday": "wednesday", "livingplace": "Cortaillod"}}, "location": "Les Ponts-de-Martel"}, "BCN Tour Ponts-de-Martel": {"latitude": 47.0624261, "longitude": 6.9175754, "race": "BCN Tour Ponts-de-Martel", "date": {"mer. 28.04.2010": {"year": 2010, "day": 28, "month": 4, "categories": {"DJ": {"distance": 11, "rank": 26, "pace": 385000000000, "time": 4322.3}}, "weekday": "wednesday", "livingplace": "Cortaillod"}}, "location": "Ch\u00e9zard-St-Martin"}, "BCN Tour La Chaux-de-fonds": {"latitude": 47.1034892, "longitude": 6.832783800000001, "race": "BCN Tour La Chaux-de-fonds", "date": {"mer. 12.05.2010": {"year": 2010, "day": 12, "month": 5, "categories": {"DJ": {"distance": 11, "rank": 25, "pace": 450000000000, "time": 4817.7}}, "weekday": "wednesday", "livingplace": "Cortaillod"}}, "location": "La Chaux-de-Fonds"}, "BCN Tour Colombier": {"latitude": 46.9668714, "longitude": 6.8589727, "race": "BCN Tour Colombier", "date": {"mer. 21.04.2010": {"year": 2010, "day": 21, "month": 4, "categories": {"DJ": {"distance": 10, "rank": 23, "pace": 415000000000, "time": 4155.1}}, "weekday": "wednesday", "livingplace": "Cortaillod"}}, "location": "Colombier NE"}}, "birth": 1994}