{"name": "Wolfensberger Nina", "sex": "F", "races": {"Lucerne Marathon, Luzern": {"latitude": 47.05016819999999, "longitude": 8.3093072, "race": "Lucerne Marathon, Luzern", "date": {"dim. 28.10.2012": {"year": 2012, "day": 28, "month": 10, "categories": {"S-Frau": {"distance": 8, "rank": 35, "pace": 320000000000, "time": 2580.9}}, "weekday": "sunday", "livingplace": "Liebistorf"}}, "location": "Luzern"}, "SwissCityMarathon - Lucerne, Luzern": {"latitude": 47.05016819999999, "longitude": 8.3093072, "race": "SwissCityMarathon - Lucerne, Luzern", "date": {"dim. 27.10.2013": {"year": 2013, "day": 27, "month": 10, "categories": {"H-F30": {"distance": 21, "rank": 429, "pace": 358000000000, "time": 7569.5}}, "weekday": "sunday", "livingplace": "Liebistorf"}}, "location": "Luzern"}, "ASICS Bremgarter Reusslauf": {"latitude": 47.34917739999999, "longitude": 8.3397905, "race": "ASICS Bremgarter Reusslauf", "date": {"sam. 23.02.2013": {"year": 2013, "day": 23, "month": 2, "categories": {"11-F30": {"distance": 11, "rank": 150, "pace": 359000000000, "time": 3951.7}}, "weekday": "saturday", "livingplace": "Liebistorf"}, "sam. 22.02.2014": {"year": 2014, "day": 22, "month": 2, "categories": {"11-F40": {"distance": 11, "rank": 134, "pace": 323000000000, "time": 3557.7}}, "weekday": "saturday", "livingplace": "Liebistorf"}}, "location": "Bremgarten AG"}, "Schweizer Frauenlauf Bern": {"latitude": 46.9479739, "longitude": 7.4474468, "race": "Schweizer Frauenlauf Bern", "date": {"dim. 10.06.2012": {"year": 2012, "day": 10, "month": 6, "categories": {"10-W35": {"distance": 10, "rank": 165, "pace": 323000000000, "time": 3232.0}}, "weekday": "sunday", "livingplace": "Liebistorf"}}, "location": "Bern"}, "Morat-Fribourg": {"latitude": 46.92922110000001, "longitude": 7.120184, "race": "Morat-Fribourg", "date": {"sam. 05.10.2013": {"year": 2013, "day": 5, "month": 10, "categories": {"17-W35": {"distance": 17, "rank": 213, "pace": 355000000000, "time": 6211.7}}, "weekday": "saturday", "livingplace": "Liebistorf"}}, "location": "Murten"}, "10km Schweizer Meisterschaften Lyss": {"latitude": 47.0746504, "longitude": 7.3077022, "race": "10km Schweizer Meisterschaften Lyss", "date": {"sam. 31.03.2012": {"year": 2012, "day": 31, "month": 3, "categories": {"10-W35": {"distance": 10, "rank": 16, "pace": 328000000000, "time": 3286.1}}, "weekday": "saturday", "livingplace": "Liebistorf"}}, "location": "Lyss"}, "Hallwilerseelauf, Beinwil am See": {"latitude": NaN, "longitude": NaN, "race": "Hallwilerseelauf, Beinwil am See", "date": {"sam. 15.10.2011": {"year": 2011, "day": 15, "month": 10, "categories": {"K-Frau": {"distance": 7, "rank": 41, "pace": 340000000000, "time": 2350.1}}, "weekday": "saturday", "livingplace": "Liebistorf"}, "sam. 13.10.2012": {"year": 2012, "day": 13, "month": 10, "categories": {"10-Frau": {"distance": 10, "rank": 201, "pace": 316000000000, "time": 3163.8}}, "weekday": "saturday", "livingplace": "Liebistorf"}}, "location": "Beinwil am See"}, "Kerzerslauf": {"latitude": 46.97488999999999, "longitude": 7.1954365, "race": "Kerzerslauf", "date": {"sam. 21.03.2015": {"year": 2015, "day": 21, "month": 3, "categories": {"5-F20": {"distance": 5, "rank": 65, "pace": 319000000000, "time": 1599.7}}, "weekday": "saturday", "livingplace": "Liebistorf"}, "sam. 17.03.2012": {"year": 2012, "day": 17, "month": 3, "categories": {"15-F35": {"distance": 15, "rank": 129, "pace": 346000000000, "time": 5190.0}}, "weekday": "saturday", "livingplace": "Liebistorf"}, "sam. 15.03.2014": {"year": 2014, "day": 15, "month": 3, "categories": {"15-F40": {"distance": 15, "rank": 106, "pace": 315000000000, "time": 4738.7}}, "weekday": "saturday", "livingplace": "Liebistorf"}}, "location": "Kerzers"}, "Emmenlauf Utzenstorf": {"latitude": 47.12816670000001, "longitude": 7.5588034, "race": "Emmenlauf Utzenstorf", "date": {"mer. 17.08.2011": {"year": 2011, "day": 17, "month": 8, "categories": {"Volk_D": {"distance": 5, "rank": 15, "pace": 321000000000, "time": 1740.8}}, "weekday": "wednesday", "livingplace": "Liebistorf"}}, "location": "Utzenstorf"}, "Z\u00fcrich Marathon, Teamrun und Cityrun": {"latitude": 47.3768866, "longitude": 8.541694, "race": "Z\u00fcrich Marathon, Teamrun und Cityrun", "date": {"dim. 22.04.2012": {"year": 2012, "day": 22, "month": 4, "categories": {"10-W30": {"distance": 10, "rank": 80, "pace": 310000000000, "time": 3106.7}}, "weekday": "sunday", "livingplace": "Liebistorf"}}, "location": "Z\u00fcrich"}}, "birth": 1974}