{"name": "Wootton Samuel", "sex": "M", "races": {"Morat-Fribourg": {"latitude": 46.92922110000001, "longitude": 7.120184, "race": "Morat-Fribourg", "date": {"sam. 02.10.2010": {"year": 2010, "day": 2, "month": 10, "categories": {"17-M20": {"distance": 17, "rank": 572, "pace": 285000000000, "time": 4903.4}}, "weekday": "saturday", "livingplace": "Aubonne"}}, "location": "Murten"}, "Tour du Pays de Vaud etape 1 - Le Mont sur Lausanne": {"latitude": 46.7784736, "longitude": 6.641183, "race": "Tour du Pays de Vaud etape 1 - Le Mont sur Lausanne", "date": {"mer. 12.08.2009": {"year": 2009, "day": 12, "month": 8, "categories": {"Hom": {"distance": 9, "rank": 39, "pace": 298000000000, "time": 2780.1}}, "weekday": "wednesday", "livingplace": "Aubonne"}}, "location": "Yverdon-les-Bains"}, "20km de Lausanne": {"latitude": 46.5196535, "longitude": 6.6322734, "race": "20km de Lausanne", "date": {"sam. 30.04.2011": {"year": 2011, "day": 30, "month": 4, "categories": {"10-H20": {"distance": 10, "rank": 68, "pace": 259000000000, "time": 2590.3}}, "weekday": "saturday", "livingplace": "Aubonne"}, "sam. 24.04.2010": {"year": 2010, "day": 24, "month": 4, "categories": {"10-H20": {"distance": 10, "rank": 68, "pace": 261000000000, "time": 2611.3}}, "weekday": "saturday", "livingplace": "Aubonne"}, "sam. 22.04.2006": {"year": 2006, "day": 22, "month": 4, "categories": {"10/EspH": {"distance": 10, "rank": 78, "pace": 293000000000, "time": 2931.2}}, "weekday": "saturday", "livingplace": "Morges"}}, "location": "Lausanne"}, "Tour du Pays de Vaud #2 - Mezi\u00e8res": {"latitude": 46.5955273, "longitude": 6.7702883, "race": "Tour du Pays de Vaud #2 - Mezi\u00e8res", "date": {"mer. 21.08.2013": {"year": 2013, "day": 21, "month": 8, "categories": {"H-Hom": {"distance": 8, "rank": 67, "pace": 326000000000, "time": 2648.4}}, "weekday": "wednesday", "livingplace": "Cossonay Ville"}}, "location": "M\u00e9zi\u00e8res VD"}, "Tour du Pays de Vaud #2 - Genolier": {"latitude": 46.5955273, "longitude": 6.7702883, "race": "Tour du Pays de Vaud #2 - Genolier", "date": {"mer. 15.08.2012": {"year": 2012, "day": 15, "month": 8, "categories": {"H-Hom": {"distance": 9, "rank": 82, "pace": 312000000000, "time": 2653.7}}, "weekday": "wednesday", "livingplace": "Montricher"}, "mer. 17.08.2011": {"year": 2011, "day": 17, "month": 8, "categories": {"H-Hom": {"distance": 9, "rank": 34, "pace": 285000000000, "time": 2422.9}}, "weekday": "wednesday", "livingplace": "Aubonne"}}, "location": "M\u00e9zi\u00e8res VD"}, "Lausanne Marathon": {"latitude": 46.5196535, "longitude": 6.6322734, "race": "Lausanne Marathon", "date": {"dim. 31.10.2010": {"year": 2010, "day": 31, "month": 10, "categories": {"10-H1": {"distance": 10, "rank": 65, "pace": 250000000000, "time": 2501.4}}, "weekday": "sunday", "livingplace": "Aubonne"}, "dim. 27.10.2013": {"year": 2013, "day": 27, "month": 10, "categories": {"10-H1": {"distance": 10, "rank": 190, "pace": 279000000000, "time": 2791.3}}, "weekday": "sunday", "livingplace": "Senarclens"}}, "location": "Lausanne"}, "Tour du Pays de Vaud etape 2 - Genolier": {"latitude": 46.5955273, "longitude": 6.7702883, "race": "Tour du Pays de Vaud etape 2 - Genolier", "date": {"mer. 19.08.2009": {"year": 2009, "day": 19, "month": 8, "categories": {"Hom": {"distance": 8, "rank": 27, "pace": 272000000000, "time": 2203.8}}, "weekday": "wednesday", "livingplace": "Aubonne"}}, "location": "M\u00e9zi\u00e8res VD"}, "Tour du Pays de Vaud #3 - Chavornay": {"latitude": 46.7784736, "longitude": 6.641183, "race": "Tour du Pays de Vaud #3 - Chavornay", "date": {"mer. 28.08.2013": {"year": 2013, "day": 28, "month": 8, "categories": {"H-Hom": {"distance": 9, "rank": 77, "pace": 294000000000, "time": 2624.3}}, "weekday": "wednesday", "livingplace": "Cossonay Ville"}}, "location": "Yverdon-les-Bains"}, "Tour du pays de Vaud #5 - Penthaz": {"latitude": 46.5993131, "longitude": 6.539251200000001, "race": "Tour du pays de Vaud #5 - Penthaz", "date": {"mer. 07.09.2011": {"year": 2011, "day": 7, "month": 9, "categories": {"H-Hom": {"distance": 8, "rank": 30, "pace": 296000000000, "time": 2479.0}}, "weekday": "wednesday", "livingplace": "Aubonne"}}, "location": "Penthaz"}, "Tour du pays de Vaud #6 - St  Prex": {"latitude": 46.4829113, "longitude": 6.458343500000001, "race": "Tour du pays de Vaud #6 - St  Prex", "date": {"mer. 14.09.2011": {"year": 2011, "day": 14, "month": 9, "categories": {"H-Hom": {"distance": 9, "rank": 36, "pace": 267000000000, "time": 2301.1}}, "weekday": "wednesday", "livingplace": "Aubonne"}}, "location": "St-Prex"}, "Tour du Pays de Vaud #4 - La Sarraz": {"latitude": 46.7088129, "longitude": 6.5707689, "race": "Tour du Pays de Vaud #4 - La Sarraz", "date": {"mer. 29.08.2012": {"year": 2012, "day": 29, "month": 8, "categories": {"H-Hom": {"distance": 9, "rank": 63, "pace": 286000000000, "time": 2435.9}}, "weekday": "wednesday", "livingplace": "Montricher"}, "mer. 04.09.2013": {"year": 2013, "day": 4, "month": 9, "categories": {"H-Hom": {"distance": 9, "rank": 80, "pace": 303000000000, "time": 2581.1}}, "weekday": "wednesday", "livingplace": "Cossonay Ville"}}, "location": "Chavornay"}, "Tour du pays de Vaud #1 - Penthaz": {"latitude": 46.5993131, "longitude": 6.539251200000001, "race": "Tour du pays de Vaud #1 - Penthaz", "date": {"mer. 14.08.2013": {"year": 2013, "day": 14, "month": 8, "categories": {"H-Hom": {"distance": 9, "rank": 72, "pace": 305000000000, "time": 2603.3}}, "weekday": "wednesday", "livingplace": "Cossonay Ville"}, "mer. 08.08.2012": {"year": 2012, "day": 8, "month": 8, "categories": {"H-Hom": {"distance": 9, "rank": 66, "pace": 300000000000, "time": 2560.4}}, "weekday": "wednesday", "livingplace": "Montricher"}}, "location": "Penthaz"}}, "birth": 1987}