{"name": "Wust Simon", "sex": "M", "races": {"Grand Prix Craft, Neuch\u00e2tel": {"latitude": 46.9899874, "longitude": 6.9292732, "race": "Grand Prix Craft, Neuch\u00e2tel", "date": {"dim. 16.12.2007": {"year": 2007, "day": 16, "month": 12, "categories": {"KG3": {"distance": 1, "rank": 6, "pace": 215000000000, "time": 301.5}}, "weekday": "sunday", "livingplace": "Corcelles"}}, "location": "Neuch\u00e2tel"}, "Course de l'Escalade, Gen\u00e8ve": {"latitude": 46.2043907, "longitude": 6.1431577, "race": "Course de l'Escalade, Gen\u00e8ve", "date": {"sam. 07.12.2002": {"year": 2002, "day": 7, "month": 12, "categories": {"HPousA": {"distance": 2, "rank": 10, "pace": 262000000000, "time": 478.4}}, "weekday": "saturday", "livingplace": "Geneve"}, "sam. 02.12.2006": {"year": 2006, "day": 2, "month": 12, "categories": {"HEcolA": {"distance": 2, "rank": 55, "pace": 241000000000, "time": 561.2}}, "weekday": "saturday", "livingplace": "Neuchatel"}, "sam. 01.12.2007": {"year": 2007, "day": 1, "month": 12, "categories": {"HEcolA": {"distance": 2, "rank": 77, "pace": 239000000000, "time": 555.6}}, "weekday": "saturday", "livingplace": "Neuchatel"}, "sam. 06.12.2003": {"year": 2003, "day": 6, "month": 12, "categories": {"HPousA": {"distance": 2, "rank": 7, "pace": 255000000000, "time": 465.2}}, "weekday": "saturday", "livingplace": "Geneve"}, "sam. 03.12.2005": {"year": 2005, "day": 3, "month": 12, "categories": {"HEcolB": {"distance": 2, "rank": 6, "pace": 232000000000, "time": 540.3}}, "weekday": "saturday", "livingplace": "Neuchatel"}, "sam. 01.12.2012": {"year": 2012, "day": 1, "month": 12, "categories": {"Cad-A-M": {"distance": 5, "rank": 44, "pace": 234000000000, "time": 1118.6}}, "weekday": "saturday", "livingplace": "Neuchatel"}}, "location": "Gen\u00e8ve"}, "20km de Lausanne": {"latitude": 46.5196535, "longitude": 6.6322734, "race": "20km de Lausanne", "date": {"sam. 25.04.2015": {"year": 2015, "day": 25, "month": 4, "categories": {"20-H20": {"distance": 20, "rank": 49, "pace": 239000000000, "time": 4781.3}}, "weekday": "saturday", "livingplace": "Zgeg"}, "sam. 26.04.2003": {"year": 2003, "day": 26, "month": 4, "categories": {"27": {"distance": 4, "rank": 1, "pace": 261000000000, "time": 1045.3}}, "weekday": "saturday", "livingplace": "Geneve"}}, "location": "Lausanne"}, "BCN Tour #1 Corcelles": {"latitude": 46.9668714, "longitude": 6.8589727, "race": "BCN Tour #1 Corcelles", "date": {"mer. 24.04.2013": {"year": 2013, "day": 24, "month": 4, "categories": {"HJ": {"distance": 10, "rank": 18, "pace": 268000000000, "time": 2627.5}}, "weekday": "wednesday", "livingplace": "Neuchatel"}}, "location": "Colombier NE"}, "BCN Tour #4 Fleurier": {"latitude": 47.1034892, "longitude": 6.832783800000001, "race": "BCN Tour #4 Fleurier", "date": {"mer. 15.05.2013": {"year": 2013, "day": 15, "month": 5, "categories": {"HJ": {"distance": 9, "rank": 14, "pace": 254000000000, "time": 2201.4}}, "weekday": "wednesday", "livingplace": "Neuchatel"}}, "location": "La Chaux-de-Fonds"}, "Kerzerslauf": {"latitude": 46.97488999999999, "longitude": 7.1954365, "race": "Kerzerslauf", "date": {"sam. 15.03.2003": {"year": 2003, "day": 15, "month": 3, "categories": {"M9": {"distance": 1, "rank": 6, "pace": 230000000000, "time": 322.4}}, "weekday": "saturday", "livingplace": "Geneve"}}, "location": "Kerzers"}, "Morat-Fribourg": {"latitude": 46.92922110000001, "longitude": 7.120184, "race": "Morat-Fribourg", "date": {"dim. 06.10.2002": {"year": 2002, "day": 6, "month": 10, "categories": {"EMC": {"distance": 1, "rank": 43, "pace": 301000000000, "time": 361.5}}, "weekday": "sunday", "livingplace": "Geneve"}}, "location": "Murten"}, "BCN Tour #6 Neuch\u00e2tel": {"latitude": 46.9899874, "longitude": 6.9292732, "race": "BCN Tour #6 Neuch\u00e2tel", "date": {"mer. 29.05.2013": {"year": 2013, "day": 29, "month": 5, "categories": {"HJ": {"distance": 11, "rank": 11, "pace": 261000000000, "time": 2880.9}}, "weekday": "wednesday", "livingplace": "Neuchatel"}}, "location": "Neuch\u00e2tel"}, "Lausanne Marathon": {"latitude": 46.5196535, "longitude": 6.6322734, "race": "Lausanne Marathon", "date": {"dim. 27.10.2013": {"year": 2013, "day": 27, "month": 10, "categories": {"21-JunG": {"distance": 21, "rank": 24, "pace": 293000000000, "time": 6187.8}}, "weekday": "sunday", "livingplace": "Neuchatel"}}, "location": "Lausanne"}, "BCN Tour #5 Colombier": {"latitude": 46.9262933, "longitude": 6.6324944, "race": "BCN Tour #5 Colombier", "date": {"mer. 22.05.2013": {"year": 2013, "day": 22, "month": 5, "categories": {"HJ": {"distance": 11, "rank": 14, "pace": 239000000000, "time": 2511.8}}, "weekday": "wednesday", "livingplace": "Neuchatel"}}, "location": "Couvet"}, "BCN Tour Boudry": {"latitude": 46.9668714, "longitude": 6.8589727, "race": "BCN Tour Boudry", "date": {"mer. 26.04.2006": {"year": 2006, "day": 26, "month": 4, "categories": {"KG2": {"distance": 2, "rank": 6, "pace": 260000000000, "time": 494.4}}, "weekday": "wednesday", "livingplace": "Neuchatel"}}, "location": "Colombier NE"}, "BCN Tour #2 La Chaux-de-Fonds": {"latitude": 47.0624261, "longitude": 6.9175754, "race": "BCN Tour #2 La Chaux-de-Fonds", "date": {"mer. 01.05.2013": {"year": 2013, "day": 1, "month": 5, "categories": {"HJ": {"distance": 11, "rank": 20, "pace": 258000000000, "time": 2762.4}}, "weekday": "wednesday", "livingplace": "Neuchatel"}}, "location": "Ch\u00e9zard-St-Martin"}, "BCN Tour Colombier": {"latitude": 47.1034892, "longitude": 6.832783800000001, "race": "BCN Tour Colombier", "date": {"mer. 16.05.2012": {"year": 2012, "day": 16, "month": 5, "categories": {"HJ": {"distance": 11, "rank": 29, "pace": 286000000000, "time": 3089.4}}, "weekday": "wednesday", "livingplace": "Neuchatel"}}, "location": "La Chaux-de-Fonds"}, "BCN Tour #3 Dombresson": {"latitude": 46.999113, "longitude": 6.733554799999999, "race": "BCN Tour #3 Dombresson", "date": {"mer. 08.05.2013": {"year": 2013, "day": 8, "month": 5, "categories": {"HJ": {"distance": 10, "rank": 22, "pace": 261000000000, "time": 2590.4}}, "weekday": "wednesday", "livingplace": "Neuchatel"}}, "location": "Les Ponts-de-Martel"}}, "birth": 1995}