{"name": "W\u00fcthrich Sylvie", "sex": "F", "races": {"Tour du Pays de Vaud etape 5 - La Sarraz": {"latitude": 46.5993131, "longitude": 6.539251200000001, "race": "Tour du Pays de Vaud etape 5 - La Sarraz", "date": {"mer. 10.09.2008": {"year": 2008, "day": 10, "month": 9, "categories": {"DamSen1": {"distance": 9, "rank": 52, "pace": 363000000000, "time": 3122.5}}, "weekday": "wednesday", "livingplace": "Lonay"}}, "location": "Penthaz"}, "Tour du Pays de Vaud #2 - Genolier": {"latitude": 46.5955273, "longitude": 6.7702883, "race": "Tour du Pays de Vaud #2 - Genolier", "date": {"mer. 17.08.2011": {"year": 2011, "day": 17, "month": 8, "categories": {"D-Sen1": {"distance": 9, "rank": 50, "pace": 358000000000, "time": 3044.4}}, "weekday": "wednesday", "livingplace": "Lonay"}}, "location": "M\u00e9zi\u00e8res VD"}, "Tour du Pays de Vaud etape 2 - Genolier": {"latitude": 46.5955273, "longitude": 6.7702883, "race": "Tour du Pays de Vaud etape 2 - Genolier", "date": {"mer. 20.08.2008": {"year": 2008, "day": 20, "month": 8, "categories": {"DamSen1": {"distance": 8, "rank": 70, "pace": 410000000000, "time": 3408.2}}, "weekday": "wednesday", "livingplace": "Lonay"}}, "location": "M\u00e9zi\u00e8res VD"}, "Tour du Pays de Vaud etape 3 - Aubonne": {"latitude": 46.7829756, "longitude": 6.5728678, "race": "Tour du Pays de Vaud etape 3 - Aubonne", "date": {"mer. 27.08.2008": {"year": 2008, "day": 27, "month": 8, "categories": {"DamSen1": {"distance": 8, "rank": 56, "pace": 419000000000, "time": 3268.5}}, "weekday": "wednesday", "livingplace": "Lonay"}}, "location": "Champvent"}, "Montreux - Les Rochers de Naye": {"latitude": 46.4312213, "longitude": 6.9106799, "race": "Montreux - Les Rochers de Naye", "date": {"dim. 11.07.2010": {"year": 2010, "day": 11, "month": 7, "categories": {"C-Femmes": {"distance": 10, "rank": 28, "pace": 648000000000, "time": 6160.4}}, "weekday": "sunday", "livingplace": "Lonay"}}, "location": "Montreux"}, "20km de Lausanne": {"latitude": 46.5196535, "longitude": 6.6322734, "race": "20km de Lausanne", "date": {"sam. 30.04.2011": {"year": 2011, "day": 30, "month": 4, "categories": {"10-F30": {"distance": 10, "rank": 411, "pace": 365000000000, "time": 3657.2}}, "weekday": "saturday", "livingplace": "Lonay"}, "sam. 28.04.2012": {"year": 2012, "day": 28, "month": 4, "categories": {"10-F30": {"distance": 10, "rank": 117, "pace": 321000000000, "time": 3211.9}}, "weekday": "saturday", "livingplace": "Lonay"}}, "location": "Lausanne"}, "Tour du pays de Vaud #1 - Mezi\u00e8res": {"latitude": 46.7784736, "longitude": 6.641183, "race": "Tour du pays de Vaud #1 - Mezi\u00e8res", "date": {"mer. 10.08.2011": {"year": 2011, "day": 10, "month": 8, "categories": {"D-Sen1": {"distance": 9, "rank": 46, "pace": 341000000000, "time": 2898.6}}, "weekday": "wednesday", "livingplace": "Lonay"}}, "location": "Yverdon-les-Bains"}, "Hallwilerseelauf, Beinwil am See": {"latitude": NaN, "longitude": NaN, "race": "Hallwilerseelauf, Beinwil am See", "date": {"sam. 15.10.2011": {"year": 2011, "day": 15, "month": 10, "categories": {"10-Frau": {"distance": 10, "rank": 226, "pace": 322000000000, "time": 3225.1}}, "weekday": "saturday", "livingplace": "Lonay"}}, "location": "Beinwil am See"}, "Kerzerslauf": {"latitude": 46.97488999999999, "longitude": 7.1954365, "race": "Kerzerslauf", "date": {"sam. 17.03.2012": {"year": 2012, "day": 17, "month": 3, "categories": {"15-F35": {"distance": 15, "rank": 149, "pace": 355000000000, "time": 5337.8}}, "weekday": "saturday", "livingplace": "Lonay"}, "sam. 16.03.2013": {"year": 2013, "day": 16, "month": 3, "categories": {"15-F35": {"distance": 15, "rank": 107, "pace": 354000000000, "time": 5316.2}}, "weekday": "saturday", "livingplace": "Lonay"}}, "location": "Kerzers"}}, "birth": 1977}