{"name": "W\u00fcthrich Jonas", "sex": "M", "races": {"Morat-Fribourg": {"latitude": 46.92922110000001, "longitude": 7.120184, "race": "Morat-Fribourg", "date": {"sam. 04.10.2008": {"year": 2008, "day": 4, "month": 10, "categories": {"C-M20": {"distance": 17, "rank": 525, "pace": 277000000000, "time": 4770.5}}, "weekday": "saturday", "livingplace": "Fribourg"}}, "location": "Murten"}, "ASICS Bremgarter Reusslauf": {"latitude": 47.34917739999999, "longitude": 8.3397905, "race": "ASICS Bremgarter Reusslauf", "date": {"sam. 17.02.2007": {"year": 2007, "day": 17, "month": 2, "categories": {"M20": {"distance": 11, "rank": 69, "pace": 240000000000, "time": 2522.7}}, "weekday": "saturday", "livingplace": "Rheinfelden"}}, "location": "Bremgarten AG"}, "SwissCityMarathon - Lucerne, Luzern": {"latitude": 47.05016819999999, "longitude": 8.3093072, "race": "SwissCityMarathon - Lucerne, Luzern", "date": {"dim. 26.10.2014": {"year": 2014, "day": 26, "month": 10, "categories": {"H-M20": {"distance": 21, "rank": 141, "pace": 266000000000, "time": 5630.2}}, "weekday": "sunday", "livingplace": "Basel"}}, "location": "Luzern"}, "Basel City Marathon": {"latitude": 47.5595986, "longitude": 7.5885761, "race": "Basel City Marathon", "date": {"dim. 03.09.2006": {"year": 2006, "day": 3, "month": 9, "categories": {"H-M10": {"distance": 21, "rank": 1, "pace": 258000000000, "time": 5463.5}}, "weekday": "sunday", "livingplace": "Rheinfelden"}}, "location": "Basel"}, "Aletsch-Halbmarathon, Bettmeralp": {"latitude": NaN, "longitude": NaN, "race": "Aletsch-Halbmarathon, Bettmeralp", "date": {"dim. 29.06.2014": {"year": 2014, "day": 29, "month": 6, "categories": {"M20": {"distance": 13, "rank": 110, "pace": 332000000000, "time": 4415.9}}, "weekday": "sunday", "livingplace": "Team Hans und Barry"}}, "location": "Bettmeralp"}, "Kerzerslauf": {"latitude": 46.97488999999999, "longitude": 7.1954365, "race": "Kerzerslauf", "date": {"sam. 15.03.2008": {"year": 2008, "day": 15, "month": 3, "categories": {"15/M20": {"distance": 15, "rank": 302, "pace": 277000000000, "time": 4160.3}}, "weekday": "saturday", "livingplace": "Rheinfelden"}}, "location": "Kerzers"}}, "birth": 1987}