{"name": "Wyss Sarah", "sex": "F", "races": {"Tour du pays de Vaud #5 - Penthaz": {"latitude": 46.5993131, "longitude": 6.539251200000001, "race": "Tour du pays de Vaud #5 - Penthaz", "date": {"mer. 07.09.2011": {"year": 2011, "day": 7, "month": 9, "categories": {"D-Sen1": {"distance": 8, "rank": 25, "pace": 357000000000, "time": 2989.0}}, "weekday": "wednesday", "livingplace": "Misery"}}, "location": "Penthaz"}, "Tour du pays de Vaud #6 - St  Prex": {"latitude": 46.4829113, "longitude": 6.458343500000001, "race": "Tour du pays de Vaud #6 - St  Prex", "date": {"mer. 14.09.2011": {"year": 2011, "day": 14, "month": 9, "categories": {"D-Sen1": {"distance": 9, "rank": 49, "pace": 328000000000, "time": 2826.0}}, "weekday": "wednesday", "livingplace": "Misery"}}, "location": "St-Prex"}, "Course de l'Avent, Yverdon": {"latitude": 46.8064773, "longitude": 7.161971899999999, "race": "Course de l'Avent, Yverdon", "date": {"dim. 28.11.2010": {"year": 2010, "day": 28, "month": 11, "categories": {"P-F43": {"distance": 6, "rank": 7, "pace": 312000000000, "time": 1925.6}}, "weekday": "sunday", "livingplace": "Cournillens"}}, "location": "Fribourg"}, "Les Traine-Savates, Cheseaux-sur-Lausanne": {"latitude": 46.585452, "longitude": 6.6047712, "race": "Les Traine-Savates, Cheseaux-sur-Lausanne", "date": {"sam. 09.04.2011": {"year": 2011, "day": 9, "month": 4, "categories": {"10-W20": {"distance": 10, "rank": 83, "pace": 354000000000, "time": 3687.0}}, "weekday": "saturday", "livingplace": "Misery"}}, "location": "Cheseaux-sur-Lausanne"}, "10km, Payerne": {"latitude": 46.8220266, "longitude": 6.9405663, "race": "10km, Payerne", "date": {"sam. 16.04.2011": {"year": 2011, "day": 16, "month": 4, "categories": {"W30": {"distance": 10, "rank": 11, "pace": 338000000000, "time": 3388.6}}, "weekday": "saturday", "livingplace": "Cormerod"}}, "location": "Payerne"}, "Morat-Fribourg": {"latitude": 46.92922110000001, "longitude": 7.120184, "race": "Morat-Fribourg", "date": {"sam. 01.10.2011": {"year": 2011, "day": 1, "month": 10, "categories": {"17-W35": {"distance": 17, "rank": 128, "pace": 343000000000, "time": 5891.8}}, "weekday": "saturday", "livingplace": "Cormerod"}, "sam. 06.10.2012": {"year": 2012, "day": 6, "month": 10, "categories": {"17-W35": {"distance": 17, "rank": 14, "pace": 278000000000, "time": 4854.1}}, "weekday": "saturday", "livingplace": "Carouge"}}, "location": "Murten"}, "20km de Lausanne": {"latitude": 46.5196535, "longitude": 6.6322734, "race": "20km de Lausanne", "date": {"sam. 30.04.2011": {"year": 2011, "day": 30, "month": 4, "categories": {"10-F30": {"distance": 10, "rank": 223, "pace": 338000000000, "time": 3389.6}, "20-F30": {"distance": 20, "rank": 8, "pace": 259000000000, "time": 5187.5}}, "weekday": "saturday", "livingplace": "Cormerod"}}, "location": "Lausanne"}, "Tour du pays de Vaud #1 - Mezi\u00e8res": {"latitude": 46.7784736, "longitude": 6.641183, "race": "Tour du pays de Vaud #1 - Mezi\u00e8res", "date": {"mer. 10.08.2011": {"year": 2011, "day": 10, "month": 8, "categories": {"D-Sen1": {"distance": 9, "rank": 35, "pace": 327000000000, "time": 2786.9}}, "weekday": "wednesday", "livingplace": "Misery"}}, "location": "Yverdon-les-Bains"}, "Kerzerslauf": {"latitude": 46.97488999999999, "longitude": 7.1954365, "race": "Kerzerslauf", "date": {"sam. 19.03.2005": {"year": 2005, "day": 19, "month": 3, "categories": {"F20": {"distance": 15, "rank": 48, "pace": 283000000000, "time": 4254.0}}, "weekday": "saturday", "livingplace": "Carouge"}}, "location": "Kerzers"}}, "birth": 1974}