{"name": "Zala Silvio", "sex": "M", "races": {"Burgdorfer Stadtlauf, Burgdorf": {"latitude": 45.277123, "longitude": -115.9129022, "race": "Burgdorfer Stadtlauf, Burgdorf", "date": {"sam. 13.09.2014": {"year": 2014, "day": 13, "month": 9, "categories": {"10-M30": {"distance": 10, "rank": 46, "pace": 325000000000, "time": 3259.0}}, "weekday": "saturday", "livingplace": "Ittigen"}}, "location": "Burgdorf"}, "Aletsch-Halbmarathon, Bettmeralp": {"latitude": NaN, "longitude": NaN, "race": "Aletsch-Halbmarathon, Bettmeralp", "date": {"dim. 28.06.2015": {"year": 2015, "day": 28, "month": 6, "categories": {"M35": {"distance": 21, "rank": 174, "pace": 530000000000, "time": 11196.7}}, "weekday": "sunday", "livingplace": "Ittigen"}}, "location": "Bettmeralp"}, "20km de Lausanne": {"latitude": 46.5196535, "longitude": 6.6322734, "race": "20km de Lausanne", "date": {"sam. 25.04.2015": {"year": 2015, "day": 25, "month": 4, "categories": {"20-H30": {"distance": 20, "rank": 725, "pace": 315000000000, "time": 6306.8}}, "weekday": "saturday", "livingplace": "Ittigen"}}, "location": "Lausanne"}, "Gurtenclassic, Wabern": {"latitude": 46.92901639999999, "longitude": 7.448973199999999, "race": "Gurtenclassic, Wabern", "date": {"dim. 02.11.2014": {"year": 2014, "day": 2, "month": 11, "categories": {"M30": {"distance": 15, "rank": 105, "pace": 367000000000, "time": 5516.5}}, "weekday": "sunday", "livingplace": "Ittigen"}}, "location": "Wabern"}, "Kerzerslauf": {"latitude": 46.97488999999999, "longitude": 7.1954365, "race": "Kerzerslauf", "date": {"sam. 21.03.2015": {"year": 2015, "day": 21, "month": 3, "categories": {"15-M35": {"distance": 15, "rank": 329, "pace": 324000000000, "time": 4874.1}}, "weekday": "saturday", "livingplace": "Ittigen"}}, "location": "Kerzers"}, "Winterthur Marathon": {"latitude": 39.8088766, "longitude": -75.6037351, "race": "Winterthur Marathon", "date": {"dim. 31.05.2015": {"year": 2015, "day": 31, "month": 5, "categories": {"HM-M30": {"distance": 21, "rank": 182, "pace": 324000000000, "time": 6810.3}}, "weekday": "sunday", "livingplace": "Ittigen"}, "dim. 01.06.2014": {"year": 2014, "day": 1, "month": 6, "categories": {"10-M30": {"distance": 10, "rank": 48, "pace": 339000000000, "time": 3397.7}}, "weekday": "sunday", "livingplace": "Ittigen"}}, "location": "Winterthur"}}, "birth": 1980}