{"name": "Zaugg Andy", "sex": "M", "races": {"Tour du Chablais #6 Monthey": {"latitude": 46.3190253, "longitude": 6.970566, "race": "Tour du Chablais #6 Monthey", "date": {"mer. 08.05.2013": {"year": 2013, "day": 8, "month": 5, "categories": {"M-M40": {"distance": 9, "rank": 68, "pace": 270000000000, "time": 2520.0}}, "weekday": "wednesday", "livingplace": "Cugy"}}, "location": "Aigle"}, "Sierre-Zinal, Sierre": {"latitude": 46.29413110000001, "longitude": 7.533536199999999, "race": "Sierre-Zinal, Sierre", "date": {"dim. 11.08.2013": {"year": 2013, "day": 11, "month": 8, "categories": {"V\u00e9t_I": {"distance": 31, "rank": 81, "pace": 475000000000, "time": 14742.2}}, "weekday": "sunday", "livingplace": "Cugy"}}, "location": "Sierre"}, "Course de l'Escalade, Gen\u00e8ve": {"latitude": 46.2043907, "longitude": 6.1431577, "race": "Course de l'Escalade, Gen\u00e8ve", "date": {"sam. 03.12.2005": {"year": 2005, "day": 3, "month": 12, "categories": {"HElite": {"distance": 7, "rank": 423, "pace": 244000000000, "time": 1773.1}}, "weekday": "saturday", "livingplace": "Pully"}, "sam. 06.12.2008": {"year": 2008, "day": 6, "month": 12, "categories": {"Elite H": {"distance": 7, "rank": 279, "pace": 233000000000, "time": 1694.1}}, "weekday": "saturday", "livingplace": "Cugy Vd"}}, "location": "Gen\u00e8ve"}, "Tour du Pays de Vaud printanier #1 Moudon": {"latitude": 46.3832683, "longitude": 6.2347852, "race": "Tour du Pays de Vaud printanier #1 Moudon", "date": {"mer. 29.05.2013": {"year": 2013, "day": 29, "month": 5, "categories": {"H-Sen2": {"distance": 8, "rank": 60, "pace": 330000000000, "time": 2825.1}}, "weekday": "wednesday", "livingplace": "Cugy"}}, "location": "Nyon"}, "Tour du Pays de Vaud printanier #3 - Yens": {"latitude": 46.7829756, "longitude": 6.5728678, "race": "Tour du Pays de Vaud printanier #3 - Yens", "date": {"mer. 12.06.2013": {"year": 2013, "day": 12, "month": 6, "categories": {"H-Sen2": {"distance": 9, "rank": 38, "pace": 290000000000, "time": 2645.9}}, "weekday": "wednesday", "livingplace": "Cugy"}}, "location": "Champvent"}, "20km de Lausanne": {"latitude": 46.5196535, "longitude": 6.6322734, "race": "20km de Lausanne", "date": {"sam. 27.04.2013": {"year": 2013, "day": 27, "month": 4, "categories": {"10-H40": {"distance": 10, "rank": 59, "pace": 260000000000, "time": 2600.7}}, "weekday": "saturday", "livingplace": "Cugy"}, "sam. 28.04.2007": {"year": 2007, "day": 28, "month": 4, "categories": {"10H30": {"distance": 10, "rank": 127, "pace": 273000000000, "time": 2730.2}}, "weekday": "saturday", "livingplace": "Cugy"}, "sam. 22.04.2006": {"year": 2006, "day": 22, "month": 4, "categories": {"10/H30": {"distance": 10, "rank": 35, "pace": 244000000000, "time": 2448.1}}, "weekday": "saturday", "livingplace": "Cugy"}}, "location": "Lausanne"}, "Tour du Pays de Vaud #4 - La Sarraz": {"latitude": 46.7088129, "longitude": 6.5707689, "race": "Tour du Pays de Vaud #4 - La Sarraz", "date": {"mer. 04.09.2013": {"year": 2013, "day": 4, "month": 9, "categories": {"H-Sen2": {"distance": 9, "rank": 35, "pace": 267000000000, "time": 2269.6}}, "weekday": "wednesday", "livingplace": "Haute Nendaz"}}, "location": "Chavornay"}, "Tour du Pays de Vaud printanier #2 Yverdon-les-Bains": {"latitude": 46.6698891, "longitude": 6.7975224, "race": "Tour du Pays de Vaud printanier #2 Yverdon-les-Bains", "date": {"mer. 11.06.2014": {"year": 2014, "day": 11, "month": 6, "categories": {"H-Sen2": {"distance": 9, "rank": 23, "pace": 304000000000, "time": 2770.1}}, "weekday": "wednesday", "livingplace": "Cugy"}}, "location": "Moudon"}, "Tour du Chablais #2 Bex": {"latitude": 46.3835529, "longitude": 6.854975199999999, "race": "Tour du Chablais #2 Bex", "date": {"mer. 18.04.2012": {"year": 2012, "day": 18, "month": 4, "categories": {"M-M40": {"distance": 8, "rank": 72, "pace": 275000000000, "time": 2201.1}}, "weekday": "wednesday", "livingplace": "Cugy"}}, "location": "Bouveret"}, "Course p\u00e9destre Thyon-Dixence, Thyon": {"latitude": NaN, "longitude": NaN, "race": "Course p\u00e9destre Thyon-Dixence, Thyon", "date": {"dim. 04.08.2013": {"year": 2013, "day": 4, "month": 8, "categories": {"V\u00e9ter 1": {"distance": 16, "rank": 36, "pace": 412000000000, "time": 6749.2}}, "weekday": "sunday", "livingplace": "Haute Nendaz"}}, "location": "Thyon-Les Collons"}}, "birth": 1969}