{"name": "Zaugg C\u00e9dric", "sex": "M", "races": {"BCN Tour Couvet": {"latitude": 47.0624261, "longitude": 6.9175754, "race": "BCN Tour Couvet", "date": {"mer. 02.05.2012": {"year": 2012, "day": 2, "month": 5, "categories": {"HS2": {"distance": 11, "rank": 267, "pace": 361000000000, "time": 4026.1}}, "weekday": "wednesday", "livingplace": "Coffrane"}}, "location": "Ch\u00e9zard-St-Martin"}, "BCN Tour M\u00f4tier": {"latitude": 46.9262933, "longitude": 6.6324944, "race": "BCN Tour M\u00f4tier", "date": {"mer. 19.05.2010": {"year": 2010, "day": 19, "month": 5, "categories": {"HS1": {"distance": 10, "rank": 121, "pace": 289000000000, "time": 2861.9}}, "weekday": "wednesday", "livingplace": "Coffrane"}}, "location": "Couvet"}, "BCN Tour Les Ponts-de-Martel": {"latitude": 46.999113, "longitude": 6.733554799999999, "race": "BCN Tour Les Ponts-de-Martel", "date": {"mer. 09.05.2012": {"year": 2012, "day": 9, "month": 5, "categories": {"HS2": {"distance": 10, "rank": 265, "pace": 350000000000, "time": 3614.7}}, "weekday": "wednesday", "livingplace": "Coffrane"}}, "location": "Les Ponts-de-Martel"}, "BCN Tour Fontaine Cernier": {"latitude": 47.0624261, "longitude": 6.9175754, "race": "BCN Tour Fontaine Cernier", "date": {"mer. 27.04.2011": {"year": 2011, "day": 27, "month": 4, "categories": {"HS1": {"distance": 10, "rank": 215, "pace": 324000000000, "time": 3339.5}}, "weekday": "wednesday", "livingplace": "Coffrane"}}, "location": "Ch\u00e9zard-St-Martin"}, "BCN Tour Le Landeron": {"latitude": 46.9668714, "longitude": 6.8589727, "race": "BCN Tour Le Landeron", "date": {"mer. 22.04.2009": {"year": 2009, "day": 22, "month": 4, "categories": {"HS1": {"distance": 11, "rank": 136, "pace": 313000000000, "time": 3485.3}}, "weekday": "wednesday", "livingplace": "Coffrane"}}, "location": "Colombier NE"}, "BCN Tour Le Locle": {"latitude": 46.999113, "longitude": 6.733554799999999, "race": "BCN Tour Le Locle", "date": {"mer. 05.05.2010": {"year": 2010, "day": 5, "month": 5, "categories": {"HS1": {"distance": 11, "rank": 131, "pace": 308000000000, "time": 3365.0}}, "weekday": "wednesday", "livingplace": "Coffrane"}}, "location": "Les Ponts-de-Martel"}, "BCN Tour Neuch\u00e2tel": {"latitude": 46.9899874, "longitude": 6.9292732, "race": "BCN Tour Neuch\u00e2tel", "date": {"mer. 26.05.2010": {"year": 2010, "day": 26, "month": 5, "categories": {"HS1": {"distance": 10, "rank": 137, "pace": 338000000000, "time": 3287.5}}, "weekday": "wednesday", "livingplace": "Coffrane"}, "mer. 30.05.2012": {"year": 2012, "day": 30, "month": 5, "categories": {"HS2": {"distance": 11, "rank": 226, "pace": 353000000000, "time": 3962.4}}, "weekday": "wednesday", "livingplace": "Coffrane"}, "mer. 25.05.2011": {"year": 2011, "day": 25, "month": 5, "categories": {"HS1": {"distance": 11, "rank": 239, "pace": 355000000000, "time": 4056.3}}, "weekday": "wednesday", "livingplace": "Coffrane"}}, "location": "Neuch\u00e2tel"}, "BCN Tour Auvernier": {"latitude": 46.9668714, "longitude": 6.8589727, "race": "BCN Tour Auvernier", "date": {"mer. 20.04.2011": {"year": 2011, "day": 20, "month": 4, "categories": {"HS1": {"distance": 11, "rank": 207, "pace": 349000000000, "time": 3778.7}}, "weekday": "wednesday", "livingplace": "Coffrane"}}, "location": "Colombier NE"}, "BCN Tour Cornaux": {"latitude": 46.9668714, "longitude": 6.8589727, "race": "BCN Tour Cornaux", "date": {"mer. 25.04.2012": {"year": 2012, "day": 25, "month": 4, "categories": {"HS2": {"distance": 11, "rank": 275, "pace": 401000000000, "time": 4411.3}}, "weekday": "wednesday", "livingplace": "Coffrane"}}, "location": "Colombier NE"}, "BCN Tour La Chaux-de-Fonds": {"latitude": 47.1034892, "longitude": 6.832783800000001, "race": "BCN Tour La Chaux-de-Fonds", "date": {"mer. 23.05.2012": {"year": 2012, "day": 23, "month": 5, "categories": {"HS2": {"distance": 11, "rank": 220, "pace": 333000000000, "time": 3602.0}}, "weekday": "wednesday", "livingplace": "Coffrane"}, "mer. 11.05.2011": {"year": 2011, "day": 11, "month": 5, "categories": {"HS1": {"distance": 11, "rank": 241, "pace": 401000000000, "time": 4291.6}}, "weekday": "wednesday", "livingplace": "Coffrane"}}, "location": "La Chaux-de-Fonds"}, "BCN Tour La Br\u00e9vine": {"latitude": 46.999113, "longitude": 6.733554799999999, "race": "BCN Tour La Br\u00e9vine", "date": {"mer. 04.05.2011": {"year": 2011, "day": 4, "month": 5, "categories": {"HS1": {"distance": 10, "rank": 216, "pace": 354000000000, "time": 3546.2}}, "weekday": "wednesday", "livingplace": "Coffrane"}}, "location": "Les Ponts-de-Martel"}, "BCN Tour Ponts-de-Martel": {"latitude": 47.0624261, "longitude": 6.9175754, "race": "BCN Tour Ponts-de-Martel", "date": {"mer. 28.04.2010": {"year": 2010, "day": 28, "month": 4, "categories": {"HS1": {"distance": 11, "rank": 98, "pace": 304000000000, "time": 3409.2}}, "weekday": "wednesday", "livingplace": "Coffrane"}}, "location": "Ch\u00e9zard-St-Martin"}, "BCN Tour Les Ponts de Martel": {"latitude": 46.9262933, "longitude": 6.6324944, "race": "BCN Tour Les Ponts de Martel", "date": {"mer. 18.05.2011": {"year": 2011, "day": 18, "month": 5, "categories": {"HS1": {"distance": 13, "rank": 205, "pace": 348000000000, "time": 4458.1}}, "weekday": "wednesday", "livingplace": "Coffrane"}}, "location": "Couvet"}, "BCN Tour La Chaux-de-fonds": {"latitude": 47.1034892, "longitude": 6.832783800000001, "race": "BCN Tour La Chaux-de-fonds", "date": {"mer. 12.05.2010": {"year": 2010, "day": 12, "month": 5, "categories": {"HS1": {"distance": 11, "rank": 107, "pace": 359000000000, "time": 3845.8}}, "weekday": "wednesday", "livingplace": "Coffrane"}}, "location": "La Chaux-de-Fonds"}, "BCN Tour Colombier": {"latitude": 46.9668714, "longitude": 6.8589727, "race": "BCN Tour Colombier", "date": {"mer. 16.05.2012": {"year": 2012, "day": 16, "month": 5, "categories": {"HS2": {"distance": 11, "rank": 259, "pace": 329000000000, "time": 3563.8}}, "weekday": "wednesday", "livingplace": "Coffrane"}, "mer. 21.04.2010": {"year": 2010, "day": 21, "month": 4, "categories": {"HS1": {"distance": 10, "rank": 120, "pace": 334000000000, "time": 3344.2}}, "weekday": "wednesday", "livingplace": "Coffrane"}}, "location": "Colombier NE"}}, "birth": 1972}