{"name": "Zbinden Pierre", "sex": "M", "races": {"Morat-Fribourg": {"latitude": 46.92922110000001, "longitude": 7.120184, "race": "Morat-Fribourg", "date": {"dim. 05.10.2003": {"year": 2003, "day": 5, "month": 10, "categories": {"M55": {"distance": 17, "rank": 96, "pace": 296000000000, "time": 5094.3}}, "weekday": "sunday", "livingplace": "Le Locle"}, "sam. 03.10.2009": {"year": 2009, "day": 3, "month": 10, "categories": {"C-M60": {"distance": 17, "rank": 131, "pace": 351000000000, "time": 6036.8}}, "weekday": "saturday", "livingplace": "Le Locle"}, "sam. 04.10.2008": {"year": 2008, "day": 4, "month": 10, "categories": {"C-M60": {"distance": 17, "rank": 98, "pace": 328000000000, "time": 5641.9}}, "weekday": "saturday", "livingplace": "Le Locle"}, "dim. 07.10.2001": {"year": 2001, "day": 7, "month": 10, "categories": {"M55": {"distance": 17, "rank": 71, "pace": 298000000000, "time": 5130.5}}, "weekday": "sunday", "livingplace": "Le Locle"}, "sam. 06.10.2007": {"year": 2007, "day": 6, "month": 10, "categories": {"C/M60": {"distance": 17, "rank": 65, "pace": 314000000000, "time": 5406.2}}, "weekday": "saturday", "livingplace": "Le Locle"}}, "location": "Murten"}, "BCN Tour Ponts-de-Martel": {"latitude": 47.0624261, "longitude": 6.9175754, "race": "BCN Tour Ponts-de-Martel", "date": {"mer. 28.04.2010": {"year": 2010, "day": 28, "month": 4, "categories": {"HV2": {"distance": 11, "rank": 33, "pace": 395000000000, "time": 4432.9}}, "weekday": "wednesday", "livingplace": "Le Locle"}}, "location": "Ch\u00e9zard-St-Martin"}, "BCN Tour Le Landeron": {"latitude": 46.9668714, "longitude": 6.8589727, "race": "BCN Tour Le Landeron", "date": {"mer. 22.04.2009": {"year": 2009, "day": 22, "month": 4, "categories": {"HV2": {"distance": 11, "rank": 28, "pace": 353000000000, "time": 3924.6}}, "weekday": "wednesday", "livingplace": "Dixi Polytool 2"}}, "location": "Colombier NE"}, "BCN Tour M\u00f4tier": {"latitude": 46.9262933, "longitude": 6.6324944, "race": "BCN Tour M\u00f4tier", "date": {"mer. 19.05.2010": {"year": 2010, "day": 19, "month": 5, "categories": {"HV2": {"distance": 10, "rank": 37, "pace": 370000000000, "time": 3665.3}}, "weekday": "wednesday", "livingplace": "Le Locle"}}, "location": "Couvet"}, "BCN Tour Le Locle": {"latitude": 46.999113, "longitude": 6.733554799999999, "race": "BCN Tour Le Locle", "date": {"mer. 05.05.2010": {"year": 2010, "day": 5, "month": 5, "categories": {"HV2": {"distance": 11, "rank": 29, "pace": 370000000000, "time": 4037.8}}, "weekday": "wednesday", "livingplace": "Le Locle"}}, "location": "Les Ponts-de-Martel"}, "BCN Tour Neuch\u00e2tel": {"latitude": 46.9899874, "longitude": 6.9292732, "race": "BCN Tour Neuch\u00e2tel", "date": {"mer. 26.05.2010": {"year": 2010, "day": 26, "month": 5, "categories": {"HV2": {"distance": 10, "rank": 42, "pace": 517000000000, "time": 5023.8}}, "weekday": "wednesday", "livingplace": "Le Locle"}}, "location": "Neuch\u00e2tel"}, "BCN Tour La Chaux-de-fonds": {"latitude": 47.1034892, "longitude": 6.832783800000001, "race": "BCN Tour La Chaux-de-fonds", "date": {"mer. 12.05.2010": {"year": 2010, "day": 12, "month": 5, "categories": {"HV2": {"distance": 11, "rank": 35, "pace": 486000000000, "time": 5202.1}}, "weekday": "wednesday", "livingplace": "Le Locle"}}, "location": "La Chaux-de-Fonds"}, "BCN Tour Colombier": {"latitude": 46.9668714, "longitude": 6.8589727, "race": "BCN Tour Colombier", "date": {"mer. 23.04.2008": {"year": 2008, "day": 23, "month": 4, "categories": {"HV2": {"distance": 10, "rank": 16, "pace": 333000000000, "time": 3404.8}}, "weekday": "wednesday", "livingplace": "Le Locle"}, "mer. 21.04.2010": {"year": 2010, "day": 21, "month": 4, "categories": {"HV2": {"distance": 10, "rank": 34, "pace": 416000000000, "time": 4160.3}}, "weekday": "wednesday", "livingplace": "Le Locle"}}, "location": "Colombier NE"}}, "birth": 1945}