{"name": "Zerbini Kahra", "sex": "F", "races": {"Badener Limmat-Lauf, Baden": {"latitude": 48.5699281, "longitude": 8.5303972, "race": "Badener Limmat-Lauf, Baden", "date": {"sam. 28.03.2015": {"year": 2015, "day": 28, "month": 3, "categories": {"WU12": {"distance": 2, "rank": 5, "pace": 255000000000, "time": 552.0}}, "weekday": "saturday", "livingplace": "Sonceboz Sombeval"}}, "location": "Baden"}, "20km de Lausanne": {"latitude": 46.5196535, "longitude": 6.6322734, "race": "20km de Lausanne", "date": {"sam. 25.04.2015": {"year": 2015, "day": 25, "month": 4, "categories": {"4-F12": {"distance": 4, "rank": 12, "pace": 271000000000, "time": 1086.5}}, "weekday": "saturday", "livingplace": "Sonceboz Sombeval"}}, "location": "Lausanne"}, "Corrida Bulloise, Bulle": {"latitude": 46.6154512, "longitude": 7.057726799999999, "race": "Corrida Bulloise, Bulle", "date": {"sam. 16.11.2013": {"year": 2013, "day": 16, "month": 11, "categories": {"F-U10": {"distance": 1, "rank": 9, "pace": 262000000000, "time": 302.2}}, "weekday": "saturday", "livingplace": "Sonceboz Sombeval"}, "sam. 15.11.2014": {"year": 2014, "day": 15, "month": 11, "categories": {"F-U12": {"distance": 2, "rank": 6, "pace": 250000000000, "time": 439.2}}, "weekday": "saturday", "livingplace": "Sonceboz Sombeval"}, "sam. 21.11.2015": {"year": 2015, "day": 21, "month": 11, "categories": {"F-U12": {"distance": 2, "rank": 4, "pace": 239000000000, "time": 418.7}}, "weekday": "saturday", "livingplace": "Sonceboz Sombeval"}}, "location": "Bulle"}, "Lenzburger Lauf": {"latitude": 47.3904443, "longitude": 8.172154500000001, "race": "Lenzburger Lauf", "date": {"sam. 30.05.2015": {"year": 2015, "day": 30, "month": 5, "categories": {"SchB-F": {"distance": 3, "rank": 3, "pace": 287000000000, "time": 747.0}}, "weekday": "saturday", "livingplace": "Bienne"}}, "location": "Lenzburg"}, "Int  Bieler Cross, Biel-Bienne": {"latitude": 47.1367785, "longitude": 7.2467909, "race": "Int  Bieler Cross, Biel-Bienne", "date": {"dim. 09.11.2014": {"year": 2014, "day": 9, "month": 11, "categories": {"U12-F": {"distance": 2, "rank": 3, "pace": 247000000000, "time": 371.3}}, "weekday": "sunday", "livingplace": "TIP P Polysport BE"}}, "location": "Biel/Bienne"}, "Course de l'Avent, Fribourg": {"latitude": 46.8064773, "longitude": 7.161971899999999, "race": "Course de l'Avent, Fribourg", "date": {"dim. 23.11.2014": {"year": 2014, "day": 23, "month": 11, "categories": {"Jeunes-F": {"distance": 2, "rank": 3, "pace": 239000000000, "time": 431.9}}, "weekday": "sunday", "livingplace": "Sonceboz Sombeval"}}, "location": "Fribourg"}, "Gempenlauf, Dornach": {"latitude": 47.4790491, "longitude": 7.6170412, "race": "Gempenlauf, Dornach", "date": {"mer. 04.06.2014": {"year": 2014, "day": 4, "month": 6, "categories": {"F11": {"distance": 1, "rank": 1, "pace": 253000000000, "time": 354.5}}, "weekday": "wednesday", "livingplace": "Sonceboz Sombeval"}}, "location": "Dornach"}, "Kerzerslauf": {"latitude": 46.97488999999999, "longitude": 7.1954365, "race": "Kerzerslauf", "date": {"sam. 15.03.2014": {"year": 2014, "day": 15, "month": 3, "categories": {"2-U12F": {"distance": 1, "rank": 25, "pace": 254000000000, "time": 356.3}}, "weekday": "saturday", "livingplace": "Sonceboz Sombeval"}}, "location": "Kerzers"}}, "birth": 2004}