{"name": "Zerbato Alberto", "sex": "M", "races": {"Tour du Pays de Vaud #2 - Genolier": {"latitude": 46.5955273, "longitude": 6.7702883, "race": "Tour du Pays de Vaud #2 - Genolier", "date": {"mer. 15.08.2012": {"year": 2012, "day": 15, "month": 8, "categories": {"H-Sen2": {"distance": 9, "rank": 89, "pace": 299000000000, "time": 2549.7}}, "weekday": "wednesday", "livingplace": "Boussens"}}, "location": "M\u00e9zi\u00e8res VD"}, "Tour du Pays de Vaud #4, La Sarraz": {"latitude": 46.7088129, "longitude": 6.5707689, "race": "Tour du Pays de Vaud #4, La Sarraz", "date": {"mer. 03.09.2014": {"year": 2014, "day": 3, "month": 9, "categories": {"H-Sen2": {"distance": 9, "rank": 69, "pace": 290000000000, "time": 2467.0}}, "weekday": "wednesday", "livingplace": "Boussens"}}, "location": "Chavornay"}, "Tour du Pays de Vaud printanier #1 Chavornay": {"latitude": 46.3832683, "longitude": 6.2347852, "race": "Tour du Pays de Vaud printanier #1 Chavornay", "date": {"mer. 30.05.2012": {"year": 2012, "day": 30, "month": 5, "categories": {"H-Sen2": {"distance": 9, "rank": 33, "pace": 294000000000, "time": 2638.1}}, "weekday": "wednesday", "livingplace": "Boussens"}}, "location": "Nyon"}, "Tour du pays de Vaud #1 - Mezi\u00e8res": {"latitude": 46.7784736, "longitude": 6.641183, "race": "Tour du pays de Vaud #1 - Mezi\u00e8res", "date": {"mer. 10.08.2011": {"year": 2011, "day": 10, "month": 8, "categories": {"H-Sen2": {"distance": 9, "rank": 115, "pace": 292000000000, "time": 2489.8}}, "weekday": "wednesday", "livingplace": "Boussens"}}, "location": "Yverdon-les-Bains"}, "Lausanne Marathon": {"latitude": 46.5196535, "longitude": 6.6322734, "race": "Lausanne Marathon", "date": {"dim. 30.10.2011": {"year": 2011, "day": 30, "month": 10, "categories": {"10-H3": {"distance": 10, "rank": 188, "pace": 283000000000, "time": 2835.7}}, "weekday": "sunday", "livingplace": "Boussens"}, "dim. 28.10.2012": {"year": 2012, "day": 28, "month": 10, "categories": {"10-H3": {"distance": 10, "rank": 143, "pace": 279000000000, "time": 2799.0}}, "weekday": "sunday", "livingplace": "Boussens"}}, "location": "Lausanne"}, "Tour du pays de Vaud #1 - Penthaz": {"latitude": 46.5993131, "longitude": 6.539251200000001, "race": "Tour du pays de Vaud #1 - Penthaz", "date": {"mer. 08.08.2012": {"year": 2012, "day": 8, "month": 8, "categories": {"H-Sen2": {"distance": 9, "rank": 84, "pace": 294000000000, "time": 2516.1}}, "weekday": "wednesday", "livingplace": "Boussens"}}, "location": "Penthaz"}, "Tour du Pays de Vaud #4 - La Sarraz": {"latitude": 46.7088129, "longitude": 6.5707689, "race": "Tour du Pays de Vaud #4 - La Sarraz", "date": {"mer. 29.08.2012": {"year": 2012, "day": 29, "month": 8, "categories": {"H-Sen2": {"distance": 9, "rank": 94, "pace": 286000000000, "time": 2438.0}}, "weekday": "wednesday", "livingplace": "Boussens"}, "mer. 04.09.2013": {"year": 2013, "day": 4, "month": 9, "categories": {"H-Sen2": {"distance": 9, "rank": 110, "pace": 301000000000, "time": 2560.1}}, "weekday": "wednesday", "livingplace": "Boussens"}}, "location": "Chavornay"}, "Tour du Pays de Vaud #3 - Chavornay": {"latitude": 46.7784736, "longitude": 6.641183, "race": "Tour du Pays de Vaud #3 - Chavornay", "date": {"mer. 28.08.2013": {"year": 2013, "day": 28, "month": 8, "categories": {"H-Sen2": {"distance": 9, "rank": 93, "pace": 287000000000, "time": 2560.2}}, "weekday": "wednesday", "livingplace": "Boussens"}}, "location": "Yverdon-les-Bains"}, "20km de Lausanne": {"latitude": 46.5196535, "longitude": 6.6322734, "race": "20km de Lausanne", "date": {"sam. 25.04.2015": {"year": 2015, "day": 25, "month": 4, "categories": {"10-H45": {"distance": 10, "rank": 68, "pace": 279000000000, "time": 2798.1}}, "weekday": "saturday", "livingplace": "Boussens"}}, "location": "Lausanne"}, "Tour du Pays de Vaud #3, Chavornay": {"latitude": 46.7784736, "longitude": 6.641183, "race": "Tour du Pays de Vaud #3, Chavornay", "date": {"mer. 27.08.2014": {"year": 2014, "day": 27, "month": 8, "categories": {"H-Sen2": {"distance": 9, "rank": 80, "pace": 306000000000, "time": 2632.9}}, "weekday": "wednesday", "livingplace": "Boussens"}}, "location": "Yverdon-les-Bains"}}, "birth": 1968}