{"name": "Ziegler Daniela", "sex": "F", "races": {"Tour du Pays de Vaud etape 5 - La Sarraz": {"latitude": 46.5993131, "longitude": 6.539251200000001, "race": "Tour du Pays de Vaud etape 5 - La Sarraz", "date": {"mer. 09.09.2009": {"year": 2009, "day": 9, "month": 9, "categories": {"Dam": {"distance": 9, "rank": 39, "pace": 378000000000, "time": 3177.7}}, "weekday": "wednesday", "livingplace": "Lausanne"}}, "location": "Penthaz"}, "Morat-Fribourg": {"latitude": 46.92922110000001, "longitude": 7.120184, "race": "Morat-Fribourg", "date": {"sam. 06.10.2007": {"year": 2007, "day": 6, "month": 10, "categories": {"C/W20": {"distance": 17, "rank": 154, "pace": 329000000000, "time": 5653.9}}, "weekday": "saturday", "livingplace": "Lausanne"}}, "location": "Murten"}, "Tour du Pays de Vaud etape 2 - Genolier": {"latitude": 46.5955273, "longitude": 6.7702883, "race": "Tour du Pays de Vaud etape 2 - Genolier", "date": {"mer. 19.08.2009": {"year": 2009, "day": 19, "month": 8, "categories": {"Dam": {"distance": 8, "rank": 39, "pace": 385000000000, "time": 3126.2}}, "weekday": "wednesday", "livingplace": "Lausanne"}}, "location": "M\u00e9zi\u00e8res VD"}, "Lausanne Marathon": {"latitude": 46.5196535, "longitude": 6.6322734, "race": "Lausanne Marathon", "date": {"dim. 30.10.2011": {"year": 2011, "day": 30, "month": 10, "categories": {"42-D1": {"distance": 42, "rank": 23, "pace": 454000000000, "time": 19181.8}}, "weekday": "sunday", "livingplace": "Lausanne"}}, "location": "Lausanne"}, "Tour du Pays de Vaud etape 1 - Le Mont sur Lausanne": {"latitude": 46.7784736, "longitude": 6.641183, "race": "Tour du Pays de Vaud etape 1 - Le Mont sur Lausanne", "date": {"mer. 12.08.2009": {"year": 2009, "day": 12, "month": 8, "categories": {"Dam": {"distance": 9, "rank": 33, "pace": 378000000000, "time": 3521.7}}, "weekday": "wednesday", "livingplace": "Lausanne"}}, "location": "Yverdon-les-Bains"}, "20km de Lausanne": {"latitude": 46.5196535, "longitude": 6.6322734, "race": "20km de Lausanne", "date": {"sam. 28.04.2007": {"year": 2007, "day": 28, "month": 4, "categories": {"20F20": {"distance": 20, "rank": 25, "pace": 310000000000, "time": 6201.4}}, "weekday": "saturday", "livingplace": "Lausanne"}, "sam. 22.04.2006": {"year": 2006, "day": 22, "month": 4, "categories": {"10/F20": {"distance": 10, "rank": 105, "pace": 339000000000, "time": 3395.3}}, "weekday": "saturday", "livingplace": "Lausanne"}}, "location": "Lausanne"}}, "birth": 1982}