{"name": "Zihlmann Monika", "sex": "F", "races": {"Gippinger Stauseelauf": {"latitude": 47.5810513, "longitude": 8.2152586, "race": "Gippinger Stauseelauf", "date": {"mar. 31.12.2002": {"year": 2002, "day": 31, "month": 12, "categories": {"F20": {"distance": 8, "rank": 10, "pace": 242000000000, "time": 1818.0}}, "weekday": "tuesday", "livingplace": "Wurenlos"}, "dim. 31.12.2006": {"year": 2006, "day": 31, "month": 12, "categories": {"F30": {"distance": 8, "rank": 6, "pace": 243000000000, "time": 1827.7}}, "weekday": "sunday", "livingplace": "Wurenlos"}}, "location": "Leuggern"}, "Pfingstlauf Wohlen AG": {"latitude": 47.3493653, "longitude": 8.2768762, "race": "Pfingstlauf Wohlen AG", "date": {"sam. 29.05.2004": {"year": 2004, "day": 29, "month": 5, "categories": {"F20": {"distance": 8, "rank": 5, "pace": 224000000000, "time": 1841.5}}, "weekday": "saturday", "livingplace": "Wurenlos"}, "sam. 07.06.2003": {"year": 2003, "day": 7, "month": 6, "categories": {"13": {"distance": 8, "rank": 4, "pace": 250000000000, "time": 2053.1}}, "weekday": "saturday", "livingplace": "Wurenlos"}}, "location": "Wohlen AG"}, "Z\u00fcrich Marathon, Teamrun und Cityrun": {"latitude": 47.3768866, "longitude": 8.541694, "race": "Z\u00fcrich Marathon, Teamrun und Cityrun", "date": {"dim. 09.04.2006": {"year": 2006, "day": 9, "month": 4, "categories": {"W30": {"distance": 42, "rank": 19, "pace": 268000000000, "time": 11345.1}}, "weekday": "sunday", "livingplace": "Wurenlos"}}, "location": "Z\u00fcrich"}, "ASICS Bremgarter Reusslauf": {"latitude": 47.34917739999999, "longitude": 8.3397905, "race": "ASICS Bremgarter Reusslauf", "date": {"sam. 23.02.2008": {"year": 2008, "day": 23, "month": 2, "categories": {"F30": {"distance": 11, "rank": 9, "pace": 235000000000, "time": 2593.5}}, "weekday": "saturday", "livingplace": "Baden"}}, "location": "Bremgarten AG"}, "Schweizer Frauenlauf Bern": {"latitude": 46.9479739, "longitude": 7.4474468, "race": "Schweizer Frauenlauf Bern", "date": {"dim. 13.06.2004": {"year": 2004, "day": 13, "month": 6, "categories": {"W20": {"distance": 5, "rank": 15, "pace": 216000000000, "time": 1084.5}}, "weekday": "sunday", "livingplace": "Wuerenlos"}}, "location": "Bern"}}, "birth": 1976}