{"name": "Zimmermann Priska", "sex": "F", "races": {"Kerzerslauf": {"latitude": 46.97488999999999, "longitude": 7.1954365, "race": "Kerzerslauf", "date": {"sam. 15.03.2008": {"year": 2008, "day": 15, "month": 3, "categories": {"5/F05": {"distance": 5, "rank": 227, "pace": 407000000000, "time": 2035.5}}, "weekday": "saturday", "livingplace": "Thalwil"}}, "location": "Kerzers"}, "Int Greifenseelauf, Uster": {"latitude": 47.3482747, "longitude": 8.717873899999999, "race": "Int Greifenseelauf, Uster", "date": {"sam. 16.09.2006": {"year": 2006, "day": 16, "month": 9, "categories": {"K/W20": {"distance": 10, "rank": 81, "pace": 374000000000, "time": 3742.7}}, "weekday": "saturday", "livingplace": "Thalwil"}}, "location": "Uster"}, "Z\u00fcrcher Silvesterlauf, Z\u00fcrich": {"latitude": 47.3768866, "longitude": 8.541694, "race": "Z\u00fcrcher Silvesterlauf, Z\u00fcrich", "date": {"dim. 16.12.2007": {"year": 2007, "day": 16, "month": 12, "categories": {"DaHK-8": {"distance": 9, "rank": 501, "pace": 374000000000, "time": 3218.8}}, "weekday": "sunday", "livingplace": "Thalwil"}}, "location": "Z\u00fcrich"}, "Sihltaler Fr\u00fchlingslauf, Gattikon": {"latitude": 47.2949282, "longitude": 8.5644799, "race": "Sihltaler Fr\u00fchlingslauf, Gattikon", "date": {"jeu. 01.05.2008": {"year": 2008, "day": 1, "month": 5, "categories": {"F30": {"distance": 10, "rank": 35, "pace": 389000000000, "time": 3894.3}}, "weekday": "thursday", "livingplace": "Thalwil"}}, "location": "Gattikon"}, "Schweizer Frauenlauf Bern": {"latitude": 46.9479739, "longitude": 7.4474468, "race": "Schweizer Frauenlauf Bern", "date": {"dim. 10.06.2007": {"year": 2007, "day": 10, "month": 6, "categories": {"10/W20": {"distance": 10, "rank": 506, "pace": 393000000000, "time": 3934.7}}, "weekday": "sunday", "livingplace": "Thalwil"}, "dim. 11.06.2006": {"year": 2006, "day": 11, "month": 6, "categories": {"5-W20": {"distance": 5, "rank": 598, "pace": 358000000000, "time": 1791.9}}, "weekday": "sunday", "livingplace": "Thalwil"}}, "location": "Bern"}}, "birth": 1978}