{"name": "Zimmermann Marco", "sex": "M", "races": {"Groupe E Tour Fribourg #1 Gurmels": {"latitude": 46.81832, "longitude": 6.977279999999999, "race": "Groupe E Tour Fribourg #1 Gurmels", "date": {"mer. 29.08.2012": {"year": 2012, "day": 29, "month": 8, "categories": {"HS1": {"distance": 8, "rank": 27, "pace": 283000000000, "time": 2382.8}}, "weekday": "wednesday", "livingplace": "Bern"}}, "location": "Cousset"}, "Lucerne Marathon, Luzern": {"latitude": 47.05016819999999, "longitude": 8.3093072, "race": "Lucerne Marathon, Luzern", "date": {"dim. 28.10.2012": {"year": 2012, "day": 28, "month": 10, "categories": {"H-M30": {"distance": 21, "rank": 166, "pace": 265000000000, "time": 5596.2}}, "weekday": "sunday", "livingplace": "Bern"}}, "location": "Luzern"}, "Groupe E Tour Fribourg #4 Montagny": {"latitude": 46.6585092, "longitude": 6.877722, "race": "Groupe E Tour Fribourg #4 Montagny", "date": {"mer. 11.09.2013": {"year": 2013, "day": 11, "month": 9, "categories": {"HS1": {"distance": 10, "rank": 35, "pace": 262000000000, "time": 2577.1}}, "weekday": "wednesday", "livingplace": "Bern"}}, "location": "Siviriez"}, "Kerzerslauf": {"latitude": 46.97488999999999, "longitude": 7.1954365, "race": "Kerzerslauf", "date": {"sam. 16.03.2013": {"year": 2013, "day": 16, "month": 3, "categories": {"15-M35": {"distance": 15, "rank": 115, "pace": 264000000000, "time": 3967.6}}, "weekday": "saturday", "livingplace": "Bern"}}, "location": "Kerzers"}, "Groupe E Tour Fribourg #5 Fribourg": {"latitude": 46.8128615, "longitude": 7.131657799999999, "race": "Groupe E Tour Fribourg #5 Fribourg", "date": {"mer. 18.09.2013": {"year": 2013, "day": 18, "month": 9, "categories": {"HS1": {"distance": 10, "rank": 35, "pace": 257000000000, "time": 2578.1}}, "weekday": "wednesday", "livingplace": "Bern"}, "mer. 26.09.2012": {"year": 2012, "day": 26, "month": 9, "categories": {"HS1": {"distance": 11, "rank": 41, "pace": 280000000000, "time": 3006.2}}, "weekday": "wednesday", "livingplace": "Bern"}}, "location": "Givisiez"}, "Groupe E Tour Fribourg #3 Charmey": {"latitude": 46.97488999999999, "longitude": 7.1954365, "race": "Groupe E Tour Fribourg #3 Charmey", "date": {"mer. 04.09.2013": {"year": 2013, "day": 4, "month": 9, "categories": {"HS1": {"distance": 11, "rank": 30, "pace": 285000000000, "time": 3107.3}}, "weekday": "wednesday", "livingplace": "Bern"}}, "location": "Kerzers"}, "Groupe E Tour Fribourg #2 Kerzers": {"latitude": 46.6175845, "longitude": 7.1654493, "race": "Groupe E Tour Fribourg #2 Kerzers", "date": {"mer. 28.08.2013": {"year": 2013, "day": 28, "month": 8, "categories": {"HS1": {"distance": 12, "rank": 27, "pace": 265000000000, "time": 3138.9}}, "weekday": "wednesday", "livingplace": "Bern"}}, "location": "Charmey (Gruy\u00e8re)"}, "Groupe E Tour Fribourg #2 Plafayon": {"latitude": 46.6175845, "longitude": 7.1654493, "race": "Groupe E Tour Fribourg #2 Plafayon", "date": {"mer. 05.09.2012": {"year": 2012, "day": 5, "month": 9, "categories": {"HS1": {"distance": 9, "rank": 43, "pace": 277000000000, "time": 2596.0}}, "weekday": "wednesday", "livingplace": "Bern"}}, "location": "Charmey (Gruy\u00e8re)"}, "Groupe E Tour Fribourg #4 Siviriez": {"latitude": 46.6585092, "longitude": 6.877722, "race": "Groupe E Tour Fribourg #4 Siviriez", "date": {"mer. 19.09.2012": {"year": 2012, "day": 19, "month": 9, "categories": {"HS1": {"distance": 9, "rank": 31, "pace": 280000000000, "time": 2640.3}}, "weekday": "wednesday", "livingplace": "Bern"}}, "location": "Siviriez"}, "Internationaler Matterhornlauf, Zermatt": {"latitude": NaN, "longitude": NaN, "race": "Internationaler Matterhornlauf, Zermatt", "date": {"sam. 25.08.2012": {"year": 2012, "day": 25, "month": 8, "categories": {"MHL-M35": {"distance": 12, "rank": 20, "pace": 424000000000, "time": 5299.4}}, "weekday": "saturday", "livingplace": "Bern"}}, "location": "Zermatt"}}, "birth": 1976}