{"name": "Zimmermann Simon", "sex": "M", "races": {"ASICS Bremgarter Reusslauf": {"latitude": 47.34917739999999, "longitude": 8.3397905, "race": "ASICS Bremgarter Reusslauf", "date": {"sam. 25.02.2012": {"year": 2012, "day": 25, "month": 2, "categories": {"M20": {"distance": 11, "rank": 89, "pace": 258000000000, "time": 2841.5}}, "weekday": "saturday", "livingplace": "Rudtligen"}}, "location": "Bremgarten AG"}, "Gurtenclassic, Wabern": {"latitude": 46.92901639999999, "longitude": 7.448973199999999, "race": "Gurtenclassic, Wabern", "date": {"dim. 07.11.2010": {"year": 2010, "day": 7, "month": 11, "categories": {"KM19": {"distance": 8, "rank": 9, "pace": 303000000000, "time": 2546.1}}, "weekday": "sunday", "livingplace": "Ruettlingen"}}, "location": "Wabern"}, "Burgdorfer Stadtlauf, Burgdorf": {"latitude": 45.277123, "longitude": -115.9129022, "race": "Burgdorfer Stadtlauf, Burgdorf", "date": {"sam. 13.09.2003": {"year": 2003, "day": 13, "month": 9, "categories": {"MS2": {"distance": 2, "rank": 31, "pace": 351000000000, "time": 702.3}}, "weekday": "saturday", "livingplace": "Rudtligen"}}, "location": "Burgdorf"}, "Basler Stadtlauf": {"latitude": 47.5595986, "longitude": 7.5885761, "race": "Basler Stadtlauf", "date": {"sam. 28.11.2015": {"year": 2015, "day": 28, "month": 11, "categories": {"M20": {"distance": 6, "rank": 171, "pace": 242000000000, "time": 1336.2}}, "weekday": "saturday", "livingplace": "Rudtligen"}}, "location": "Basel"}, "Kerzerslauf": {"latitude": 46.97488999999999, "longitude": 7.1954365, "race": "Kerzerslauf", "date": {"sam. 20.03.2010": {"year": 2010, "day": 20, "month": 3, "categories": {"15-M19": {"distance": 15, "rank": 33, "pace": 351000000000, "time": 5276.6}}, "weekday": "saturday", "livingplace": "Rudtligen"}, "sam. 19.03.2011": {"year": 2011, "day": 19, "month": 3, "categories": {"15-M19": {"distance": 15, "rank": 26, "pace": 301000000000, "time": 4527.5}}, "weekday": "saturday", "livingplace": "Rudtligen"}, "sam. 17.03.2012": {"year": 2012, "day": 17, "month": 3, "categories": {"15-M20": {"distance": 15, "rank": 276, "pace": 276000000000, "time": 4153.7}}, "weekday": "saturday", "livingplace": "Rudtligen"}}, "location": "Kerzers"}}, "birth": 1992}