{"name": "Zirnon Hengameh", "sex": "F", "races": {"Tour du Pays de Vaud printanier #1 Moudon": {"latitude": 46.3832683, "longitude": 6.2347852, "race": "Tour du Pays de Vaud printanier #1 Moudon", "date": {"mer. 04.06.2014": {"year": 2014, "day": 4, "month": 6, "categories": {"D-Sen2": {"distance": 8, "rank": 20, "pace": 395000000000, "time": 3320.4}}, "weekday": "wednesday", "livingplace": "Lausanne"}}, "location": "Nyon"}, "Tour du Pays de Vaud printanier #3 - Yens": {"latitude": 46.7829756, "longitude": 6.5728678, "race": "Tour du Pays de Vaud printanier #3 - Yens", "date": {"mer. 18.06.2014": {"year": 2014, "day": 18, "month": 6, "categories": {"D-Sen2": {"distance": 9, "rank": 26, "pace": 383000000000, "time": 3492.7}}, "weekday": "wednesday", "livingplace": "Lausanne"}}, "location": "Champvent"}, "Tour du Pays de Vaud #2 - Mezi\u00e8res": {"latitude": 46.5955273, "longitude": 6.7702883, "race": "Tour du Pays de Vaud #2 - Mezi\u00e8res", "date": {"mer. 21.08.2013": {"year": 2013, "day": 21, "month": 8, "categories": {"D-Sen2": {"distance": 8, "rank": 76, "pace": 430000000000, "time": 3489.3}}, "weekday": "wednesday", "livingplace": "Lausanne"}}, "location": "M\u00e9zi\u00e8res VD"}, "20km de Lausanne": {"latitude": 46.5196535, "longitude": 6.6322734, "race": "20km de Lausanne", "date": {"sam. 27.04.2013": {"year": 2013, "day": 27, "month": 4, "categories": {"10-F45": {"distance": 10, "rank": 220, "pace": 380000000000, "time": 3801.5}}, "weekday": "saturday", "livingplace": "Se Bouger pour sa sante 4"}, "sam. 25.04.2015": {"year": 2015, "day": 25, "month": 4, "categories": {"10-F50": {"distance": 10, "rank": 100, "pace": 374000000000, "time": 3743.6}}, "weekday": "saturday", "livingplace": "Se bouger pour sa sante 1"}, "sam. 26.04.2014": {"year": 2014, "day": 26, "month": 4, "categories": {"10-F45": {"distance": 10, "rank": 187, "pace": 371000000000, "time": 3718.2}}, "weekday": "saturday", "livingplace": "Se bouger pour sa sante 4"}}, "location": "Lausanne"}, "Tour du Pays de Vaud #4 - La Sarraz": {"latitude": 46.7088129, "longitude": 6.5707689, "race": "Tour du Pays de Vaud #4 - La Sarraz", "date": {"mer. 04.09.2013": {"year": 2013, "day": 4, "month": 9, "categories": {"D-Sen2": {"distance": 9, "rank": 65, "pace": 398000000000, "time": 3383.4}}, "weekday": "wednesday", "livingplace": "Lausanne"}}, "location": "Chavornay"}, "Tour du pays de Vaud #1 - Penthaz": {"latitude": 46.5993131, "longitude": 6.539251200000001, "race": "Tour du pays de Vaud #1 - Penthaz", "date": {"mer. 14.08.2013": {"year": 2013, "day": 14, "month": 8, "categories": {"D-Sen2": {"distance": 9, "rank": 63, "pace": 391000000000, "time": 3342.7}}, "weekday": "wednesday", "livingplace": "Lausanne"}}, "location": "Penthaz"}}, "birth": 1965}