{"name": "Ziswiler Sven", "sex": "M", "races": {"Int  Bieler Cross, Biel-Bienne": {"latitude": 47.1367785, "longitude": 7.2467909, "race": "Int  Bieler Cross, Biel-Bienne", "date": {"dim. 11.11.2012": {"year": 2012, "day": 11, "month": 11, "categories": {"MU12": {"distance": 2, "rank": 16, "pace": 252000000000, "time": 378.1}}, "weekday": "sunday", "livingplace": "Dotzigen"}}, "location": "Biel/Bienne"}, "Derendinger Abendlauf, Derendingen": {"latitude": 47.1952433, "longitude": 7.585593099999999, "race": "Derendinger Abendlauf, Derendingen", "date": {"ven. 28.06.2013": {"year": 2013, "day": 28, "month": 6, "categories": {"MK": {"distance": 2, "rank": 7, "pace": 251000000000, "time": 604.6}}, "weekday": "friday", "livingplace": "Dotzigen"}}, "location": "Derendingen"}, "Langenthaler Stadtlauf": {"latitude": 47.2120786, "longitude": 7.790562299999999, "race": "Langenthaler Stadtlauf", "date": {"sam. 17.11.2012": {"year": 2012, "day": 17, "month": 11, "categories": {"KidsM": {"distance": 1, "rank": 23, "pace": 242000000000, "time": 303.2}}, "weekday": "saturday", "livingplace": "Dotzigen"}, "sam. 23.11.2013": {"year": 2013, "day": 23, "month": 11, "categories": {"TeenM": {"distance": 1, "rank": 34, "pace": 239000000000, "time": 299.9}}, "weekday": "saturday", "livingplace": "Dotzigen"}}, "location": "Langenthal"}, "Kerzerslauf": {"latitude": 46.97488999999999, "longitude": 7.1954365, "race": "Kerzerslauf", "date": {"sam. 17.03.2012": {"year": 2012, "day": 17, "month": 3, "categories": {"2-M11": {"distance": 1, "rank": 43, "pace": 250000000000, "time": 350.4}}, "weekday": "saturday", "livingplace": "Dotzigen"}}, "location": "Kerzers"}, "Emmenlauf Utzenstorf": {"latitude": 47.12816670000001, "longitude": 7.5588034, "race": "Emmenlauf Utzenstorf", "date": {"mer. 15.08.2012": {"year": 2012, "day": 15, "month": 8, "categories": {"Rock_K": {"distance": 2, "rank": 25, "pace": 256000000000, "time": 385.3}}, "weekday": "wednesday", "livingplace": "Dotzigen"}}, "location": "Utzenstorf"}, "Burgdorfer Stadtlauf, Burgdorf": {"latitude": 45.277123, "longitude": -115.9129022, "race": "Burgdorfer Stadtlauf, Burgdorf", "date": {"sam. 14.09.2013": {"year": 2013, "day": 14, "month": 9, "categories": {"S-Sch2M": {"distance": 2, "rank": 6, "pace": 313000000000, "time": 674.6}}, "weekday": "saturday", "livingplace": "Dotzigen"}}, "location": "Burgdorf"}}, "birth": 2001}