{"name": "Zordan Jean Claude", "sex": "M", "races": {"Tour du Pays de Vaud #2 - Genolier": {"latitude": 46.5955273, "longitude": 6.7702883, "race": "Tour du Pays de Vaud #2 - Genolier", "date": {"mer. 15.08.2012": {"year": 2012, "day": 15, "month": 8, "categories": {"H-Sen3": {"distance": 9, "rank": 94, "pace": 348000000000, "time": 2961.8}}, "weekday": "wednesday", "livingplace": "St Prex"}, "mer. 17.08.2011": {"year": 2011, "day": 17, "month": 8, "categories": {"H-Sen3": {"distance": 9, "rank": 76, "pace": 367000000000, "time": 3126.5}}, "weekday": "wednesday", "livingplace": "St Prex"}, "mer. 18.08.2010": {"year": 2010, "day": 18, "month": 8, "categories": {"HSen3": {"distance": 8, "rank": 69, "pace": 348000000000, "time": 2823.1}}, "weekday": "wednesday", "livingplace": "St Prex"}}, "location": "M\u00e9zi\u00e8res VD"}, "Tour du pays de Vaud #1 \u2013 St  Prex": {"latitude": 46.7784736, "longitude": 6.641183, "race": "Tour du pays de Vaud #1 \u2013 St  Prex", "date": {"mer. 11.08.2010": {"year": 2010, "day": 11, "month": 8, "categories": {"HSen3": {"distance": 8, "rank": 78, "pace": 359000000000, "time": 3019.7}}, "weekday": "wednesday", "livingplace": "St Prex"}}, "location": "Yverdon-les-Bains"}, "Tour du Pays de Vaud #3 - Mezi\u00e8res": {"latitude": 46.7784736, "longitude": 6.641183, "race": "Tour du Pays de Vaud #3 - Mezi\u00e8res", "date": {"mer. 22.08.2012": {"year": 2012, "day": 22, "month": 8, "categories": {"H-Sen3": {"distance": 8, "rank": 89, "pace": 372000000000, "time": 3133.1}}, "weekday": "wednesday", "livingplace": "St Prex"}}, "location": "Yverdon-les-Bains"}, "Tour du pays de Vaud #1 - Penthaz": {"latitude": 46.5993131, "longitude": 6.539251200000001, "race": "Tour du pays de Vaud #1 - Penthaz", "date": {"mer. 08.08.2012": {"year": 2012, "day": 8, "month": 8, "categories": {"H-Sen3": {"distance": 9, "rank": 75, "pace": 357000000000, "time": 3048.6}}, "weekday": "wednesday", "livingplace": "St Prex"}}, "location": "Penthaz"}, "Tour du pays de Vaud #6 - St  Prex": {"latitude": 46.4829113, "longitude": 6.458343500000001, "race": "Tour du pays de Vaud #6 - St  Prex", "date": {"mer. 14.09.2011": {"year": 2011, "day": 14, "month": 9, "categories": {"H-Sen3": {"distance": 9, "rank": 103, "pace": 339000000000, "time": 2921.4}}, "weekday": "wednesday", "livingplace": "St Prex"}}, "location": "St-Prex"}, "Tour du pays de Vaud #1 - Mezi\u00e8res": {"latitude": 46.7784736, "longitude": 6.641183, "race": "Tour du pays de Vaud #1 - Mezi\u00e8res", "date": {"mer. 10.08.2011": {"year": 2011, "day": 10, "month": 8, "categories": {"H-Sen3": {"distance": 9, "rank": 87, "pace": 341000000000, "time": 2901.1}}, "weekday": "wednesday", "livingplace": "St Prex"}}, "location": "Yverdon-les-Bains"}, "Tour du pays de Vaud #5 - Penthaz": {"latitude": 46.5993131, "longitude": 6.539251200000001, "race": "Tour du pays de Vaud #5 - Penthaz", "date": {"mer. 07.09.2011": {"year": 2011, "day": 7, "month": 9, "categories": {"H-Sen3": {"distance": 8, "rank": 82, "pace": 392000000000, "time": 3281.5}}, "weekday": "wednesday", "livingplace": "St Prex"}}, "location": "Penthaz"}, "20km de Lausanne": {"latitude": 46.5196535, "longitude": 6.6322734, "race": "20km de Lausanne", "date": {"sam. 30.04.2011": {"year": 2011, "day": 30, "month": 4, "categories": {"10-H55": {"distance": 10, "rank": 91, "pace": 354000000000, "time": 3547.1}}, "weekday": "saturday", "livingplace": "St Prex"}, "sam. 24.04.2010": {"year": 2010, "day": 24, "month": 4, "categories": {"10-H55": {"distance": 10, "rank": 73, "pace": 355000000000, "time": 3552.3}}, "weekday": "saturday", "livingplace": "St Prex"}, "sam. 28.04.2012": {"year": 2012, "day": 28, "month": 4, "categories": {"10-H55": {"distance": 10, "rank": 99, "pace": 361000000000, "time": 3611.2}}, "weekday": "saturday", "livingplace": "St Prex"}}, "location": "Lausanne"}, "Tour du Pays de Vaud #4 - La Sarraz": {"latitude": 46.7088129, "longitude": 6.5707689, "race": "Tour du Pays de Vaud #4 - La Sarraz", "date": {"mer. 29.08.2012": {"year": 2012, "day": 29, "month": 8, "categories": {"H-Sen3": {"distance": 9, "rank": 102, "pace": 345000000000, "time": 2937.7}}, "weekday": "wednesday", "livingplace": "St Prex"}}, "location": "Chavornay"}, "Tour du Pays de Vaud #5 - La Sarraz": {"latitude": 46.5993131, "longitude": 6.539251200000001, "race": "Tour du Pays de Vaud #5 - La Sarraz", "date": {"mer. 08.09.2010": {"year": 2010, "day": 8, "month": 9, "categories": {"HSen3": {"distance": 9, "rank": 71, "pace": 359000000000, "time": 3272.4}}, "weekday": "wednesday", "livingplace": "St Prex"}}, "location": "Penthaz"}}, "birth": 1953}