{"name": "Zubler Edoardo", "sex": "M", "races": {"Kerzerslauf": {"latitude": 46.97488999999999, "longitude": 7.1954365, "race": "Kerzerslauf", "date": {"sam. 15.03.2014": {"year": 2014, "day": 15, "month": 3, "categories": {"15-M40": {"distance": 15, "rank": 507, "pace": 372000000000, "time": 5594.4}}, "weekday": "saturday", "livingplace": "Coldrerio"}}, "location": "Kerzers"}, "Stralugano, Lugano": {"latitude": 46.0036778, "longitude": 8.951051999999999, "race": "Stralugano, Lugano", "date": {"dim. 27.09.2015": {"year": 2015, "day": 27, "month": 9, "categories": {"10-M40": {"distance": 10, "rank": 466, "pace": 349000000000, "time": 3497.4}}, "weekday": "sunday", "livingplace": "Coldrerio"}, "dim. 29.09.2013": {"year": 2013, "day": 29, "month": 9, "categories": {"10-M40": {"distance": 10, "rank": 338, "pace": 325000000000, "time": 3257.1}}, "weekday": "sunday", "livingplace": "Coldrerio"}}, "location": "Lugano"}, "Basler Stadtlauf": {"latitude": 47.5595986, "longitude": 7.5885761, "race": "Basler Stadtlauf", "date": {"sam. 30.11.2013": {"year": 2013, "day": 30, "month": 11, "categories": {"M40": {"distance": 6, "rank": 354, "pace": 325000000000, "time": 1789.6}}, "weekday": "saturday", "livingplace": "Coldrerio"}}, "location": "Basel"}, "Maratona Ticino, Tenero": {"latitude": NaN, "longitude": NaN, "race": "Maratona Ticino, Tenero", "date": {"dim. 10.11.2013": {"year": 2013, "day": 10, "month": 11, "categories": {"10-M40": {"distance": 10, "rank": 96, "pace": 339000000000, "time": 3397.5}}, "weekday": "sunday", "livingplace": "Coldrerio"}, "dim. 11.11.2012": {"year": 2012, "day": 11, "month": 11, "categories": {"Mini-M": {"distance": 4, "rank": 9, "pace": 305000000000, "time": 1290.0}}, "weekday": "sunday", "livingplace": "Coldrerio"}}, "location": "Tenero"}, "ASICS Bremgarter Reusslauf": {"latitude": 47.34917739999999, "longitude": 8.3397905, "race": "ASICS Bremgarter Reusslauf", "date": {"sam. 22.02.2014": {"year": 2014, "day": 22, "month": 2, "categories": {"11-M40": {"distance": 11, "rank": 567, "pace": 354000000000, "time": 3900.2}}, "weekday": "saturday", "livingplace": "Coldrerio"}}, "location": "Bremgarten AG"}, "Lausanne Marathon": {"latitude": 46.5196535, "longitude": 6.6322734, "race": "Lausanne Marathon", "date": {"dim. 27.10.2013": {"year": 2013, "day": 27, "month": 10, "categories": {"42-H3": {"distance": 42, "rank": 405, "pace": 439000000000, "time": 18542.6}}, "weekday": "sunday", "livingplace": "Coldrerio"}}, "location": "Lausanne"}, "20km de Lausanne": {"latitude": 46.5196535, "longitude": 6.6322734, "race": "20km de Lausanne", "date": {"sam. 27.04.2013": {"year": 2013, "day": 27, "month": 4, "categories": {"10-H40": {"distance": 10, "rank": 345, "pace": 323000000000, "time": 3235.8}}, "weekday": "saturday", "livingplace": "Coldrerio"}, "sam. 26.04.2014": {"year": 2014, "day": 26, "month": 4, "categories": {"10-H40": {"distance": 10, "rank": 432, "pace": 355000000000, "time": 3558.9}}, "weekday": "saturday", "livingplace": "Coldrerio"}}, "location": "Lausanne"}, "Z\u00fcrcher Silvesterlauf, Z\u00fcrich": {"latitude": 47.3768866, "longitude": 8.541694, "race": "Z\u00fcrcher Silvesterlauf, Z\u00fcrich", "date": {"dim. 15.12.2013": {"year": 2013, "day": 15, "month": 12, "categories": {"10-M40": {"distance": 10, "rank": 1065, "pace": 345000000000, "time": 3459.5}}, "weekday": "sunday", "livingplace": "Coldrerio"}, "dim. 16.12.2012": {"year": 2012, "day": 16, "month": 12, "categories": {"Fun-M": {"distance": 4, "rank": 392, "pace": 359000000000, "time": 1581.3}}, "weekday": "sunday", "livingplace": "Coldrerio"}}, "location": "Z\u00fcrich"}, "Winterthur Marathon": {"latitude": 39.8088766, "longitude": -75.6037351, "race": "Winterthur Marathon", "date": {"dim. 26.05.2013": {"year": 2013, "day": 26, "month": 5, "categories": {"H-M40": {"distance": 21, "rank": 299, "pace": 353000000000, "time": 7422.6}}, "weekday": "sunday", "livingplace": "Coldrerio"}}, "location": "Winterthur"}}, "birth": 1973}