{"name": "Zubler Peter", "sex": "M", "races": {"Burgdorfer Stadtlauf, Burgdorf": {"latitude": 45.277123, "longitude": -115.9129022, "race": "Burgdorfer Stadtlauf, Burgdorf", "date": {"sam. 14.09.2013": {"year": 2013, "day": 14, "month": 9, "categories": {"10-SenM3": {"distance": 10, "rank": 17, "pace": 332000000000, "time": 3321.3}}, "weekday": "saturday", "livingplace": "Daniken"}}, "location": "Burgdorf"}, "Pfingstlauf Wohlen AG": {"latitude": 47.3493653, "longitude": 8.2768762, "race": "Pfingstlauf Wohlen AG", "date": {"sam. 29.05.2004": {"year": 2004, "day": 29, "month": 5, "categories": {"M40": {"distance": 8, "rank": 125, "pace": 315000000000, "time": 2587.9}}, "weekday": "saturday", "livingplace": "Daniken"}, "sam. 03.06.2006": {"year": 2006, "day": 3, "month": 6, "categories": {"M40": {"distance": 8, "rank": 110, "pace": 307000000000, "time": 2518.1}}, "weekday": "saturday", "livingplace": "Daniken"}}, "location": "Wohlen AG"}, "ASICS Bremgarter Reusslauf": {"latitude": 47.34917739999999, "longitude": 8.3397905, "race": "ASICS Bremgarter Reusslauf", "date": {"sam. 17.02.2007": {"year": 2007, "day": 17, "month": 2, "categories": {"31": {"distance": 6, "rank": 49, "pace": 313000000000, "time": 1754.6}}, "weekday": "saturday", "livingplace": "Daniken"}, "sam. 21.02.2004": {"year": 2004, "day": 21, "month": 2, "categories": {"13": {"distance": 11, "rank": 424, "pace": 306000000000, "time": 3218.4}}, "weekday": "saturday", "livingplace": "Moriken"}}, "location": "Bremgarten AG"}, "Badener Limmat-Lauf, Baden": {"latitude": 48.5699281, "longitude": 8.5303972, "race": "Badener Limmat-Lauf, Baden", "date": {"sam. 27.03.2004": {"year": 2004, "day": 27, "month": 3, "categories": {"13": {"distance": 13, "rank": 153, "pace": 336000000000, "time": 4425.9}}, "weekday": "saturday", "livingplace": "Moriken"}}, "location": "Baden"}, "Kerzerslauf": {"latitude": 46.97488999999999, "longitude": 7.1954365, "race": "Kerzerslauf", "date": {"sam. 17.03.2007": {"year": 2007, "day": 17, "month": 3, "categories": {"M45": {"distance": 15, "rank": 454, "pace": 340000000000, "time": 5110.9}}, "weekday": "saturday", "livingplace": "Daniken"}}, "location": "Kerzers"}, "Sihltaler Fr\u00fchlingslauf, Gattikon": {"latitude": 47.2949282, "longitude": 8.5644799, "race": "Sihltaler Fr\u00fchlingslauf, Gattikon", "date": {"mar. 01.05.2007": {"year": 2007, "day": 1, "month": 5, "categories": {"M40": {"distance": 10, "rank": 84, "pace": 326000000000, "time": 3268.0}}, "weekday": "tuesday", "livingplace": "Daniken"}}, "location": "Gattikon"}, "Herbstlauf Muri AG": {"latitude": NaN, "longitude": NaN, "race": "Herbstlauf Muri AG", "date": {"sam. 26.08.2006": {"year": 2006, "day": 26, "month": 8, "categories": {"M40": {"distance": 10, "rank": 64, "pace": 302000000000, "time": 3026.8}}, "weekday": "saturday", "livingplace": "Daniken"}}, "location": "Muri AG"}}, "birth": 1959}