{"name": "Zucchinetti Francesco", "sex": "M", "races": {"Tour du Chablais #1 Roche": {"latitude": 46.2957462, "longitude": 6.9916269, "race": "Tour du Chablais #1 Roche", "date": {"mer. 07.04.2010": {"year": 2010, "day": 7, "month": 4, "categories": {"M-Jun": {"distance": 9, "rank": 11, "pace": 249000000000, "time": 2237.3}}, "weekday": "wednesday", "livingplace": "Muraz Collombey"}}, "location": "Ollon VD"}, "Tour du Chablais #6 Mouthey": {"latitude": 46.3190253, "longitude": 6.970566, "race": "Tour du Chablais #6 Mouthey", "date": {"mer. 12.05.2010": {"year": 2010, "day": 12, "month": 5, "categories": {"M-Jun": {"distance": 9, "rank": 16, "pace": 242000000000, "time": 2231.2}}, "weekday": "wednesday", "livingplace": "Muraz Collombey"}}, "location": "Aigle"}, "Tour du Chablais #4 Yvorne": {"latitude": NaN, "longitude": NaN, "race": "Tour du Chablais #4 Yvorne", "date": {"mer. 28.04.2010": {"year": 2010, "day": 28, "month": 4, "categories": {"M-Jun": {"distance": 8, "rank": 12, "pace": 267000000000, "time": 2211.2}}, "weekday": "wednesday", "livingplace": "Muraz Collombey"}}, "location": "Les Mosses"}, "Morat-Fribourg": {"latitude": 46.92922110000001, "longitude": 7.120184, "race": "Morat-Fribourg", "date": {"sam. 03.10.2009": {"year": 2009, "day": 3, "month": 10, "categories": {"C-CadH": {"distance": 17, "rank": 9, "pace": 275000000000, "time": 4725.4}}, "weekday": "saturday", "livingplace": "Ch"}}, "location": "Murten"}, "Tour du Chablais #3 Bex": {"latitude": 46.1782231, "longitude": 7.0223787, "race": "Tour du Chablais #3 Bex", "date": {"mer. 21.04.2010": {"year": 2010, "day": 21, "month": 4, "categories": {"M-Jun": {"distance": 10, "rank": 17, "pace": 256000000000, "time": 2564.3}}, "weekday": "wednesday", "livingplace": "Muraz Collombey"}}, "location": "Evionnaz"}, "Tour du Chablais #5 Leysin": {"latitude": 46.3603257, "longitude": 6.931504599999999, "race": "Tour du Chablais #5 Leysin", "date": {"mer. 05.05.2010": {"year": 2010, "day": 5, "month": 5, "categories": {"M-Jun": {"distance": 8, "rank": 11, "pace": 274000000000, "time": 2316.5}}, "weekday": "wednesday", "livingplace": "Muraz Collombey"}}, "location": "Roche VD"}, "Tour du Chablais #2 St-Gingolph": {"latitude": 46.3835529, "longitude": 6.854975199999999, "race": "Tour du Chablais #2 St-Gingolph", "date": {"mer. 14.04.2010": {"year": 2010, "day": 14, "month": 4, "categories": {"M-Jun": {"distance": 8, "rank": 13, "pace": 267000000000, "time": 2229.8}}, "weekday": "wednesday", "livingplace": "Muraz Collombey"}}, "location": "Bouveret"}}, "birth": 1993}