{"name": "Zurbriggen Gody", "sex": "M", "races": {"Gurtenclassic, Wabern": {"latitude": 46.92901639999999, "longitude": 7.448973199999999, "race": "Gurtenclassic, Wabern", "date": {"dim. 04.11.2001": {"year": 2001, "day": 4, "month": 11, "categories": {"M50": {"distance": 15, "rank": 31, "pace": 307000000000, "time": 4645.3}}, "weekday": "sunday", "livingplace": "Luzern"}}, "location": "Wabern"}, "Luzerner Stadtlauf": {"latitude": 47.05016819999999, "longitude": 8.3093072, "race": "Luzerner Stadtlauf", "date": {"sam. 27.04.2002": {"year": 2002, "day": 27, "month": 4, "categories": {"K/29": {"distance": 6, "rank": 43, "pace": 259000000000, "time": 1426.3}}, "weekday": "saturday", "livingplace": "Luzern"}}, "location": "Luzern"}, "Morat-Fribourg": {"latitude": 46.92922110000001, "longitude": 7.120184, "race": "Morat-Fribourg", "date": {"dim. 07.10.2001": {"year": 2001, "day": 7, "month": 10, "categories": {"M55": {"distance": 17, "rank": 29, "pace": 279000000000, "time": 4801.7}}, "weekday": "sunday", "livingplace": "Luzern"}}, "location": "Murten"}, "Kerzerslauf": {"latitude": 46.97488999999999, "longitude": 7.1954365, "race": "Kerzerslauf", "date": {"sam. 17.03.2001": {"year": 2001, "day": 17, "month": 3, "categories": {"M55": {"distance": 15, "rank": 46, "pace": 280000000000, "time": 4205.3}}, "weekday": "saturday", "livingplace": "Sion"}}, "location": "Kerzers"}, "Course de l'Escalade, Gen\u00e8ve": {"latitude": 46.2043907, "longitude": 6.1431577, "race": "Course de l'Escalade, Gen\u00e8ve", "date": {"sam. 07.12.2002": {"year": 2002, "day": 7, "month": 12, "categories": {"Hommes4": {"distance": 7, "rank": 102, "pace": 259000000000, "time": 1881.3}}, "weekday": "saturday", "livingplace": "Luzern"}}, "location": "Gen\u00e8ve"}}, "birth": 1944}