{"name": "Zurbr\u00fcgg Sandro", "sex": "M", "races": {"Morat-Fribourg": {"latitude": 46.92922110000001, "longitude": 7.120184, "race": "Morat-Fribourg", "date": {"sam. 03.10.2009": {"year": 2009, "day": 3, "month": 10, "categories": {"C-M20": {"distance": 17, "rank": 102, "pace": 245000000000, "time": 4207.3}}, "weekday": "saturday", "livingplace": "Heitenried"}, "sam. 04.10.2008": {"year": 2008, "day": 4, "month": 10, "categories": {"C-M20": {"distance": 17, "rank": 127, "pace": 244000000000, "time": 4199.2}}, "weekday": "saturday", "livingplace": "Groupe E Equipe 1"}}, "location": "Murten"}, "Groupe E Tour Fribourg #5 Fribourg": {"latitude": 46.8128615, "longitude": 7.131657799999999, "race": "Groupe E Tour Fribourg #5 Fribourg", "date": {"mer. 18.09.2013": {"year": 2013, "day": 18, "month": 9, "categories": {"HS2": {"distance": 10, "rank": 9, "pace": 242000000000, "time": 2427.2}}, "weekday": "wednesday", "livingplace": "Heitenried"}}, "location": "Givisiez"}, "Groupe E Tour Fribourg #3 Charmey": {"latitude": 46.97488999999999, "longitude": 7.1954365, "race": "Groupe E Tour Fribourg #3 Charmey", "date": {"mer. 04.09.2013": {"year": 2013, "day": 4, "month": 9, "categories": {"HS2": {"distance": 11, "rank": 10, "pace": 265000000000, "time": 2886.8}}, "weekday": "wednesday", "livingplace": "Heitenried"}}, "location": "Kerzers"}, "Groupe E Tour Fribourg #1 Siviriez": {"latitude": 46.81832, "longitude": 6.977279999999999, "race": "Groupe E Tour Fribourg #1 Siviriez", "date": {"mer. 21.08.2013": {"year": 2013, "day": 21, "month": 8, "categories": {"HS2": {"distance": 10, "rank": 8, "pace": 256000000000, "time": 2516.7}}, "weekday": "wednesday", "livingplace": "Heitenried"}}, "location": "Cousset"}, "Groupe E Tour Fribourg #5, Givisiez": {"latitude": 46.8128615, "longitude": 7.131657799999999, "race": "Groupe E Tour Fribourg #5, Givisiez", "date": {"mer. 17.09.2014": {"year": 2014, "day": 17, "month": 9, "categories": {"H-Sen2": {"distance": 10, "rank": 9, "pace": 261000000000, "time": 2686.8}}, "weekday": "wednesday", "livingplace": "Heitenried"}}, "location": "Givisiez"}, "Gurtenclassic, Wabern": {"latitude": 46.92901639999999, "longitude": 7.448973199999999, "race": "Gurtenclassic, Wabern", "date": {"dim. 04.11.2007": {"year": 2007, "day": 4, "month": 11, "categories": {"BM25": {"distance": 17, "rank": 9, "pace": 182000000000, "time": 3065.3}}, "weekday": "sunday", "livingplace": "Heitenried"}}, "location": "Wabern"}, "Groupe E Tour Fribourg #3, Kerzers": {"latitude": 46.97488999999999, "longitude": 7.1954365, "race": "Groupe E Tour Fribourg #3, Kerzers", "date": {"mer. 03.09.2014": {"year": 2014, "day": 3, "month": 9, "categories": {"H-Sen2": {"distance": 10, "rank": 23, "pace": 264000000000, "time": 2687.2}}, "weekday": "wednesday", "livingplace": "Heitenried"}}, "location": "Kerzers"}, "Groupe E Tour Fribourg #1, Cousset": {"latitude": 46.81832, "longitude": 6.977279999999999, "race": "Groupe E Tour Fribourg #1, Cousset", "date": {"mer. 20.08.2014": {"year": 2014, "day": 20, "month": 8, "categories": {"H-Sen2": {"distance": 9, "rank": 9, "pace": 247000000000, "time": 2326.0}}, "weekday": "wednesday", "livingplace": "Heitenried"}}, "location": "Cousset"}, "Groupe E Tour Fribourg #2 Kerzers": {"latitude": 46.6175845, "longitude": 7.1654493, "race": "Groupe E Tour Fribourg #2 Kerzers", "date": {"mer. 28.08.2013": {"year": 2013, "day": 28, "month": 8, "categories": {"HS2": {"distance": 12, "rank": 9, "pace": 250000000000, "time": 2970.6}}, "weekday": "wednesday", "livingplace": "Heitenried"}}, "location": "Charmey (Gruy\u00e8re)"}}, "birth": 1972}