{"name": "Zysset Didier", "sex": "M", "races": {"Tour du Pays de Vaud #2 - Genolier": {"latitude": 46.5955273, "longitude": 6.7702883, "race": "Tour du Pays de Vaud #2 - Genolier", "date": {"mer. 17.08.2011": {"year": 2011, "day": 17, "month": 8, "categories": {"H-Hom": {"distance": 9, "rank": 52, "pace": 310000000000, "time": 2635.7}}, "weekday": "wednesday", "livingplace": "Concise"}}, "location": "M\u00e9zi\u00e8res VD"}, "20km de Lausanne": {"latitude": 46.5196535, "longitude": 6.6322734, "race": "20km de Lausanne", "date": {"sam. 28.04.2007": {"year": 2007, "day": 28, "month": 4, "categories": {"10H20": {"distance": 10, "rank": 31, "pace": 237000000000, "time": 2376.0}}, "weekday": "saturday", "livingplace": "Concise"}}, "location": "Lausanne"}, "Tour du pays de Vaud #6 - St  Prex": {"latitude": 46.4829113, "longitude": 6.458343500000001, "race": "Tour du pays de Vaud #6 - St  Prex", "date": {"mer. 14.09.2011": {"year": 2011, "day": 14, "month": 9, "categories": {"H-Hom": {"distance": 9, "rank": 33, "pace": 262000000000, "time": 2254.6}}, "weekday": "wednesday", "livingplace": "Concise"}}, "location": "St-Prex"}, "Kerzerslauf": {"latitude": 46.97488999999999, "longitude": 7.1954365, "race": "Kerzerslauf", "date": {"sam. 17.03.2007": {"year": 2007, "day": 17, "month": 3, "categories": {"M20": {"distance": 15, "rank": 158, "pace": 246000000000, "time": 3700.8}}, "weekday": "saturday", "livingplace": "Concise"}}, "location": "Kerzers"}, "Tour du pays de Vaud #1 - Mezi\u00e8res": {"latitude": 46.7784736, "longitude": 6.641183, "race": "Tour du pays de Vaud #1 - Mezi\u00e8res", "date": {"mer. 10.08.2011": {"year": 2011, "day": 10, "month": 8, "categories": {"H-Hom": {"distance": 9, "rank": 42, "pace": 277000000000, "time": 2356.4}}, "weekday": "wednesday", "livingplace": "Concise"}}, "location": "Yverdon-les-Bains"}}, "birth": 1984}